~Version
 VERS              .         2.0                           : CWLS LOG ASCII STANDARD - VERSION 2.0
 WRAP              .         NO                            : ONE LINE PER DEPTH STEP
 DLM               .         SPACE                         : DELIMITING CHARACTER(SPACE TAB OR COMMA)
~Well Information
#_______________________________________________________________________________
#
#PARAMETER_NAME    .UNIT     VALUE                         : DESCRIPTION
#_______________________________________________________________________________
STRT               .M        4949.000                      : First reference value
STOP               .M        5060.404                      : Last reference value
STEP               .M        0.152                         : Step increment
NULL               .         -9999                         : Missing value
COMP               .         PETROBRAS                     : Company
WELL               .         7-SPH-22-SPS                  : Well name
FLD                .         SAPINHOA                      : Field
LOC                .                                       : Location
CNTY               .                                       : County
STAT               .         SAO PAULO                     : State
CTRY               .         BR                            : Country
SRVC               .                                       : Service Company
DATE               .         25/07/2016                    : Date
API                .         863160046800                  : API number
APD                .M        26.0                          : ABOVE PERMANENT DATUM
BHT                .degF     140.0                         : BOTTOMHOLE TEMPERATURE
BLI                .M        5055.8                        : BOTTOM LOGGED INTERVAL
BS                 .in       8.5                           : BIT SIZE
CBDR               .M        4981                          : Casing Bottom (Driller)
CBLO               .M        4981                          : Casing Bottom of Logger
CSIZ               .in       10.75                         : Casing Outer Diameter
CWEI               .lb/ft    85.3                          : Casing Weight
DCS                .         23/07/2016                    : DATE CIRCULATION STOPPED
DFD                .lb/gal   9.7                           : DRILLING FLUID DENSITY
DFT                .         CATIONICO_SCOL (BASE AGUA)    : DRILLING FLUID TYPE
DLAB               .         25/07/2016                    : DATE LOGGING ON BOTTOM
EDF                .M        26.0                          : ELEVATION OF DRILLING FLOOR
EGL                .M        -2144.0                       : ELEVATION OF GROUND LEVEL
EKB                .M        -999.25                       : ELEVATION OF KELLY BUSHING
EPD                .M        0.0                           : ELEVATATION OF PERMANENT DATUM
GDAT               .                                       : Geodetic Datum
LMF                .         MR                            : LOG MEASURED FROM
LUL                .         MCE                           : LOGGING UNIT LOCATION
LUN                .         10898943                      : LOGGING UNIT NUMBER
LATI               .         -25_48_08.320                 : Latitude
LONG               .         -43_13_44,430                 : LONGITUDE
MCST               .degF     66.1                          : MUDCAKE SAMPLE TEMPERATURE
MFST               .degF     66.4                          : MUD FILTRATE SAMPLE TEMPERATURE
MRT                .degF     140.0                         : MAXIMUM RECORDED TEMPERATURE
MST                .degF     65.8                          : MUD SAMPLE TEMPERATURE
ORIGINALWELLNAME   .         7SPH 0022  SPS                : 
PDAT               .         NM                            : PERMANENT DATUM
PRODUCER-CODE      .         280                           : 
PRODUCER-NAME      .         Halliburton                   : 
RMB                .ohm.m    0.040                         : RESISTIVITY OF MUD - BHT
RMCS               .ohm.m    0.140                         : RESISTIVITY OF MUDCAKE SAMPLE
RMFS               .ohm.m    0.012                         : RESISTIVITY OF MUD FILTRATE SAMPLE
RMS                .ohm.m    0.080                         : RESISTIVITY OF MUD SAMPLE
RUN                .         01                            : RUN NUMBER 1
TCS                .h        19_00                         : TIME CIRCULATION STOPPED
TDD                .M        5058.0                        : DRILLERS DEPTH
TDL                .M        5057.1                        : LOGGERS DEPTH
TLAB               .h        07_15                         : TIME LOGGING ON BOTTOM
TLI                .M        4950.0                        : TOP LOGGED INTERVAL
X                  .M        677550.00000000               : X or East-West coordinate
Y                  .M        7145014.00000000              : Y or North South coordinate
~Parameter Information Block
#_______________________________________________________________________________
#
#PARAMETER_NAME    .UNIT     VALUE                         : DESCRIPTION
#_______________________________________________________________________________
SET                .         BASE                          : 
TLFamily_BS        .         Bit Size                      : 
TLFamily_DT        .         Compressional Slowness        : 
TLFamily_DWAL      .         Aluminum Weight Fraction      : 
TLFamily_DWCA      .         Calcium Weight Fraction       : 
TLFamily_DWFE      .         Iron Weight Fraction          : 
TLFamily_DWK       .         Potassium Weight Fraction     : 
TLFamily_DWMG      .         Magnesium Weight Fraction     : 
TLFamily_DWMN      .         Manganese Weight Fraction     : 
TLFamily_DWS       .         Sulfur Weight Fraction        : 
TLFamily_DWSI      .         Silicon Weight Fraction       : 
TLFamily_DWTI      .         Titanium Weight Fraction      : 
TLFamily_GR        .         Gamma Ray                     : 
TLFamily_GRt       .         Gamma Ray                     : 
TLFamily_HCAL      .         Caliper                       : 
TLFamily_HDRA      .         Bulk Density Correction       : 
TLFamily_HFK       .         Potassium Concentration       : 
TLFamily_HTHO      .         Thorium Concentration         : 
TLFamily_HURA      .         Uranium Concentration         : 
TLFamily_MD        .         Measured Depth                : 
TLFamily_MPERM     .         NMR Permeability              : 
TLFamily_NMRE_Final .         NMR Bound Fluid Volume Fraction: 
TLFamily_NMRFL_Final .         NMR Free Fluids               : 
TLFamily_NMRT_Final .         NMR Porosity                  : 
TLFamily_NPHI      .         Neutron Porosity              : 
TLFamily_PE        .         Photoelectric Factor          : 
TLFamily_RD        .         Resistivity - Deep            : 
TLFamily_RHOB      .         Bulk Density                  : 
TLFamily_RS        .         Resistivity - Shallow         : 
TLFamily_T2LM      .         NMR T2 Logarithmic Mean       : 
TLFamily_TVDSS     .         True Vertical Depth Sub Sea   : 
~Curve Information
#_______________________________________________________________________________
#
#LOGNAME           .UNIT     LOG_ID                        : DESCRIPTION
#_______________________________________________________________________________
DEPTH              .M                                      :  
BS                 .in                                     : BS/Bit Size 
DT                 .us/ft                                  : SONICO COMPRESSIONAL (COMPOSICAO DE CURVAS CABO E/OU LWD) 
DWAL               .kg/kg                                  : DAL/DryrockAlWF 
DWCA               .kg/kg                                  : DCA/DryrockCaWF 
DWFE               .kg/kg                                  : DFE/DryrockFeWF 
DWK                .kg/kg                                  : DK/DryrockKWF 
DWMG               .kg/kg                                  : DMG/DryrockMgWF 
DWMN               .kg/kg                                  : DMN/DryrockMnWF 
DWS                .kg/kg                                  : DSUL/DryrockSuWF 
DWSI               .kg/kg                                  : DSI/DryrockSiWF 
DWTI               .kg/kg                                  : DTI/DryrockTiWF 
GR                 .gAPI                                   : GR/Gamma API 
GRt                .gAPI                                   : GKUT/GammaKUT 
HCAL               .in                                     : CALI/Caliper 
HDRA               .g/cm3                                  : DRHO/DensityCorr 
HFK                .%                                      : POTA/Potassium 
HTHO               .ppm                                    : THOR/Thorium 
HURA               .ppm                                    : URAN/Uranium 
MPERM              .mD                                     : MPERMT2/MrilT2KCoat 
NMRE_Final         .m3/m3                                  : MPHIT2/TA-grp T2 Effective Por 
NMRFL_Final        .unitless                               : MFFIT2/TA-grp T2 FreeFluid Ind 
NMRT_Final         .frac                                   : MSIGT2/TA-grp T2 Total Por. 
NPHI               .frac                                   : NPHI/Neutron Porosity 
PE                 .b/e                                    : PE/Pe 
RD                 .ohm.m                                  : LLD/LLD 
RHOB               .g/cm3                                  : RHOB/Density 
RS                 .ohm.m                                  : LLS/LLS 
T2LM               .ms                                     : T2LM/T2 Log Mean 
TVDSS              .M                                      :  
~Ascii
# ...
4979.480   8.500      -9999.000  0.054      0.195      0.055      0.004      0.004      0.000      0.035      0.109      0.004      18.732     30.703     8.858      0.180      0.335      0.482      2.651      -9999.000  -9999.000  -9999.000  -9999.000  0.396      5.301      19.760     2.871      26.707     -9999.000  4947.324  
4979.632   8.500      -9999.000  0.058      0.203      0.024      0.001      0.000      0.001      0.040      0.124      0.002      16.259     16.989     9.022      0.143      0.161      0.653      1.366      -9999.000  -9999.000  -9999.000  -9999.000  0.374      4.897      19.760     2.438      26.702     -9999.000  4947.476  
4979.785   8.500      -9999.000  0.049      0.209      0.014      0.001      0.001      0.001      0.041      0.134      0.001      17.630     16.385     9.016      0.109      0.169      0.716      1.257      -9999.000  -9999.000  -9999.000  -9999.000  0.346      4.600      19.760     2.264      26.706     -9999.000  4947.627  
4979.937   8.500      -9999.000  0.044      0.205      0.005      0.001      0.012      0.001      0.040      0.133      0.001      17.214     18.113     12.416     0.096      0.175      0.991      1.333      -9999.000  -9999.000  -9999.000  -9999.000  0.357      3.852      19.760     1.868      26.702     -9999.000  4947.778  
4980.090   8.500      -9999.000  0.044      0.200      0.003      0.001      0.021      0.002      0.042      0.125      0.001      16.918     20.199     12.914     0.123      0.186      1.151      1.484      -9999.000  -9999.000  -9999.000  -9999.000  0.380      3.952      19.760     1.897      26.704     -9999.000  4947.929  
4980.242   8.500      -9999.000  0.038      0.205      0.004      0.001      0.032      0.002      0.038      0.107      0.000      21.526     24.154     13.049     0.202      0.178      1.426      1.832      -9999.000  -9999.000  -9999.000  -9999.000  0.332      4.837      19.760     2.109      26.706     -9999.000  4948.081  
4980.394   8.500      -9999.000  0.034      0.206      0.006      0.001      0.044      0.003      0.031      0.095      0.001      30.311     28.620     13.290     0.259      0.154      1.700      2.270      -9999.000  -9999.000  -9999.000  -9999.000  0.319      4.994      19.760     2.233      26.705     -9999.000  4948.232  
4980.547   8.500      -9999.000  0.024      0.212      0.008      0.001      0.053      0.002      0.022      0.087      0.000      35.226     30.737     13.299     0.277      0.136      1.906      2.464      -9999.000  -9999.000  -9999.000  -9999.000  0.294      4.559      19.760     2.236      26.706     -9999.000  4948.383  
4980.699   8.500      -9999.000  0.024      0.200      0.007      0.001      0.069      0.002      0.018      0.079      0.000      35.935     30.791     13.304     0.249      0.103      2.129      2.454      -9999.000  -9999.000  -9999.000  -9999.000  0.290      4.197      19.760     2.218      26.707     -9999.000  4948.534  
4980.852   8.500      -9999.000  0.022      0.212      0.006      0.001      0.061      0.002      0.014      0.082      0.001      31.761     28.577     10.069     0.176      0.081      2.252      2.208      -9999.000  -9999.000  -9999.000  -9999.000  0.274      4.271      19.760     2.365      26.706     -9999.000  4948.686  
4981.004   8.500      -9999.000  0.017      0.244      0.005      0.001      0.039      0.002      0.011      0.089      0.001      26.008     25.327     8.542      0.088      0.074      2.259      1.861      -9999.000  0.114      0.096      0.132      0.195      4.384      19.760     2.485      26.715     -9999.000  4948.837  
4981.156   8.500      -9999.000  0.016      0.254      0.004      0.001      0.034      0.001      0.009      0.088      0.001      21.186     22.360     8.539      0.024      0.057      2.203      1.587      -9999.000  0.130      0.105      0.143      0.146      4.529      1447.150   2.466      361.244    -9999.000  4948.988  
4981.309   8.500      -9999.000  0.015      0.247      0.002      0.001      0.042      0.001      0.008      0.086      0.001      17.805     20.588     8.533      0.001      0.051      2.053      1.455      -9999.000  0.133      0.109      0.141      0.134      4.687      39999.984  2.468      2892.596   -9999.000  4949.140  
4981.461   8.500      -9999.000  0.018      0.231      0.001      0.002      0.053      0.001      0.008      0.084      0.002      15.258     19.983     8.517      -0.001     0.036      1.851      1.488      -9999.000  0.107      0.077      0.113      0.133      4.673      39999.984  2.517      1622.056   -9999.000  4949.291  
4981.614   8.500      -9999.000  0.018      0.226      0.001      0.002      0.053      0.001      0.007      0.092      0.002      14.883     20.489     8.510      -0.005     0.016      1.667      1.647      -9999.000  0.093      0.076      0.099      0.131      4.527      39999.984  2.542      900.089    -9999.000  4949.442  
4981.766   8.500      -9999.000  0.017      0.203      0.000      0.002      0.061      0.001      0.007      0.106      0.001      16.195     21.880     8.513      -0.012     0.012      1.536      1.856      -9999.000  0.096      0.084      0.103      0.130      4.378      39999.984  2.534      841.434    -9999.000  4949.593  
4981.918   8.500      -9999.000  0.017      0.186      0.000      0.002      0.063      0.001      0.008      0.123      0.001      18.756     25.865     8.510      -0.021     0.007      1.344      2.378      -9999.000  0.111      0.091      0.121      0.141      4.184      35457.094  2.503      723.431    -9999.000  4949.745  
4982.071   8.500      -9999.000  0.020      0.181      0.001      0.001      0.044      0.001      0.008      0.157      0.001      20.788     29.396     8.507      -0.026     0.001      1.226      2.825      -9999.000  0.112      0.079      0.124      0.132      3.998      3386.563   2.499      375.857    -9999.000  4949.896  
4982.223   8.500      -9999.000  0.018      0.190      0.001      0.000      0.021      0.001      0.007      0.185      0.000      30.313     34.144     8.501      -0.027     0.006      1.148      3.373      -9999.000  0.079      0.060      0.101      0.113      3.528      732.126    2.537      191.199    -9999.000  4950.047  
4982.376   8.500      -9999.000  0.016      0.196      0.002      0.000      0.012      0.002      0.006      0.194      0.000      39.664     35.784     8.500      -0.022     0.006      1.166      3.549      -9999.000  0.066      0.042      0.099      0.112      3.325      762.832    2.540      198.793    -9999.000  4950.198  
4982.528   8.500      -9999.000  0.011      0.205      0.003      0.000      0.016      0.001      0.004      0.184      0.001      44.493     35.833     8.473      -0.021     0.006      1.189      3.546      -9999.000  0.099      0.045      0.137      0.119      3.441      755.441    2.475      211.861    -9999.000  4950.350  
4982.680   8.500      -9999.000  0.013      0.204      0.003      0.000      0.029      0.001      0.004      0.161      0.001      38.985     34.191     8.483      -0.024     0.006      1.133      3.384      -9999.000  0.122      0.067      0.154      0.133      3.688      729.889    2.446      266.041    -9999.000  4950.501  
4982.833   8.500      67.195     0.014      0.202      0.002      0.000      0.056      0.001      0.003      0.120      0.002      28.078     31.180     8.503      -0.020     0.000      1.134      3.059      -9999.000  0.126      0.095      0.147      0.155      3.915      4530.554   2.459      840.055    -9999.000  4950.652  
4982.985   8.500      65.973     0.015      0.203      0.001      0.000      0.064      0.001      0.004      0.104      0.002      23.943     29.016     8.514      -0.017     0.000      1.125      2.821      -9999.000  0.126      0.104      0.141      0.155      3.921      7395.013   2.469      1088.524   -9999.000  4950.803  
4983.138   8.500      66.759     0.021      0.210      0.000      0.000      0.061      0.001      0.005      0.095      0.002      22.286     25.422     8.533      -0.017     0.006      1.282      2.354      -9999.000  0.149      0.118      0.163      0.167      3.977      4709.009   2.432      1226.790   -9999.000  4950.955  
