~Version
 VERS              .         2.0                           : CWLS LOG ASCII STANDARD - VERSION 2.0
 WRAP              .         NO                            : ONE LINE PER DEPTH STEP
 DLM               .         SPACE                         : DELIMITING CHARACTER(SPACE TAB OR COMMA)
~Well Information
#_______________________________________________________________________________
#
#PARAMETER_NAME    .UNIT     VALUE                         : DESCRIPTION
#_______________________________________________________________________________
STRT               .M        4949.000                      : First reference value
STOP               .M        5060.404                      : Last reference value
STEP               .M        0.152                         : Step increment
NULL               .         -9999                         : Missing value
COMP               .         PETROBRAS                     : Company
WELL               .         7-SPH-22-SPS                  : Well name
FLD                .         SAPINHOA                      : Field
LOC                .                                       : Location
CNTY               .                                       : County
STAT               .         SAO PAULO                     : State
CTRY               .         BR                            : Country
SRVC               .                                       : Service Company
DATE               .         25/07/2016                    : Date
API                .         863160046800                  : API number
APD                .M        26.0                          : ABOVE PERMANENT DATUM
BHT                .degF     140.0                         : BOTTOMHOLE TEMPERATURE
BLI                .M        5055.8                        : BOTTOM LOGGED INTERVAL
BS                 .in       8.5                           : BIT SIZE
CBDR               .M        4981                          : Casing Bottom (Driller)
CBLO               .M        4981                          : Casing Bottom of Logger
CSIZ               .in       10.75                         : Casing Outer Diameter
CWEI               .lb/ft    85.3                          : Casing Weight
DCS                .         23/07/2016                    : DATE CIRCULATION STOPPED
DFD                .lb/gal   9.7                           : DRILLING FLUID DENSITY
DFT                .         CATIONICO_SCOL (BASE AGUA)    : DRILLING FLUID TYPE
DLAB               .         25/07/2016                    : DATE LOGGING ON BOTTOM
EDF                .M        26.0                          : ELEVATION OF DRILLING FLOOR
EGL                .M        -2144.0                       : ELEVATION OF GROUND LEVEL
EKB                .M        -999.25                       : ELEVATION OF KELLY BUSHING
EPD                .M        0.0                           : ELEVATATION OF PERMANENT DATUM
GDAT               .                                       : Geodetic Datum
LMF                .         MR                            : LOG MEASURED FROM
LUL                .         MCE                           : LOGGING UNIT LOCATION
LUN                .         10898943                      : LOGGING UNIT NUMBER
LATI               .         -25_48_08.320                 : Latitude
LONG               .         -43_13_44,430                 : LONGITUDE
MCST               .degF     66.1                          : MUDCAKE SAMPLE TEMPERATURE
MFST               .degF     66.4                          : MUD FILTRATE SAMPLE TEMPERATURE
MRT                .degF     140.0                         : MAXIMUM RECORDED TEMPERATURE
MST                .degF     65.8                          : MUD SAMPLE TEMPERATURE
ORIGINALWELLNAME   .         7SPH 0022  SPS                : 
PDAT               .         NM                            : PERMANENT DATUM
PRODUCER-CODE      .         280                           : 
PRODUCER-NAME      .         Halliburton                   : 
RMB                .ohm.m    0.040                         : RESISTIVITY OF MUD - BHT
RMCS               .ohm.m    0.140                         : RESISTIVITY OF MUDCAKE SAMPLE
RMFS               .ohm.m    0.012                         : RESISTIVITY OF MUD FILTRATE SAMPLE
RMS                .ohm.m    0.080                         : RESISTIVITY OF MUD SAMPLE
RUN                .         01                            : RUN NUMBER 1
TCS                .h        19_00                         : TIME CIRCULATION STOPPED
TDD                .M        5058.0                        : DRILLERS DEPTH
TDL                .M        5057.1                        : LOGGERS DEPTH
TLAB               .h        07_15                         : TIME LOGGING ON BOTTOM
TLI                .M        4950.0                        : TOP LOGGED INTERVAL
X                  .M        677550.00000000               : X or East-West coordinate
Y                  .M        7145014.00000000              : Y or North South coordinate
~Parameter Information Block
#_______________________________________________________________________________
#
#PARAMETER_NAME    .UNIT     VALUE                         : DESCRIPTION
#_______________________________________________________________________________
SET                .         BASE                          : 
TLFamily_BS        .         Bit Size                      : 
TLFamily_DT        .         Compressional Slowness        : 
TLFamily_DWAL      .         Aluminum Weight Fraction      : 
TLFamily_DWCA      .         Calcium Weight Fraction       : 
TLFamily_DWFE      .         Iron Weight Fraction          : 
TLFamily_DWK       .         Potassium Weight Fraction     : 
TLFamily_DWMG      .         Magnesium Weight Fraction     : 
TLFamily_DWMN      .         Manganese Weight Fraction     : 
TLFamily_DWS       .         Sulfur Weight Fraction        : 
TLFamily_DWSI      .         Silicon Weight Fraction       : 
TLFamily_DWTI      .         Titanium Weight Fraction      : 
TLFamily_GR        .         Gamma Ray                     : 
TLFamily_GRt       .         Gamma Ray                     : 
TLFamily_HCAL      .         Caliper                       : 
TLFamily_HDRA      .         Bulk Density Correction       : 
TLFamily_HFK       .         Potassium Concentration       : 
TLFamily_HTHO      .         Thorium Concentration         : 
TLFamily_HURA      .         Uranium Concentration         : 
TLFamily_MD        .         Measured Depth                : 
TLFamily_MPERM     .         NMR Permeability              : 
TLFamily_NMRE_Final .         NMR Bound Fluid Volume Fraction: 
TLFamily_NMRFL_Final .         NMR Free Fluids               : 
TLFamily_NMRT_Final .         NMR Porosity                  : 
TLFamily_NPHI      .         Neutron Porosity              : 
TLFamily_PE        .         Photoelectric Factor          : 
TLFamily_RD        .         Resistivity - Deep            : 
TLFamily_RHOB      .         Bulk Density                  : 
TLFamily_RS        .         Resistivity - Shallow         : 
TLFamily_T2LM      .         NMR T2 Logarithmic Mean       : 
TLFamily_TVDSS     .         True Vertical Depth Sub Sea   : 
~Curve Information
#_______________________________________________________________________________
#
#LOGNAME           .UNIT     LOG_ID                        : DESCRIPTION
#_______________________________________________________________________________
DEPTH              .M                                      :  
BS                 .in                                     : BS/Bit Size 
DT                 .us/ft                                  : SONICO COMPRESSIONAL (COMPOSICAO DE CURVAS CABO E/OU LWD) 
DWAL               .kg/kg                                  : DAL/DryrockAlWF 
DWCA               .kg/kg                                  : DCA/DryrockCaWF 
DWFE               .kg/kg                                  : DFE/DryrockFeWF 
DWK                .kg/kg                                  : DK/DryrockKWF 
DWMG               .kg/kg                                  : DMG/DryrockMgWF 
DWMN               .kg/kg                                  : DMN/DryrockMnWF 
DWS                .kg/kg                                  : DSUL/DryrockSuWF 
DWSI               .kg/kg                                  : DSI/DryrockSiWF 
DWTI               .kg/kg                                  : DTI/DryrockTiWF 
GR                 .gAPI                                   : GR/Gamma API 
GRt                .gAPI                                   : GKUT/GammaKUT 
HCAL               .in                                     : CALI/Caliper 
HDRA               .g/cm3                                  : DRHO/DensityCorr 
HFK                .%                                      : POTA/Potassium 
HTHO               .ppm                                    : THOR/Thorium 
HURA               .ppm                                    : URAN/Uranium 
MPERM              .mD                                     : MPERMT2/MrilT2KCoat 
NMRE_Final         .m3/m3                                  : MPHIT2/TA-grp T2 Effective Por 
NMRFL_Final        .unitless                               : MFFIT2/TA-grp T2 FreeFluid Ind 
NMRT_Final         .frac                                   : MSIGT2/TA-grp T2 Total Por. 
NPHI               .frac                                   : NPHI/Neutron Porosity 
PE                 .b/e                                    : PE/Pe 
RD                 .ohm.m                                  : LLD/LLD 
RHOB               .g/cm3                                  : RHOB/Density 
RS                 .ohm.m                                  : LLS/LLS 
T2LM               .ms                                     : T2LM/T2 Log Mean 
TVDSS              .M                                      :  
~Ascii
# ...
5025.200   8.500      67.565     0.012      0.265      0.001      0.001      0.047      0.000      0.008      0.062      0.001      17.893     20.956     8.509      -0.013     0.007      2.227      1.510      7.922      0.097      0.075      0.103      0.078      4.539      681.473    2.581      1012.095   188.552    4992.695  
5025.352   8.500      66.239     0.012      0.278      0.002      0.001      0.032      0.000      0.011      0.068      0.001      17.736     21.476     8.510      -0.015     0.008      2.311      1.537      7.243      0.091      0.071      0.094      0.078      4.489      743.694    2.570      999.268    234.325    4992.846  
5025.505   8.500      63.780     0.012      0.283      0.003      0.001      0.024      0.000      0.013      0.074      0.001      18.142     21.977     8.509      -0.016     0.021      2.534      1.488      7.165      0.088      0.068      0.088      0.080      4.370      792.106    2.562      887.567    288.187    4992.997  
5025.657   8.500      61.120     0.011      0.279      0.003      0.002      0.025      0.000      0.011      0.080      0.001      18.993     22.459     8.506      -0.015     0.049      2.648      1.451      8.346      0.089      0.070      0.089      0.079      4.257      1015.570   2.561      1005.452   330.908    4993.148  
5025.810   8.500      59.350     0.010      0.273      0.003      0.002      0.027      0.000      0.010      0.085      0.001      18.781     23.350     8.496      -0.017     0.079      2.712      1.474      9.217      0.096      0.074      0.096      0.079      4.208      1354.723   2.550      1314.456   320.427    4993.300  
5025.962   8.500      58.424     0.010      0.258      0.003      0.002      0.043      0.000      0.008      0.078      0.001      18.401     24.014     8.498      -0.022     0.090      2.937      1.447      9.075      0.107      0.078      0.107      0.105      4.220      1744.957   2.508      1899.510   251.602    4993.451  
5026.114   8.500      58.509     0.010      0.244      0.002      0.002      0.059      0.001      0.007      0.069      0.001      18.908     24.185     8.494      -0.026     0.085      3.172      1.389      8.174      0.118      0.079      0.118      0.137      4.209      3876.254   2.476      5659.183   189.863    4993.602  
5026.267   8.500      59.539     0.012      0.258      0.002      0.001      0.050      0.001      0.009      0.064      0.001      19.531     23.766     8.494      -0.028     0.074      3.491      1.246      6.085      0.127      0.077      0.127      0.136      4.203      5144.674   2.460      4923.112   146.167    4993.753  
5026.419   8.500      61.275     0.018      0.275      0.001      0.001      0.037      0.001      0.011      0.058      0.001      18.253     22.003     8.492      -0.032     0.033      3.938      0.960      3.736      0.133      0.069      0.133      0.126      4.263      5088.653   2.441      2777.509   116.585    4993.904  
5026.572   8.500      62.236     0.025      0.285      0.000      0.000      0.032      0.001      0.012      0.046      0.001      16.768     20.307     8.491      -0.033     0.015      3.929      0.806      2.416      0.140      0.062      0.140      0.134      4.272      5674.430   2.437      2983.041   95.682     4994.056  
5026.724   8.500      62.845     0.030      0.288      0.000      0.000      0.031      0.001      0.013      0.039      0.001      15.963     17.835     8.492      -0.035     0.010      3.753      0.604      2.678      0.145      0.063      0.149      0.155      4.263      7654.773   2.432      4292.801   81.769     4994.207  
5026.876   8.500      63.527     0.031      0.292      0.000      0.000      0.029      0.001      0.014      0.037      0.001      15.905     16.661     8.493      -0.035     0.004      3.511      0.571      4.635      0.146      0.073      0.156      0.158      4.312      18919.902  2.432      26748.094  75.088     4994.358  
5027.029   8.500      -9999.000  0.026      0.301      0.000      0.001      0.025      0.001      0.012      0.038      0.000      14.140     15.852     8.493      -0.034     0.004      3.177      0.602      7.559      0.144      0.083      0.160      0.164      4.416      39999.984  2.439      39999.984  75.291     4994.509  
5027.181   8.500      -9999.000  0.022      0.301      0.000      0.001      0.028      0.001      0.011      0.038      0.000      13.330     15.930     8.491      -0.032     0.005      3.204      0.599      10.192     0.141      0.089      0.159      0.164      4.451      39999.984  2.440      39999.984  81.665     4994.660  
5027.334   8.500      -9999.000  0.018      0.282      0.001      0.001      0.048      0.001      0.008      0.035      0.000      13.996     16.342     8.496      -0.029     0.008      3.227      0.632      11.365     0.139      0.091      0.156      0.163      4.562      39999.984  2.435      39999.984  90.287     4994.812  
5027.486   8.500      -9999.000  0.015      0.273      0.001      0.001      0.058      0.001      0.007      0.032      0.000      14.251     16.587     8.501      -0.026     0.010      3.176      0.674      11.433     0.137      0.090      0.154      0.150      4.701      39999.984  2.439      39999.984  98.015     4994.963  
5027.638   8.500      -9999.000  0.012      0.283      0.001      0.002      0.051      0.001      0.006      0.036      0.000      13.832     16.560     8.494      -0.022     0.010      3.014      0.731      10.871     0.137      0.089      0.150      0.140      4.915      39999.984  2.461      39999.984  111.275    4995.114  
5027.791   8.500      -9999.000  0.014      0.293      0.001      0.001      0.041      0.001      0.007      0.038      0.000      13.740     16.196     8.493      -0.020     0.012      2.726      0.790      9.313      0.137      0.086      0.147      0.136      4.940      39999.984  2.474      39999.984  117.224    4995.265  
5027.943   8.500      -9999.000  0.020      0.298      0.000      0.001      0.034      0.000      0.010      0.037      0.000      13.328     15.563     8.494      -0.020     0.015      2.415      0.828      7.354      0.134      0.082      0.144      0.133      4.852      39999.984  2.480      39999.984  118.169    4995.416  
5028.096   8.500      -9999.000  0.021      0.300      0.000      0.001      0.029      0.000      0.012      0.039      0.001      13.084     14.770     8.495      -0.020     0.014      2.141      0.841      6.730      0.131      0.080      0.140      0.130      4.723      39999.984  2.481      39999.984  123.939    4995.568  
5028.248   8.500      -9999.000  0.011      0.334      0.000      0.000      0.008      0.000      0.013      0.044      0.001      13.361     14.762     8.499      -0.018     0.015      1.786      0.968      8.453      0.129      0.084      0.139      0.123      4.587      16230.145  2.483      27032.291  128.362    4995.719  
5028.400   8.500      -9999.000  0.012      0.343      0.000      0.000      0.002      0.001      0.013      0.042      0.001      13.529     15.162     8.498      -0.016     0.011      1.553      1.103      13.442     0.129      0.092      0.145      0.122      4.420      12188.343  2.488      15993.947  126.480    4995.870  
5028.553   8.500      -9999.000  0.012      0.344      0.000      0.000      0.006      0.001      0.011      0.036      0.001      14.587     16.393     8.500      -0.014     0.004      1.703      1.198      22.050     0.133      0.103      0.156      0.125      4.287      12066.163  2.489      16561.258  131.948    4996.021  
5028.705   8.500      -9999.000  0.012      0.334      0.000      0.000      0.016      0.001      0.009      0.033      0.001      17.900     18.085     8.505      -0.011     0.001      2.156      1.228      31.440     0.140      0.111      0.167      0.135      4.269      12126.313  2.490      16549.207  161.614    4996.172  
5028.858   8.500      -9999.000  0.011      0.315      0.000      0.000      0.031      0.000      0.008      0.032      0.001      21.734     19.794     8.507      -0.006     0.018      3.023      1.072      43.019     0.149      0.118      0.170      0.161      4.405      15393.467  2.482      27406.816  243.668    4996.324  
