~Version
 VERS              .         2.0                           : CWLS LOG ASCII STANDARD - VERSION 2.0
 WRAP              .         NO                            : ONE LINE PER DEPTH STEP
 DLM               .         SPACE                         : DELIMITING CHARACTER(SPACE TAB OR COMMA)
~Well Information
#_______________________________________________________________________________
#
#PARAMETER_NAME    .UNIT     VALUE                         : DESCRIPTION
#_______________________________________________________________________________
STRT               .M        4949.000                      : First reference value
STOP               .M        5060.404                      : Last reference value
STEP               .M        0.152                         : Step increment
NULL               .         -9999                         : Missing value
COMP               .         PETROBRAS                     : Company
WELL               .         7-SPH-22-SPS                  : Well name
FLD                .         SAPINHOA                      : Field
LOC                .                                       : Location
CNTY               .                                       : County
STAT               .         SAO PAULO                     : State
CTRY               .         BR                            : Country
SRVC               .                                       : Service Company
DATE               .         25/07/2016                    : Date
API                .         863160046800                  : API number
APD                .M        26.0                          : ABOVE PERMANENT DATUM
BHT                .degF     140.0                         : BOTTOMHOLE TEMPERATURE
BLI                .M        5055.8                        : BOTTOM LOGGED INTERVAL
BS                 .in       8.5                           : BIT SIZE
CBDR               .M        4981                          : Casing Bottom (Driller)
CBLO               .M        4981                          : Casing Bottom of Logger
CSIZ               .in       10.75                         : Casing Outer Diameter
CWEI               .lb/ft    85.3                          : Casing Weight
DCS                .         23/07/2016                    : DATE CIRCULATION STOPPED
DFD                .lb/gal   9.7                           : DRILLING FLUID DENSITY
DFT                .         CATIONICO_SCOL (BASE AGUA)    : DRILLING FLUID TYPE
DLAB               .         25/07/2016                    : DATE LOGGING ON BOTTOM
EDF                .M        26.0                          : ELEVATION OF DRILLING FLOOR
EGL                .M        -2144.0                       : ELEVATION OF GROUND LEVEL
EKB                .M        -999.25                       : ELEVATION OF KELLY BUSHING
EPD                .M        0.0                           : ELEVATATION OF PERMANENT DATUM
GDAT               .                                       : Geodetic Datum
LMF                .         MR                            : LOG MEASURED FROM
LUL                .         MCE                           : LOGGING UNIT LOCATION
LUN                .         10898943                      : LOGGING UNIT NUMBER
LATI               .         -25_48_08.320                 : Latitude
LONG               .         -43_13_44,430                 : LONGITUDE
MCST               .degF     66.1                          : MUDCAKE SAMPLE TEMPERATURE
MFST               .degF     66.4                          : MUD FILTRATE SAMPLE TEMPERATURE
MRT                .degF     140.0                         : MAXIMUM RECORDED TEMPERATURE
MST                .degF     65.8                          : MUD SAMPLE TEMPERATURE
ORIGINALWELLNAME   .         7SPH 0022  SPS                : 
PDAT               .         NM                            : PERMANENT DATUM
PRODUCER-CODE      .         280                           : 
PRODUCER-NAME      .         Halliburton                   : 
RMB                .ohm.m    0.040                         : RESISTIVITY OF MUD - BHT
RMCS               .ohm.m    0.140                         : RESISTIVITY OF MUDCAKE SAMPLE
RMFS               .ohm.m    0.012                         : RESISTIVITY OF MUD FILTRATE SAMPLE
RMS                .ohm.m    0.080                         : RESISTIVITY OF MUD SAMPLE
RUN                .         01                            : RUN NUMBER 1
TCS                .h        19_00                         : TIME CIRCULATION STOPPED
TDD                .M        5058.0                        : DRILLERS DEPTH
TDL                .M        5057.1                        : LOGGERS DEPTH
TLAB               .h        07_15                         : TIME LOGGING ON BOTTOM
TLI                .M        4950.0                        : TOP LOGGED INTERVAL
X                  .M        677550.00000000               : X or East-West coordinate
Y                  .M        7145014.00000000              : Y or North South coordinate
~Parameter Information Block
#_______________________________________________________________________________
#
#PARAMETER_NAME    .UNIT     VALUE                         : DESCRIPTION
#_______________________________________________________________________________
SET                .         BASE                          : 
TLFamily_BS        .         Bit Size                      : 
TLFamily_DT        .         Compressional Slowness        : 
TLFamily_DWAL      .         Aluminum Weight Fraction      : 
TLFamily_DWCA      .         Calcium Weight Fraction       : 
TLFamily_DWFE      .         Iron Weight Fraction          : 
TLFamily_DWK       .         Potassium Weight Fraction     : 
TLFamily_DWMG      .         Magnesium Weight Fraction     : 
TLFamily_DWMN      .         Manganese Weight Fraction     : 
TLFamily_DWS       .         Sulfur Weight Fraction        : 
TLFamily_DWSI      .         Silicon Weight Fraction       : 
TLFamily_DWTI      .         Titanium Weight Fraction      : 
TLFamily_GR        .         Gamma Ray                     : 
TLFamily_GRt       .         Gamma Ray                     : 
TLFamily_HCAL      .         Caliper                       : 
TLFamily_HDRA      .         Bulk Density Correction       : 
TLFamily_HFK       .         Potassium Concentration       : 
TLFamily_HTHO      .         Thorium Concentration         : 
TLFamily_HURA      .         Uranium Concentration         : 
TLFamily_MD        .         Measured Depth                : 
TLFamily_MPERM     .         NMR Permeability              : 
TLFamily_NMRE_Final .         NMR Bound Fluid Volume Fraction: 
TLFamily_NMRFL_Final .         NMR Free Fluids               : 
TLFamily_NMRT_Final .         NMR Porosity                  : 
TLFamily_NPHI      .         Neutron Porosity              : 
TLFamily_PE        .         Photoelectric Factor          : 
TLFamily_RD        .         Resistivity - Deep            : 
TLFamily_RHOB      .         Bulk Density                  : 
TLFamily_RS        .         Resistivity - Shallow         : 
TLFamily_T2LM      .         NMR T2 Logarithmic Mean       : 
TLFamily_TVDSS     .         True Vertical Depth Sub Sea   : 
~Curve Information
#_______________________________________________________________________________
#
#LOGNAME           .UNIT     LOG_ID                        : DESCRIPTION
#_______________________________________________________________________________
DEPTH              .M                                      :  
BS                 .in                                     : BS/Bit Size 
DT                 .us/ft                                  : SONICO COMPRESSIONAL (COMPOSICAO DE CURVAS CABO E/OU LWD) 
DWAL               .kg/kg                                  : DAL/DryrockAlWF 
DWCA               .kg/kg                                  : DCA/DryrockCaWF 
DWFE               .kg/kg                                  : DFE/DryrockFeWF 
DWK                .kg/kg                                  : DK/DryrockKWF 
DWMG               .kg/kg                                  : DMG/DryrockMgWF 
DWMN               .kg/kg                                  : DMN/DryrockMnWF 
DWS                .kg/kg                                  : DSUL/DryrockSuWF 
DWSI               .kg/kg                                  : DSI/DryrockSiWF 
DWTI               .kg/kg                                  : DTI/DryrockTiWF 
GR                 .gAPI                                   : GR/Gamma API 
GRt                .gAPI                                   : GKUT/GammaKUT 
HCAL               .in                                     : CALI/Caliper 
HDRA               .g/cm3                                  : DRHO/DensityCorr 
HFK                .%                                      : POTA/Potassium 
HTHO               .ppm                                    : THOR/Thorium 
HURA               .ppm                                    : URAN/Uranium 
MPERM              .mD                                     : MPERMT2/MrilT2KCoat 
NMRE_Final         .m3/m3                                  : MPHIT2/TA-grp T2 Effective Por 
NMRFL_Final        .unitless                               : MFFIT2/TA-grp T2 FreeFluid Ind 
NMRT_Final         .frac                                   : MSIGT2/TA-grp T2 Total Por. 
NPHI               .frac                                   : NPHI/Neutron Porosity 
PE                 .b/e                                    : PE/Pe 
RD                 .ohm.m                                  : LLD/LLD 
RHOB               .g/cm3                                  : RHOB/Density 
RS                 .ohm.m                                  : LLS/LLS 
T2LM               .ms                                     : T2LM/T2 Log Mean 
TVDSS              .M                                      :  
~Ascii
# ...
5029.010   8.500      -9999.000  0.016      0.298      0.000      0.000      0.039      0.000      0.010      0.034      0.001      22.970     21.040     8.506      -0.006     0.046      3.810      0.875      59.852     0.156      0.123      0.167      0.162      4.506      3628.566   2.462      4482.261   386.531    4996.475  
5029.162   8.500      -9999.000  0.016      0.291      0.000      0.000      0.038      0.000      0.011      0.043      0.001      23.022     21.684     8.500      -0.010     0.070      4.116      0.794      80.985     0.155      0.124      0.158      0.149      4.476      2567.946   2.460      2528.284   546.523    4996.626  
5029.315   8.500      -9999.000  0.014      0.289      0.000      0.000      0.035      0.000      0.012      0.052      0.001      22.463     21.894     8.497      -0.013     0.088      4.155      0.770      97.548     0.146      0.120      0.146      0.146      4.255      2556.401   2.511      2523.681   629.505    4996.777  
5029.467   8.500      -9999.000  0.014      0.280      0.000      0.000      0.038      0.000      0.010      0.058      0.001      21.994     21.686     8.497      -0.019     0.084      3.942      0.832      84.849     0.133      0.112      0.133      0.131      4.084      2554.659   2.530      2531.181   598.063    4996.928  
5029.620   8.500      -9999.000  0.016      0.268      0.000      0.000      0.042      0.000      0.009      0.063      0.001      22.703     21.179     8.501      -0.025     0.058      3.587      0.951      49.074     0.120      0.100      0.120      0.104      3.908      2562.017   2.533      2581.344   524.947    4997.080  
5029.772   8.500      -9999.000  0.016      0.247      0.000      0.000      0.054      0.000      0.008      0.069      0.000      23.210     20.889     8.501      -0.023     0.033      3.526      0.984      25.045     0.106      0.087      0.106      0.102      3.918      2574.807   2.530      2611.740   473.925    4997.231  
5029.924   8.500      -9999.000  0.015      0.235      0.000      0.000      0.059      0.000      0.007      0.077      0.000      23.475     20.906     8.499      -0.017     0.003      3.260      1.137      12.159     0.090      0.073      0.090      0.102      3.854      3061.156   2.576      3974.548   453.124    4997.382  
5030.077   8.500      -9999.000  0.013      0.224      0.000      0.000      0.062      0.001      0.006      0.088      0.000      23.210     20.876     8.500      -0.012     0.033      2.942      1.196      5.074      0.073      0.059      0.073      0.105      3.628      5947.800   2.654      13405.208  471.384    4997.533  
5030.229   8.500      -9999.000  0.011      0.202      0.000      0.000      0.063      0.001      0.008      0.112      0.001      22.833     20.714     8.498      -0.008     0.115      2.098      1.340      1.612      0.058      0.046      0.058      0.063      3.265      3407.530   2.755      6554.816   500.634    4997.684  
5030.382   8.500      -9999.000  0.012      0.187      0.000      0.000      0.064      0.001      0.009      0.127      0.001      23.146     20.648     8.496      -0.008     0.172      1.439      1.471      0.511      0.049      0.037      0.049      0.053      3.218      1250.803   2.769      1551.132   485.960    4997.836  
5030.534   8.500      -9999.000  0.009      0.188      0.000      0.000      0.048      0.001      0.009      0.154      0.001      23.567     20.266     8.494      -0.010     0.253      0.662      1.570      0.397      0.048      0.035      0.049      0.079      3.143      865.231    2.737      849.947    419.109    4997.987  
5030.686   8.500      -9999.000  0.006      0.205      0.000      0.000      0.029      0.000      0.007      0.168      0.001      22.818     19.952     8.496      -0.018     0.279      0.474      1.557      0.985      0.058      0.044      0.060      0.080      2.988      817.107    2.667      742.918    339.967    4998.138  
5030.839   8.500      -9999.000  0.005      0.234      0.001      0.000      0.010      0.000      0.007      0.168      0.001      21.576     19.543     8.497      -0.028     0.253      0.510      1.544      2.993      0.075      0.059      0.082      0.083      2.985      814.926    2.559      737.636    267.097    4998.289  
5030.991   8.500      -9999.000  0.006      0.247      0.001      0.000      0.006      0.000      0.007      0.157      0.001      20.893     18.643     8.499      -0.024     0.210      0.817      1.408      7.388      0.093      0.075      0.107      0.107      3.320      812.253    2.492      724.048    236.112    4998.440  
5031.144   8.500      -9999.000  0.009      0.262      0.001      0.000      0.016      0.001      0.006      0.121      0.001      21.557     17.600     8.504      -0.013     0.153      1.253      1.233      19.793     0.113      0.093      0.127      0.143      3.769      1964.650   2.472      3101.096   292.606    4998.592  
5031.296   8.500      -9999.000  0.010      0.260      0.000      0.000      0.033      0.001      0.005      0.095      0.001      22.682     16.414     8.506      -0.013     0.107      1.807      0.982      51.298     0.131      0.110      0.141      0.168      4.087      21110.252  2.433      38874.125  395.342    4998.743  
5031.448   8.500      -9999.000  0.016      0.257      0.000      0.000      0.052      0.001      0.005      0.062      0.001      23.253     15.563     8.500      -0.018     0.093      2.214      0.763      93.146     0.144      0.123      0.152      0.159      4.230      31107.055  2.400      39999.984  427.651    4998.894  
5031.601   8.500      -9999.000  0.018      0.268      0.000      0.000      0.051      0.001      0.006      0.048      0.001      23.108     15.226     8.490      -0.024     0.079      2.592      0.613      103.454    0.153      0.130      0.165      0.155      4.345      35435.531  2.377      39999.984  343.004    4999.045  
5031.753   8.500      -9999.000  0.018      0.290      0.000      0.000      0.042      0.001      0.006      0.036      0.001      22.146     15.328     8.523      -0.032     0.060      2.780      0.589      83.522     0.158      0.133      0.180      0.154      4.412      35635.961  2.360      39999.984  225.509    4999.196  
5031.906   8.500      -9999.000  0.017      0.304      0.000      0.000      0.037      0.001      0.006      0.029      0.001      21.583     15.560     8.524      -0.037     0.044      2.921      0.593      68.917     0.161      0.132      0.188      0.149      4.510      37638.730  2.355      39999.984  170.615    4999.348  
5032.058   8.500      -9999.000  0.017      0.302      0.000      0.000      0.037      0.001      0.006      0.032      0.001      22.602     15.562     8.511      -0.029     0.026      3.083      0.565      57.952     0.159      0.126      0.179      0.138      4.617      8045.408   2.416      9955.396   184.540    4999.499  
5032.210   8.500      -9999.000  0.016      0.298      0.000      0.000      0.035      0.001      0.005      0.041      0.000      -9999.000  15.408     8.492      -0.027     0.006      3.107      0.575      42.530     0.152      0.115      0.160      0.128      4.529      1913.438   2.502      2059.899   245.344    4999.650  
5032.363   8.500      -9999.000  0.011      0.283      0.001      0.000      0.045      0.001      0.004      0.050      0.000      -9999.000  15.349     8.488      -0.040     0.000      3.099      0.582      25.964     0.138      0.101      0.139      0.110      4.251      1534.214   2.548      1551.802   311.220    4999.801  
5032.515   8.500      -9999.000  0.008      0.278      0.001      0.000      0.045      0.001      0.003      0.059      0.000      -9999.000  15.241     8.489      -0.058     0.012      3.240      0.497      17.446     0.124      0.091      0.124      0.083      3.870      1320.785   2.570      1245.370   327.248    4999.952  
5032.668   8.500      -9999.000  0.007      0.258      0.000      0.001      0.059      0.001      0.004      0.059      0.000      -9999.000  15.259     8.491      -0.056     0.031      3.325      0.435      15.356     0.115      0.086      0.116      0.081      3.853      1260.527   2.566      1174.525   295.562    5000.104  
