~Version
 VERS              .         2.0                           : CWLS LOG ASCII STANDARD - VERSION 2.0
 WRAP              .         NO                            : ONE LINE PER DEPTH STEP
 DLM               .         SPACE                         : DELIMITING CHARACTER(SPACE TAB OR COMMA)
~Well Information
#_______________________________________________________________________________
#
#PARAMETER_NAME    .UNIT     VALUE                         : DESCRIPTION
#_______________________________________________________________________________
STRT               .M        5082.700                      : First reference value
STOP               .M        5352.753                      : Last reference value
STEP               .M        0.152                         : Step increment
NULL               .         -9999                         : Missing value
COMP               .         PETROBRAS                     : Company
WELL               .         7-SPH-16D-SPS                 : Well name
FLD                .         SAPINHOA                      : Field
LOC                .                                       : Location
CNTY               .                                       : County
STAT               .         SP                            : State
CTRY               .                                       : Country
SRVC               .                                       : Service Company
DATE               .                                       : Date
API                .                                       : API number
APD                .M        24.0                          : ABOVE PERMANENT DATUM
BHT                .degF     144.0                         : BOTTOMHOLE TEMPERATURE
BLI                .M        5312.4                        : BOTTOM LOGGED INTERVAL
BS                 .in       12.25                         : BIT SIZE
DCS                .         04/09/2014                    : DATE CIRCULATION STOPPED
DFD                .lb/gal   9.5                           : DRILLING FLUID DENSITY
DFT                .         BR-MUL                        : DRILLING FLUID TYPE
DLAB               .         05/09/2014                    : DATE LOGGING ON BOTTOM
EDF                .M        24.0                          : ELEVATION OF DRILLING FLOOR
EGL                .M        -2125.0                       : ELEVATION OF GROUND LEVEL
EKB                .M        -999.25                       : ELEVATION OF KELLY BUSHING
EPD                .M        0.0                           : ELEVATATION OF PERMANENT DATUM
LMF                .         MR                            : LOG MEASURED FROM
LUL                .         MCE                           : LOGGING UNIT LOCATION
LUN                .         11202303                      : LOGGING UNIT NUMBER
LONG               .         -43_10_06.229                 : LONGITUDE
MCST               .degF     -999.25                       : MUDCAKE SAMPLE TEMPERATURE
MFST               .degF     -999.25                       : MUD FILTRATE SAMPLE TEMPERATURE
MRT                .degF     144.0                         : MAXIMUM RECORDED TEMPERATURE
MST                .degF     -999.25                       : MUD SAMPLE TEMPERATURE
PDAT               .         NM                            : PERMANENT DATUM
PRODUCER-CODE      .         280                           : 
PRODUCER-NAME      .         Halliburton                   : 
RMB                .ohm.m    -999.25                       : RESISTIVITY OF MUD - BHT
RMCS               .ohm.m    -999.25                       : RESISTIVITY OF MUDCAKE SAMPLE
RMFS               .ohm.m    -999.25                       : RESISTIVITY OF MUD FILTRATE SAMPLE
RMS                .ohm.m    -999.25                       : RESISTIVITY OF MUD SAMPLE
RUN                .         01                            : RUN NUMBER 1
TCS                .h        05_30                         : TIME CIRCULATION STOPPED
TDD                .M        5343.0                        : DRILLERS DEPTH
TDL                .M        5345.0                        : LOGGERS DEPTH
TLAB               .h        16_45                         : TIME LOGGING ON BOTTOM
TLI                .M        5135.0                        : TOP LOGGED INTERVAL
X                  .M        683789.99900000               : X UTM Coordinate
Y                  .M        7152001.99900000              : Y UTM Coordinate
~Parameter Information Block
#_______________________________________________________________________________
#
#PARAMETER_NAME    .UNIT     VALUE                         : DESCRIPTION
#_______________________________________________________________________________
SET                .         BASE                          : 
TLFamily_BS        .         Bit Size                      : 
TLFamily_DT        .         Compressional Slowness        : 
TLFamily_DWAL      .         Aluminum Weight Fraction      : 
TLFamily_DWCA      .         Calcium Weight Fraction       : 
TLFamily_DWFE      .         Iron Weight Fraction          : 
TLFamily_DWGD      .         Gadolinium Weight Fraction    : 
TLFamily_DWK       .         Potassium Weight Fraction     : 
TLFamily_DWMG      .         Magnesium Weight Fraction     : 
TLFamily_DWMN      .         Manganese Weight Fraction     : 
TLFamily_DWS       .         Sulfur Weight Fraction        : 
TLFamily_DWSI      .         Silicon Weight Fraction       : 
TLFamily_DWTI      .         Titanium Weight Fraction      : 
TLFamily_GR        .         Gamma Ray                     : 
TLFamily_GRt       .         Gamma Ray                     : 
TLFamily_HCAL      .         Caliper                       : 
TLFamily_HDRA      .         Bulk Density Correction       : 
TLFamily_HFK       .         Potassium Concentration       : 
TLFamily_HTHO      .         Thorium Concentration         : 
TLFamily_HURA      .         Uranium Concentration         : 
TLFamily_MD        .         Measured Depth                : 
TLFamily_MPERM     .         NMR Permeability              : 
TLFamily_NMRE_Final .         NMR Bound Fluid Volume Fraction: 
TLFamily_NMRFL_Final .         NMR Free Fluids               : 
TLFamily_NMRT_Final .         NMR Porosity                  : 
TLFamily_NPHI      .         Neutron Porosity              : 
TLFamily_PE        .         Photoelectric Factor          : 
TLFamily_RD        .         Resistivity - Deep            : 
TLFamily_RHOB      .         Bulk Density                  : 
TLFamily_RM        .         Resistivity - Medium          : 
TLFamily_RS        .         Resistivity - Shallow         : 
TLFamily_T2LM      .         NMR T2 Logarithmic Mean       : 
TLFamily_TVDSS     .         True Vertical Depth Sub Sea   : 
~Curve Information
#_______________________________________________________________________________
#
#LOGNAME           .UNIT     LOG_ID                        : DESCRIPTION
#_______________________________________________________________________________
DEPTH              .M                                      :  
BS                 .in                                     : BS/Bit Size 
DT                 .us/ft                                  : DT/DTC 
DWAL               .kg/kg                                  : DAL/DryrockAlWF 
DWCA               .kg/kg                                  : DCA/DryrockCaWF 
DWFE               .kg/kg                                  : DFE/DryrockFeWF 
DWGD               .ppm                                    : DGD/DryrockGdWF 
DWK                .kg/kg                                  : DK/DryrockKWF 
DWMG               .kg/kg                                  : DMG/DryrockMgWF 
DWMN               .kg/kg                                  : DMN/DryrockMnWF 
DWS                .kg/kg                                  : DSUL/DryrockSuWF 
DWSI               .kg/kg                                  : DSI/DryrockSiWF 
DWTI               .kg/kg                                  : DTI/DryrockTiWF 
GR                 .gAPI                                   : GR/Gamma API 
GRt                .gAPI                                   : GKUT/GKUT 
HCAL               .in                                     : CALI/Caliper 
HDRA               .g/cm3                                  : DRHO/DensityCorr 
HFK                .%                                      : POTA/Potassium 
HTHO               .ppm                                    : THOR/Thorium 
HURA               .ppm                                    : URAN/Uranium 
MPERM              .mD                                     : MPERMT2/MrilT2KCoat 
NMRE_Final         .m3/m3                                  : MPHIT2/TA-grp T2 Effective Por 
NMRFL_Final        .unitless                               : MFFIT2/TA-grp T2 FreeFluid Ind 
NMRT_Final         .frac                                   : MSIGT2/TA-grp T2 Total Por. 
NPHI               .frac                                   : NPHI/Neutron Porosity 
PE                 .b/e                                    : PE/Pe 
RD                 .ohm.m                                  : RT90/90in Resistivity 2ft Res 
RHOB               .g/cm3                                  : RHOB/Density 
RM                 .ohm.m                                  : RT30/30in Resistivity 2ft Res 
RS                 .ohm.m                                  : RT10/10in Resistivity 2ft Res 
T2LM               .ms                                     : T2LM/T2 Log Mean 
TVDSS              .M                                      :  
~Ascii
# ...
5264.971   12.250     54.968     0.019      0.276      0.001      0.268      0.000      0.025      0.001      0.007      0.079      0.001      27.313     37.539     12.269     -0.018     0.055      1.613      3.277      0.570      0.059      0.041      0.063      0.056      4.133      48.582     2.684      47.887     52.158     170.444    5113.484  
5265.123   12.250     55.240     0.023      0.292      0.000      0.332      0.000      0.012      0.001      0.007      0.076      0.001      28.196     37.170     12.268     -0.017     0.029      1.298      3.241      1.448      0.063      0.049      0.068      0.055      4.007      35.908     2.659      35.429     38.940     209.162    5113.625  
5265.275   12.250     55.378     0.031      0.300      0.000      0.443      0.000      0.002      0.001      0.009      0.073      0.001      28.777     37.657     12.264     -0.011     0.016      1.008      3.330      3.159      0.066      0.055      0.070      0.058      3.880      26.315     2.618      25.959     28.381     253.472    5113.766  
5265.428   12.250     55.181     0.032      0.298      0.000      0.460      0.001      0.003      0.001      0.010      0.073      0.002      29.629     38.458     12.264     -0.006     0.013      0.834      3.416      3.658      0.065      0.055      0.068      0.064      3.924      24.398     2.615      24.008     26.100     274.630    5113.908  
5265.580   12.250     55.124     0.026      0.297      0.000      0.358      0.001      0.002      0.000      0.012      0.079      0.002      30.234     39.375     12.268     -0.002     0.007      0.916      3.598      1.627      0.064      0.049      0.065      0.069      3.994      24.489     2.639      23.988     25.929     262.168    5114.049  
5265.733   12.250     54.927     0.023      0.296      0.000      0.301      0.002      0.005      0.000      0.012      0.080      0.002      31.226     39.840     12.269     -0.000     0.038      1.071      3.716      0.534      0.061      0.041      0.063      0.070      3.974      24.478     2.658      23.899     25.658     168.885    5114.190  
5265.885   12.250     54.548     0.018      0.265      0.000      0.224      0.003      0.033      0.000      0.010      0.076      0.001      31.023     40.030     12.272     0.000      0.125      1.297      3.732      0.143      0.055      0.031      0.061      0.070      3.965      20.762     2.676      20.238     21.151     78.686     5114.332  
5266.037   12.250     54.439     0.015      0.230      0.000      0.172      0.004      0.066      0.000      0.008      0.070      0.001      31.324     40.261     12.279     -0.002     0.202      1.546      3.724      0.051      0.050      0.024      0.055      0.071      3.908      17.663     2.682      17.218     17.527     53.413     5114.473  
5266.190   12.250     54.319     0.012      0.189      0.000      0.134      0.004      0.093      0.000      0.008      0.075      0.001      32.591     41.181     12.280     -0.004     0.350      1.704      3.730      0.025      0.044      0.020      0.047      0.079      3.682      15.968     2.682      15.541     15.586     50.197     5114.614  
5266.342   12.250     54.523     0.019      0.191      0.000      0.233      0.004      0.080      0.000      0.011      0.084      0.002      34.036     42.582     12.284     -0.006     0.394      1.975      3.739      0.023      0.036      0.019      0.039      0.086      3.635      16.323     2.683      15.853     15.881     59.914     5114.756  
5266.495   12.250     55.081     0.025      0.188      0.000      0.325      0.004      0.074      0.000      0.014      0.090      0.002      35.342     44.407     12.287     -0.007     0.410      2.174      3.840      0.026      0.036      0.020      0.038      0.084      3.736      18.619     2.683      18.018     18.245     70.127     5114.897  
5266.647   12.250     55.470     0.019      0.187      0.000      0.241      0.004      0.071      0.000      0.016      0.102      0.002      36.939     46.432     12.288     -0.008     0.401      2.314      4.013      0.015      0.043      0.017      0.044      0.083      3.733      21.813     2.683      21.036     21.861     61.445     5115.038  
5266.799   12.250     55.546     0.015      0.187      0.000      0.185      0.004      0.063      0.000      0.020      0.117      0.002      37.464     47.730     12.277     -0.008     0.381      2.402      4.080      0.007      0.049      0.013      0.051      0.077      3.686      32.437     2.676      30.982     33.024     42.649     5115.180  
5266.952   12.250     55.166     0.019      0.199      0.000      0.237      0.004      0.045      0.000      0.020      0.127      0.002      36.058     47.856     12.274     -0.006     0.383      2.270      4.041      0.004      0.050      0.009      0.056      0.078      3.710      44.607     2.670      42.102     46.167     28.186     5115.321  
5267.104   12.250     54.453     0.025      0.206      0.000      0.333      0.004      0.037      0.000      0.015      0.128      0.002      35.294     45.739     12.270     -0.001     0.389      2.048      3.715      0.002      0.048      0.006      0.057      0.085      3.704      73.161     2.669      67.220     74.068     21.469     5115.462  
5267.257   12.250     54.034     0.016      0.213      0.000      0.201      0.003      0.034      0.000      0.011      0.138      0.001      32.810     42.740     12.269     0.000      0.383      1.773      3.290      0.002      0.046      0.006      0.056      0.082      3.651      88.846     2.676      80.484     80.611     23.551     5115.604  
5267.409   12.250     53.999     0.011      0.215      0.002      0.136      0.003      0.036      0.000      0.011      0.137      0.001      27.891     39.640     12.266     -0.000     0.368      1.449      2.916      0.009      0.050      0.013      0.054      0.080      3.599      100.830    2.685      90.507     91.094     44.839     5115.745  
5267.561   12.250     53.923     0.007      0.230      0.003      0.081      0.003      0.025      0.000      0.011      0.140      0.001      23.817     34.291     12.267     -0.002     0.338      1.166      2.303      0.064      0.054      0.025      0.055      0.076      3.516      110.489    2.687      98.875     113.853    101.966    5115.886  
5267.714   12.250     54.084     0.007      0.237      0.002      0.075      0.002      0.019      0.000      0.009      0.145      0.001      21.472     32.635     12.267     -0.002     0.305      0.758      2.131      0.390      0.059      0.038      0.059      0.076      3.441      111.528    2.671      100.332    120.752    187.510    5116.028  
5267.866   12.250     54.761     0.006      0.246      0.001      0.074      0.001      0.013      0.000      0.007      0.147      0.001      21.686     31.101     12.264     -0.000     0.251      0.491      2.051      1.379      0.067      0.049      0.067      0.074      3.348      110.671    2.650      100.842    120.483    248.558    5116.169  
5268.019   12.250     55.351     0.007      0.247      0.001      0.085      0.001      0.015      0.000      0.007      0.141      0.001      22.069     30.575     12.271     0.001      0.200      0.443      2.176      2.920      0.071      0.055      0.071      0.074      3.377      112.392    2.637      103.531    119.033    303.040    5116.310  
5268.171   12.250     55.674     0.009      0.248      0.000      0.132      0.001      0.015      0.000      0.008      0.138      0.001      22.283     30.932     12.289     0.002      0.134      0.678      2.404      6.146      0.072      0.060      0.072      0.077      3.536      116.548    2.634      109.490    110.019    351.474    5116.452  
5268.323   12.250     55.727     0.011      0.245      0.000      0.161      0.001      0.014      0.000      0.007      0.141      0.000      22.676     31.158     12.294     0.003      0.099      1.088      2.701      5.825      0.074      0.060      0.074      0.075      3.661      118.449    2.637      114.095    135.796    316.117    5116.593  
