~Version
 VERS              .         2.0                           : CWLS LOG ASCII STANDARD - VERSION 2.0
 WRAP              .         NO                            : ONE LINE PER DEPTH STEP
 DLM               .         SPACE                         : DELIMITING CHARACTER(SPACE TAB OR COMMA)
~Well Information
#_______________________________________________________________________________
#
#PARAMETER_NAME    .UNIT     VALUE                         : DESCRIPTION
#_______________________________________________________________________________
STRT               .M        4938.217                      : First reference value
STOP               .M        5227.625                      : Last reference value
STEP               .M        0.152                         : Step increment
NULL               .         -9999                         : Missing value
COMP               .         PETROBRAS                     : Company
WELL               .         7-SPH-17-SPS                  : Well name
FLD                .         SAPINHOA                      : Field
LOC                .                                       : Location
CNTY               .                                       : County
STAT               .         86316027948                   : State
CTRY               .         Brasil                        : Country
SRVC               .                                       : Service Company
DATE               .                                       : Date
API                .                                       : API number
APD                .M        25                            : Elevation of Depth Reference (LMF) Above Permanent Datum
BHS                .         OPEN                          : Borehole Status (Open or Cased Hole)
BHT                .degF     144                           : Bottom Hole Temperature
BLI                .M        5222.59                       : Bottom Log Interval
BS                 .in       12.25                         : Bit Size
CBDR               .M        5017                          : Casing Bottom (Driller)
CBLO               .M        5020.6                        : Casing Bottom (Logger)
CSIZ               .in       14                            : Casing Outer Diameter
CWEI               .lbm/ft   114                           : Casing Weight
DCS                .         04/01/2015                    : Date Circulation Stopped
DFD                .lb/gal   9.6                           : Drilling Fluid Density
DFT                .         BR-MUL                        : Drilling Fluid Type
DLAB               .         06/01/2015                    : Date Logging on Bottom
EDF                .M        25                            : Elevation of Drill Floor
EGL                .M        -2131                         : Elevation of Ground Level
EKB                .M        25                            : Elevation of Kelly Bushing
EPD                .M        0                             : Elevation of Permanent Datum (PDAT) above Mean Sea Level
LMF                .         MR                            : Logging Measured From (Name of Logging Elevation Reference)
LUL                .         BRMA                          : Logging Unit Location
LUN                .         7806                          : Logging Unit Number
LONG               .         -43_09_42,450                 : Longitude
MCST               .degF     -999.25                       : Mudcake Sample Temperature
MFST               .degF     -999.25                       : Mud Filtrate Sample Temperature
MRT                .degF     144                           : Maximum Recorded Temperature
MST                .degF     -999.25                       : Mud Sample Temperature
PDAT               .         NM                            : Permanent Datum
PRODUCER-CODE      .         440                           : 
PRODUCER-NAME      .         Schlumberger                  : 
RMB                .ohm.m    -999.25                       : Resistivity of Mud at Bottom Hole Temperature
RMCS               .ohm.m    -999.25                       : Resistivity of Mud Cake Sample
RMFS               .ohm.m    -999.25                       : Resistivity of Mud Filtrate Sample
RMS                .ohm.m    -999.25                       : Resistivity of Mud Sample
RUN                .         02                            : Run Number
TCS                .h        17_30                         : Time Circulation Stopped
TDD                .M        5221                          : Total Depth (Driller)
TDL                .M        5225                          : Logger Total Depth
TLAB               .h        09_25                         : Time Logging on Bottom
TLI                .M        5020.6                        : Top Log Interval
X                  .M        684517.00000000               : 
Y                  .M        7161201.00000000              : 
~Parameter Information Block
#_______________________________________________________________________________
#
#PARAMETER_NAME    .UNIT     VALUE                         : DESCRIPTION
#_______________________________________________________________________________
SET                .         BASE                          : 
TLFamily_BS        .         Bit Size                      : 
TLFamily_DT        .         Compressional Slowness        : 
TLFamily_DWAL      .         Aluminum Weight Fraction      : 
TLFamily_DWCA      .         Calcium Weight Fraction       : 
TLFamily_DWFE      .         Iron Weight Fraction          : 
TLFamily_DWGD      .         Gadolinium Weight Fraction    : 
TLFamily_DWS       .         Sulfur Weight Fraction        : 
TLFamily_DWSI      .         Silicon Weight Fraction       : 
TLFamily_DWTI      .         Titanium Weight Fraction      : 
TLFamily_GR        .         Gamma Ray                     : 
TLFamily_GRt       .         Gamma Ray                     : 
TLFamily_HCAL      .         Caliper                       : 
TLFamily_HDRA      .         Bulk Density Correction       : 
TLFamily_HFK       .         Potassium Concentration       : 
TLFamily_HTHO      .         Thorium Concentration         : 
TLFamily_HURA      .         Uranium Concentration         : 
TLFamily_KSDR      .         NMR Permeability              : 
TLFamily_KTIM      .         NMR Permeability              : 
TLFamily_MD        .         Measured Depth                : 
TLFamily_NMRE_Final .         NMR Bound Fluid Volume Fraction: 
TLFamily_NMRFL_Final .         NMR Free Fluids               : 
TLFamily_NMRT_Final .         NMR Porosity                  : 
TLFamily_NPHI      .         Neutron Porosity              : 
TLFamily_PE        .         Photoelectric Factor          : 
TLFamily_RD        .         Resistivity - Deep            : 
TLFamily_RHOB      .         Bulk Density                  : 
TLFamily_RM        .         Resistivity - Medium          : 
TLFamily_RS        .         Resistivity - Shallow         : 
TLFamily_T2LM      .         NMR T2 Logarithmic Mean       : 
TLFamily_TVDSS     .         True Vertical Depth Sub Sea   : 
~Curve Information
#_______________________________________________________________________________
#
#LOGNAME           .UNIT     LOG_ID                        : DESCRIPTION
#_______________________________________________________________________________
DEPTH              .M                                      :  
BS                 .in                                     : Bit Size 
DT                 .us/ft                                  : Delta-T Compressional 
DWAL               .kg/kg                                  : Dry Weight Fraction Pseudo Aluminum (SpectroLith WALK2 Model) 
DWCA               .kg/kg                                  : Dry Weight Fraction Calcium (SpectroLith WALK2 Model) 
DWFE               .kg/kg                                  : Dry Weight Fraction Iron + 0.14 Aluminum (SpectroLith WALK2 Model) 
DWGD               .ppm                                    : Dry Weight Fraction Gadolinium (SpectroLith WALK2 Model) 
DWS                .kg/kg                                  : Dry Weight Fraction Sulfur (SpectroLith WALK2 Model) 
DWSI               .kg/kg                                  : Dry Weight Fraction Silicon (SpectroLith WALK2 Model) 
DWTI               .kg/kg                                  : Dry Weight Fraction Titanium (SpectroLith WALK2 Model) 
GR                 .gAPI                                   : Gamma Ray 
GRt                .gAPI                                   : HNGS Standard Gamma-Ray 
HCAL               .in                                     : HRCC Caliper Calibrated 
HDRA               .g/cm3                                  : Density Standoff Correction 
HFK                .%                                      : HNGS Formation Potassium Concentration 
HTHO               .ppm                                    : HNGS Formation Thorium Concentration 
HURA               .ppm                                    : HNGS Formation Uranium Concentration 
KSDR               .mD                                     : SDR Permeability 
KTIM               .mD                                     : Timur/Coates Permeability 
NMRE_Final         .m3/m3                                  : CMR Porosity with T2 values greater than 3 ms 
NMRFL_Final        .unitless                               : CMR Free Fluid 
NMRT_Final         .frac                                   : Total CMR Porosity 
NPHI               .frac                                   : Enhanced Thermal Neutron Porosity in Selected Lithology 
PE                 .b/e                                    : Standard Resolution Formation Photoelectric Factor 
RD                 .ohm.m                                  : Array Induction Two Foot Resistivity A90 
RHOB               .g/cm3                                  : Standard Resolution Formation Density 
RM                 .ohm.m                                  : Array Induction Two Foot Resistivity A30 
RS                 .ohm.m                                  : Array Induction Two Foot Resistivity A10 
T2LM               .ms                                     : T2 Logarithmic Mean 
TVDSS              .M                                      :  
~Ascii
# ...
5082.997   12.250     69.431     0.000      0.364      0.000      3.410      0.000      0.043      0.000      9.372      11.645     12.311     -0.005     0.137      0.858      0.789      302.369    374.681    0.162      0.145      0.164      0.219      5.239      1950.000   2.364      1113.065   1900.700   323.294    5057.715  
5083.150   12.250     69.167     0.000      0.358      0.000      2.377      0.005      0.048      0.000      10.214     12.049     12.291     -0.001     0.148      0.824      0.841      185.079    220.110    0.147      0.133      0.151      0.236      5.101      1950.000   2.395      995.711    1629.840   299.572    5057.867  
5083.302   12.250     68.713     0.000      0.345      0.000      1.066      0.005      0.063      0.000      10.926     11.873     12.291     0.002      0.146      0.816      0.845      121.167    155.987    0.138      0.125      0.143      0.216      4.921      1553.274   2.440      750.813    1335.188   270.327    5058.020  
5083.454   12.250     68.010     0.001      0.337      0.000      0.659      0.001      0.072      0.000      12.208     11.438     12.312     0.003      0.139      0.867      0.777      129.641    149.236    0.139      0.125      0.142      0.156      4.758      1183.001   2.476      609.270    967.987    283.557    5058.172  
5083.607   12.250     67.748     0.003      0.328      0.002      0.966      0.000      0.080      0.000      11.944     11.755     12.291     0.001      0.135      0.883      0.823      131.401    196.105    0.146      0.129      0.148      0.165      4.726      1363.099   2.483      568.115    859.971    261.820    5058.325  
5083.759   12.250     67.555     0.004      0.331      0.002      1.211      0.000      0.074      0.000      11.582     12.772     12.280     -0.003     0.136      0.885      0.956      140.622    256.885    0.153      0.135      0.154      0.181      4.774      1532.810   2.465      636.154    979.556    248.637    5058.477  
5083.912   12.250     67.474     0.004      0.331      0.003      1.041      0.000      0.073      0.000      10.761     13.675     12.280     -0.007     0.144      0.865      1.059      164.453    312.349    0.159      0.141      0.159      0.157      4.873      1397.193   2.443      751.073    1159.961   252.678    5058.629  
5084.064   12.250     67.597     0.004      0.331      0.002      1.169      0.000      0.075      0.000      10.718     13.204     12.270     -0.009     0.127      0.847      1.052      201.795    421.572    0.167      0.149      0.167      0.160      4.913      1631.318   2.431      849.665    1528.714   254.401    5058.782  
5084.216   12.250     67.757     0.004      0.330      0.002      0.773      0.000      0.076      0.000      10.887     12.151     12.290     -0.007     0.111      0.874      0.967      235.470    631.909    0.175      0.160      0.179      0.191      4.853      1610.152   2.437      826.444    1471.282   238.682    5058.934  
5084.369   12.250     68.188     0.005      0.335      0.003      0.960      0.000      0.068      0.000      11.007     10.984     12.269     -0.007     0.099      0.840      0.855      276.574    647.923    0.182      0.167      0.191      0.200      4.846      1576.322   2.433      925.671    1610.380   229.116    5059.087  
5084.521   12.250     68.832     0.004      0.345      0.003      0.436      0.003      0.055      0.000      10.530     11.080     12.290     -0.007     0.087      0.860      0.910      324.911    666.120    0.188      0.172      0.198      0.219      4.913      1587.711   2.411      978.825    1795.292   229.642    5059.239  
5084.674   12.250     69.435     0.004      0.353      0.003      0.611      0.008      0.044      0.000      10.242     11.004     12.280     -0.007     0.093      0.957      0.848      401.107    802.810    0.191      0.175      0.200      0.204      5.022      1666.970   2.383      1044.557   1949.996   251.016    5059.391  
5084.826   12.250     69.894     0.002      0.357      0.002      0.755      0.009      0.042      0.000      10.787     11.287     12.269     -0.004     0.097      0.990      0.840      578.611    1063.474   0.191      0.176      0.194      0.190      5.028      1785.855   2.374      1108.995   1950.000   320.370    5059.544  
5084.978   12.250     70.381     0.001      0.357      0.001      1.110      0.006      0.046      0.000      10.664     10.916     12.269     -0.001     0.106      0.935      0.775      572.779    974.449    0.188      0.173      0.191      0.183      5.017      1912.409   2.375      1149.610   1950.000   327.848    5059.696  
5085.131   12.250     70.390     0.000      0.356      0.000      0.813      0.000      0.052      0.000      12.020     10.936     12.291     -0.001     0.098      0.918      0.826      419.282    593.464    0.184      0.166      0.190      0.221      5.099      1950.000   2.368      1190.995   1867.353   282.138    5059.849  
5085.283   12.250     70.383     0.000      0.359      0.000      0.317      0.000      0.049      0.000      11.731     11.267     12.270     -0.001     0.108      0.897      0.832      271.320    290.395    0.178      0.155      0.188      0.228      5.226      1950.000   2.364      1174.679   1863.501   233.578    5060.001  
5085.436   12.250     69.576     0.000      0.360      0.000      0.001      0.005      0.044      0.000      12.088     11.639     12.290     0.000      0.118      0.897      0.853      181.860    147.672    0.171      0.142      0.180      0.199      5.278      1950.000   2.376      1225.030   1949.684   207.288    5060.153  
5085.588   12.250     68.926     0.002      0.355      0.001      0.000      0.013      0.042      0.001      11.310     12.195     12.280     0.003      0.120      0.978      0.879      145.008    107.939    0.162      0.132      0.168      0.190      5.282      1683.962   2.406      1135.766   1790.419   214.016    5060.306  
5085.740   12.250     68.457     0.003      0.347      0.002      0.000      0.011      0.051      0.000      11.337     12.757     12.290     0.004      0.125      0.954      0.933      149.752    117.213    0.152      0.126      0.153      0.167      5.186      728.969    2.436      671.313    845.712    260.404    5060.458  
5085.893   12.250     67.780     0.002      0.342      0.001      0.004      0.002      0.063      0.000      12.162     12.858     12.291     0.006      0.135      1.021      0.889      146.765    140.491    0.144      0.125      0.146      0.153      5.131      478.814    2.464      401.975    477.323    285.887    5060.611  
5086.045   12.250     67.387     0.000      0.340      0.000      1.276      0.000      0.070      0.000      13.368     13.137     12.269     0.006      0.141      1.115      0.868      151.031    178.808    0.142      0.129      0.146      0.166      4.998      336.888    2.482      294.422    343.270    289.037    5060.763  
5086.198   12.250     67.179     0.000      0.333      0.000      1.467      0.000      0.079      0.000      14.260     13.287     12.269     0.005      0.153      1.117      0.853      162.034    246.105    0.147      0.137      0.153      0.191      4.876      249.461    2.494      213.717    216.239    270.537    5060.915  
5086.350   12.250     67.204     0.000      0.335      0.000      1.738      0.001      0.076      0.000      13.523     13.953     12.291     0.005      0.172      1.104      0.864      161.310    394.308    0.156      0.146      0.165      0.192      4.758      158.791    2.497      142.436    158.901    232.363    5061.068  
5086.502   12.250     67.419     0.000      0.336      0.000      0.310      0.005      0.073      0.000      12.567     12.905     12.291     0.003      0.154      1.024      0.806      228.102    463.921    0.162      0.151      0.170      0.172      4.679      141.443    2.476      124.191    134.193    262.349    5061.220  
5086.655   12.250     67.668     0.002      0.347      0.002      0.001      0.006      0.055      0.000      10.649     11.652     12.270     0.002      0.131      0.968      0.739      326.057    445.495    0.165      0.149      0.169      0.201      4.682      219.764    2.453      186.301    207.184    317.746    5061.373  
