~Version
 VERS              .         2.0                           : CWLS LOG ASCII STANDARD - VERSION 2.0
 WRAP              .         NO                            : ONE LINE PER DEPTH STEP
 DLM               .         SPACE                         : DELIMITING CHARACTER(SPACE TAB OR COMMA)
~Well Information
#_______________________________________________________________________________
#
#PARAMETER_NAME    .UNIT     VALUE                         : DESCRIPTION
#_______________________________________________________________________________
STRT               .M        5014.000                      : First reference value
STOP               .M        5322.763                      : Last reference value
STEP               .M        0.152                         : Step increment
NULL               .         -9999                         : Missing value
COMP               .         PETROBRAS                     : Company
WELL               .         7-SPH-20D-SPS                 : Well name
FLD                .         SAPINHOA                      : Field
LOC                .                                       : Location
CNTY               .                                       : County
STAT               .         SAO PAULO                     : State
CTRY               .         BRASIL                        : Country
SRVC               .                                       : Service Company
DATE               .                                       : Date
API                .         863160046300                  : API number
APD                .M        26.0                          : ABOVE PERMANENT DATUM
BHT                .degF     140.0                         : BOTTOMHOLE TEMPERATURE
BLI                .M        5313.7                        : BOTTOM LOGGED INTERVAL
BS                 .in       12.25                         : BIT SIZE
DCS                .         31/01/2016                    : DATE CIRCULATION STOPPED
DFD                .lb/gal   9.7                           : DRILLING FLUID DENSITY
DFT                .         OLEDRILL(BASE OLEFINA)        : DRILLING FLUID TYPE
DLAB               .         01/02/2016                    : DATE LOGGING ON BOTTOM
EDF                .M        26.0                          : ELEVATION OF DRILLING FLOOR
EGL                .M        -2129.0                       : ELEVATION OF GROUND LEVEL
EKB                .M        26.0                          : ELEVATION OF KELLY BUSHING
EPD                .M        0                             : ELEVATATION OF PERMANENT DATUM
GDAT               .         SIRGAS2000                    : Geodetic Datum
LMF                .         MR                            : LOG MEASURED FROM
LUL                .         MCE                           : LOGGING UNIT LOCATION
LUN                .         11792307                      : LOGGING UNIT NUMBER
LATI               .         -25_41_36.136                 : Latitude
LONG               .         -43_10_30,988                 : LONGITUDE
MCST               .degF     -999.25                       : MUDCAKE SAMPLE TEMPERATURE
MFST               .degF     -999.25                       : MUD FILTRATE SAMPLE TEMPERATURE
MRT                .degF     140.0                         : MAXIMUM RECORDED TEMPERATURE
MST                .degF     -999.25                       : MUD SAMPLE TEMPERATURE
ORIGINALWELLNAME   .         7SPH 0020D SPS                : 
PDAT               .         NM                            : PERMANENT DATUM
PRODUCER-CODE      .         280                           : 
PRODUCER-NAME      .         Halliburton                   : 
RMB                .ohm.m    -999.25                       : RESISTIVITY OF MUD - BHT
RMCS               .ohm.m    -999.25                       : RESISTIVITY OF MUDCAKE SAMPLE
RMFS               .ohm.m    -999.25                       : RESISTIVITY OF MUD FILTRATE SAMPLE
RMS                .ohm.m    -999.25                       : RESISTIVITY OF MUD SAMPLE
RUN                .         01                            : RUN NUMBER 1
TCS                .h        09_00                         : TIME CIRCULATION STOPPED
TDD                .M        5315.0                        : DRILLERS DEPTH
TDL                .M        5316.9                        : LOGGERS DEPTH
TLAB               .h        08_00                         : TIME LOGGING ON BOTTOM
TLI                .M        5013.8                        : TOP LOGGED INTERVAL
X                  .M        683110.00000000               : X UTM Coordinate
Y                  .M        7157356.00000000              : Y UTM Coordinate
~Parameter Information Block
#_______________________________________________________________________________
#
#PARAMETER_NAME    .UNIT     VALUE                         : DESCRIPTION
#_______________________________________________________________________________
SET                .         BASE                          : 
TLFamily_BS        .         Bit Size                      : 
TLFamily_DT        .         Compressional Slowness        : 
TLFamily_DWAL      .         Aluminum Weight Fraction      : 
TLFamily_DWCA      .         Calcium Weight Fraction       : 
TLFamily_DWFE      .         Iron Weight Fraction          : 
TLFamily_DWGD      .         Gadolinium Weight Fraction    : 
TLFamily_DWK       .         Potassium Weight Fraction     : 
TLFamily_DWMG      .         Magnesium Weight Fraction     : 
TLFamily_DWMN      .         Manganese Weight Fraction     : 
TLFamily_DWS       .         Sulfur Weight Fraction        : 
TLFamily_DWSI      .         Silicon Weight Fraction       : 
TLFamily_DWTI      .         Titanium Weight Fraction      : 
TLFamily_GR        .         Gamma Ray                     : 
TLFamily_GRt       .         Gamma Ray                     : 
TLFamily_HCAL      .         Caliper                       : 
TLFamily_HDRA      .         Bulk Density Correction       : 
TLFamily_HFK       .         Potassium Concentration       : 
TLFamily_HTHO      .         Thorium Concentration         : 
TLFamily_HURA      .         Uranium Concentration         : 
TLFamily_MD        .         Measured Depth                : 
TLFamily_MPERM     .         NMR Permeability              : 
TLFamily_NMRE_Final .         NMR Bound Fluid Volume Fraction: 
TLFamily_NMRFL_Final .         NMR Free Fluids               : 
TLFamily_NMRT_Final .         NMR Porosity                  : 
TLFamily_NPHI      .         Neutron Porosity              : 
TLFamily_PE        .         Photoelectric Factor          : 
TLFamily_RD        .         Resistivity - Deep            : 
TLFamily_RHOB      .         Bulk Density                  : 
TLFamily_RM        .         Resistivity - Medium          : 
TLFamily_RS        .         Resistivity - Shallow         : 
TLFamily_T2LM      .         NMR T2 Logarithmic Mean       : 
TLFamily_TVDSS     .         True Vertical Depth Sub Sea   : 
~Curve Information
#_______________________________________________________________________________
#
#LOGNAME           .UNIT     LOG_ID                        : DESCRIPTION
#_______________________________________________________________________________
DEPTH              .M                                      :  
BS                 .in                                     : BS/Bit Size 
DT                 .us/ft                                  : DTC/MonoDeltaT 
DWAL               .kg/kg                                  : DAL/DryrockAlWF 
DWCA               .kg/kg                                  : DCA/DryrockCaWF 
DWFE               .kg/kg                                  : DFE/DryrockFeWF 
DWGD               .ppm                                    : DGD/DryrockGdWF 
DWK                .kg/kg                                  : DK/DryrockKWF 
DWMG               .kg/kg                                  : DMG/DryrockMgWF 
DWMN               .kg/kg                                  : DMN/DryrockMnWF 
DWS                .kg/kg                                  : DSUL/DryrockSuWF 
DWSI               .kg/kg                                  : DSI/DryrockSiWF 
DWTI               .kg/kg                                  : DTI/DryrockTiWF 
GR                 .gAPI                                   : GR/Gamma API 
GRt                .gAPI                                   : GKUT/GammaKUT 
HCAL               .in                                     : CALI/Caliper 
HDRA               .g/cm3                                  : Density Delta Rho Filtered 
HFK                .%                                      : POTA/Potassium 
HTHO               .ppm                                    : THOR/Thorium 
HURA               .ppm                                    : URAN/Uranium 
MPERM              .mD                                     : MPERMT2/MrilT2KCoat 
NMRE_Final         .m3/m3                                  : MPHIT2/TA-grp T2 Effective Por 
NMRFL_Final        .unitless                               : MFFIT2/TA-grp T2 FreeFluid Ind 
NMRT_Final         .frac                                   : MSIGT2/TA-grp T2 Total Por. 
NPHI               .frac                                   : POROSIDADE NEUTRONICA (COMPOSICAO DE CURVAS CABO E/OU LWD) 
PE                 .b/e                                    : Density PE Filtered 
RD                 .ohm.m                                  : RT90/90in Resistivity 2ft Res 
RHOB               .g/cm3                                  : DENSIDADE (COMPOSICAO DE CURVAS CABO E/OU LWD ) 
RM                 .ohm.m                                  : RT30/30in Resistivity 2ft Res 
RS                 .ohm.m                                  : RT10/10in Resistivity 2ft Res 
T2LM               .ms                                     : T2LM/T2 Log Mean 
TVDSS              .M                                      :  
~Ascii
# ...
5031.526   12.250     54.576     0.045      0.087      0.346      0.000      0.056      0.000      0.000      0.069      0.000      0.007      8.716      12.321     12.732     -3.646     0.310      0.581      0.594      -9999.000  -9999.000  -9999.000  -9999.000  -9999.000  13.184     30.812     -9999.000  0.616      0.072      -9999.000  4920.755  
5031.679   12.250     55.064     0.040      0.099      0.323      0.000      0.050      0.003      0.000      0.079      0.002      0.006      8.387      12.555     12.733     -3.656     0.286      0.651      0.637      -9999.000  -9999.000  -9999.000  -9999.000  -9999.000  13.257     30.811     -9999.000  0.614      0.072      -9999.000  4920.889  
5031.831   12.250     55.388     0.039      0.105      0.306      0.000      0.048      0.004      0.000      0.084      0.004      0.006      8.445      12.510     12.732     -3.652     0.252      0.652      0.693      -9999.000  -9999.000  -9999.000  -9999.000  -9999.000  13.302     30.840     -9999.000  0.613      0.072      -9999.000  4921.023  
5031.983   12.250     55.142     0.043      0.106      0.297      0.000      0.053      0.001      0.000      0.084      0.009      0.007      8.439      12.460     12.721     -3.644     0.209      0.563      0.799      -9999.000  -9999.000  -9999.000  -9999.000  -9999.000  13.265     31.083     -9999.000  0.613      0.072      -9999.000  4921.156  
5032.136   12.250     54.772     0.043      0.108      0.296      0.000      0.053      0.000      0.000      0.085      0.008      0.007      8.486      12.316     12.706     -3.595     0.184      0.460      0.866      -9999.000  -9999.000  -9999.000  -9999.000  -9999.000  13.225     31.280     -9999.000  0.615      0.072      -9999.000  4921.290  
5032.288   12.250     54.993     0.041      0.110      0.296      0.000      0.051      0.000      0.000      0.086      0.009      0.006      8.557      11.919     12.707     -3.497     0.186      0.276      0.888      -9999.000  -9999.000  -9999.000  -9999.000  -9999.000  13.243     31.452     -9999.000  0.615      0.072      -9999.000  4921.424  
5032.441   12.250     55.300     0.041      0.108      0.301      0.000      0.051      0.000      0.000      0.085      0.008      0.006      8.397      11.866     12.711     -3.420     0.192      0.233      0.887      -9999.000  -9999.000  -9999.000  -9999.000  -9999.000  13.244     31.437     -9999.000  0.613      0.072      -9999.000  4921.557  
5032.593   12.250     55.334     0.042      0.105      0.313      0.000      0.052      0.000      0.000      0.084      0.001      0.005      8.246      11.959     12.715     -3.326     0.220      0.286      0.827      -9999.000  -9999.000  -9999.000  -9999.000  -9999.000  13.233     31.441     -9999.000  0.611      0.072      -9999.000  4921.691  
5032.745   12.250     54.849     0.041      0.105      0.318      0.000      0.051      0.000      0.000      0.084      0.000      0.004      8.377      11.995     12.716     -3.304     0.228      0.354      0.791      -9999.000  -9999.000  -9999.000  -9999.000  -9999.000  13.209     31.459     -9999.000  0.611      0.072      -9999.000  4921.825  
5032.898   12.250     54.325     0.038      0.103      0.313      0.000      0.047      0.007      0.000      0.082      0.001      0.003      8.901      12.192     12.721     -3.315     0.215      0.433      0.806      -9999.000  -9999.000  -9999.000  -9999.000  -9999.000  13.159     31.545     -9999.000  0.610      0.072      -9999.000  4921.959  
5033.050   12.250     53.120     0.035      0.101      0.299      0.000      0.044      0.019      0.000      0.081      0.001      0.003      9.017      12.033     12.731     -3.270     0.189      0.591      0.777      -9999.000  -9999.000  -9999.000  -9999.000  -9999.000  13.185     31.684     -9999.000  0.608      0.071      -9999.000  4922.092  
5033.203   12.250     51.758     0.033      0.106      0.289      0.000      0.042      0.019      0.000      0.084      0.002      0.004      8.935      11.600     12.731     -3.134     0.183      0.629      0.726      -9999.000  -9999.000  -9999.000  -9999.000  -9999.000  13.312     31.868     -9999.000  0.607      0.071      -9999.000  4922.226  
5033.355   12.250     49.802     0.034      0.119      0.290      0.000      0.042      0.003      0.000      0.095      0.005      0.004      8.960      10.913     12.729     -3.008     0.193      0.637      0.628      -9999.000  -9999.000  -9999.000  -9999.000  -9999.000  13.403     32.480     -9999.000  0.606      0.071      -9999.000  4922.360  
5033.507   12.250     48.019     0.033      0.119      0.293      0.000      0.041      0.000      0.000      0.095      0.007      0.005      8.882      10.518     12.729     -2.904     0.204      0.560      0.593      -9999.000  -9999.000  -9999.000  -9999.000  -9999.000  13.401     33.234     -9999.000  0.608      0.072      -9999.000  4922.494  
5033.660   12.250     46.445     0.032      0.121      0.296      0.000      0.039      0.000      0.000      0.097      0.003      0.005      8.535      9.966      12.732     -2.937     0.218      0.422      0.556      -9999.000  -9999.000  -9999.000  -9999.000  -9999.000  13.240     34.512     -9999.000  0.614      0.072      -9999.000  4922.628  
5033.812   12.250     45.242     0.028      0.121      0.291      0.000      0.035      0.006      0.000      0.097      0.003      0.005      8.100      9.838      12.734     -3.019     0.216      0.349      0.573      -9999.000  -9999.000  -9999.000  -9999.000  -9999.000  13.026     35.030     -9999.000  0.617      0.072      -9999.000  4922.761  
5033.965   12.250     45.659     0.024      0.116      0.279      0.000      0.029      0.023      0.000      0.092      0.001      0.003      8.115      9.829      12.733     -3.098     0.178      0.315      0.654      -9999.000  -9999.000  -9999.000  -9999.000  -9999.000  12.996     34.679     -9999.000  0.615      0.072      -9999.000  4922.895  
5034.117   12.250     47.025     0.023      0.108      0.272      0.000      0.029      0.034      0.000      0.087      0.001      0.003      8.012      9.896      12.731     -3.190     0.142      0.395      0.696      -9999.000  -9999.000  -9999.000  -9999.000  -9999.000  13.052     33.523     -9999.000  0.610      0.072      -9999.000  4923.029  
5034.269   12.250     48.437     0.027      0.107      0.283      0.000      0.033      0.027      0.000      0.086      0.001      0.003      8.173      10.110     12.729     -3.233     0.106      0.681      0.679      -9999.000  -9999.000  -9999.000  -9999.000  -9999.000  13.096     31.123     -9999.000  0.601      0.071      -9999.000  4923.163  
5034.422   12.250     49.898     0.029      0.109      0.288      0.000      0.036      0.021      0.000      0.087      0.001      0.003      8.511      10.539     12.729     -3.262     0.082      0.839      0.712      -9999.000  -9999.000  -9999.000  -9999.000  -9999.000  13.093     29.394     -9999.000  0.597      0.070      -9999.000  4923.297  
5034.574   12.250     50.967     0.032      0.112      0.305      0.000      0.039      0.009      0.000      0.089      0.000      0.003      8.620      11.285     12.732     -3.275     0.069      0.912      0.792      -9999.000  -9999.000  -9999.000  -9999.000  -9999.000  13.117     26.981     -9999.000  0.594      0.070      -9999.000  4923.430  
5034.727   12.250     52.043     0.032      0.112      0.318      0.000      0.040      0.002      0.000      0.089      0.000      0.004      8.644      11.952     12.734     -3.314     0.077      0.887      0.860      -9999.000  -9999.000  -9999.000  -9999.000  -9999.000  13.167     25.383     -9999.000  0.594      0.070      -9999.000  4923.564  
5034.879   12.250     52.254     0.028      0.114      0.320      0.000      0.035      0.000      0.000      0.091      0.006      0.003      8.513      12.574     12.734     -3.373     0.102      0.733      0.941      -9999.000  -9999.000  -9999.000  -9999.000  -9999.000  13.158     23.775     -9999.000  0.598      0.070      -9999.000  4923.698  
