~Version
 VERS              .         2.0                           : CWLS LOG ASCII STANDARD - VERSION 2.0
 WRAP              .         NO                            : ONE LINE PER DEPTH STEP
 DLM               .         SPACE                         : DELIMITING CHARACTER(SPACE TAB OR COMMA)
~Well Information
#_______________________________________________________________________________
#
#PARAMETER_NAME    .UNIT     VALUE                         : DESCRIPTION
#_______________________________________________________________________________
STRT               .M        4949.000                      : First reference value
STOP               .M        5060.404                      : Last reference value
STEP               .M        0.152                         : Step increment
NULL               .         -9999                         : Missing value
COMP               .         PETROBRAS                     : Company
WELL               .         7-SPH-22-SPS                  : Well name
FLD                .         SAPINHOA                      : Field
LOC                .                                       : Location
CNTY               .                                       : County
STAT               .         SAO PAULO                     : State
CTRY               .         BR                            : Country
SRVC               .                                       : Service Company
DATE               .         25/07/2016                    : Date
API                .         863160046800                  : API number
APD                .M        26.0                          : ABOVE PERMANENT DATUM
BHT                .degF     140.0                         : BOTTOMHOLE TEMPERATURE
BLI                .M        5055.8                        : BOTTOM LOGGED INTERVAL
BS                 .in       8.5                           : BIT SIZE
CBDR               .M        4981                          : Casing Bottom (Driller)
CBLO               .M        4981                          : Casing Bottom of Logger
CSIZ               .in       10.75                         : Casing Outer Diameter
CWEI               .lb/ft    85.3                          : Casing Weight
DCS                .         23/07/2016                    : DATE CIRCULATION STOPPED
DFD                .lb/gal   9.7                           : DRILLING FLUID DENSITY
DFT                .         CATIONICO_SCOL (BASE AGUA)    : DRILLING FLUID TYPE
DLAB               .         25/07/2016                    : DATE LOGGING ON BOTTOM
EDF                .M        26.0                          : ELEVATION OF DRILLING FLOOR
EGL                .M        -2144.0                       : ELEVATION OF GROUND LEVEL
EKB                .M        -999.25                       : ELEVATION OF KELLY BUSHING
EPD                .M        0.0                           : ELEVATATION OF PERMANENT DATUM
GDAT               .                                       : Geodetic Datum
LMF                .         MR                            : LOG MEASURED FROM
LUL                .         MCE                           : LOGGING UNIT LOCATION
LUN                .         10898943                      : LOGGING UNIT NUMBER
LATI               .         -25_48_08.320                 : Latitude
LONG               .         -43_13_44,430                 : LONGITUDE
MCST               .degF     66.1                          : MUDCAKE SAMPLE TEMPERATURE
MFST               .degF     66.4                          : MUD FILTRATE SAMPLE TEMPERATURE
MRT                .degF     140.0                         : MAXIMUM RECORDED TEMPERATURE
MST                .degF     65.8                          : MUD SAMPLE TEMPERATURE
ORIGINALWELLNAME   .         7SPH 0022  SPS                : 
PDAT               .         NM                            : PERMANENT DATUM
PRODUCER-CODE      .         280                           : 
PRODUCER-NAME      .         Halliburton                   : 
RMB                .ohm.m    0.040                         : RESISTIVITY OF MUD - BHT
RMCS               .ohm.m    0.140                         : RESISTIVITY OF MUDCAKE SAMPLE
RMFS               .ohm.m    0.012                         : RESISTIVITY OF MUD FILTRATE SAMPLE
RMS                .ohm.m    0.080                         : RESISTIVITY OF MUD SAMPLE
RUN                .         01                            : RUN NUMBER 1
TCS                .h        19_00                         : TIME CIRCULATION STOPPED
TDD                .M        5058.0                        : DRILLERS DEPTH
TDL                .M        5057.1                        : LOGGERS DEPTH
TLAB               .h        07_15                         : TIME LOGGING ON BOTTOM
TLI                .M        4950.0                        : TOP LOGGED INTERVAL
X                  .M        677550.00000000               : X or East-West coordinate
Y                  .M        7145014.00000000              : Y or North South coordinate
~Parameter Information Block
#_______________________________________________________________________________
#
#PARAMETER_NAME    .UNIT     VALUE                         : DESCRIPTION
#_______________________________________________________________________________
SET                .         BASE                          : 
TLFamily_BS        .         Bit Size                      : 
TLFamily_DT        .         Compressional Slowness        : 
TLFamily_DWAL      .         Aluminum Weight Fraction      : 
TLFamily_DWCA      .         Calcium Weight Fraction       : 
TLFamily_DWFE      .         Iron Weight Fraction          : 
TLFamily_DWK       .         Potassium Weight Fraction     : 
TLFamily_DWMG      .         Magnesium Weight Fraction     : 
TLFamily_DWMN      .         Manganese Weight Fraction     : 
TLFamily_DWS       .         Sulfur Weight Fraction        : 
TLFamily_DWSI      .         Silicon Weight Fraction       : 
TLFamily_DWTI      .         Titanium Weight Fraction      : 
TLFamily_GR        .         Gamma Ray                     : 
TLFamily_GRt       .         Gamma Ray                     : 
TLFamily_HCAL      .         Caliper                       : 
TLFamily_HDRA      .         Bulk Density Correction       : 
TLFamily_HFK       .         Potassium Concentration       : 
TLFamily_HTHO      .         Thorium Concentration         : 
TLFamily_HURA      .         Uranium Concentration         : 
TLFamily_MD        .         Measured Depth                : 
TLFamily_MPERM     .         NMR Permeability              : 
TLFamily_NMRE_Final .         NMR Bound Fluid Volume Fraction: 
TLFamily_NMRFL_Final .         NMR Free Fluids               : 
TLFamily_NMRT_Final .         NMR Porosity                  : 
TLFamily_NPHI      .         Neutron Porosity              : 
TLFamily_PE        .         Photoelectric Factor          : 
TLFamily_RD        .         Resistivity - Deep            : 
TLFamily_RHOB      .         Bulk Density                  : 
TLFamily_RS        .         Resistivity - Shallow         : 
TLFamily_T2LM      .         NMR T2 Logarithmic Mean       : 
TLFamily_TVDSS     .         True Vertical Depth Sub Sea   : 
~Curve Information
#_______________________________________________________________________________
#
#LOGNAME           .UNIT     LOG_ID                        : DESCRIPTION
#_______________________________________________________________________________
DEPTH              .M                                      :  
BS                 .in                                     : BS/Bit Size 
DT                 .us/ft                                  : SONICO COMPRESSIONAL (COMPOSICAO DE CURVAS CABO E/OU LWD) 
DWAL               .kg/kg                                  : DAL/DryrockAlWF 
DWCA               .kg/kg                                  : DCA/DryrockCaWF 
DWFE               .kg/kg                                  : DFE/DryrockFeWF 
DWK                .kg/kg                                  : DK/DryrockKWF 
DWMG               .kg/kg                                  : DMG/DryrockMgWF 
DWMN               .kg/kg                                  : DMN/DryrockMnWF 
DWS                .kg/kg                                  : DSUL/DryrockSuWF 
DWSI               .kg/kg                                  : DSI/DryrockSiWF 
DWTI               .kg/kg                                  : DTI/DryrockTiWF 
GR                 .gAPI                                   : GR/Gamma API 
GRt                .gAPI                                   : GKUT/GammaKUT 
HCAL               .in                                     : CALI/Caliper 
HDRA               .g/cm3                                  : DRHO/DensityCorr 
HFK                .%                                      : POTA/Potassium 
HTHO               .ppm                                    : THOR/Thorium 
HURA               .ppm                                    : URAN/Uranium 
MPERM              .mD                                     : MPERMT2/MrilT2KCoat 
NMRE_Final         .m3/m3                                  : MPHIT2/TA-grp T2 Effective Por 
NMRFL_Final        .unitless                               : MFFIT2/TA-grp T2 FreeFluid Ind 
NMRT_Final         .frac                                   : MSIGT2/TA-grp T2 Total Por. 
NPHI               .frac                                   : NPHI/Neutron Porosity 
PE                 .b/e                                    : PE/Pe 
RD                 .ohm.m                                  : LLD/LLD 
RHOB               .g/cm3                                  : RHOB/Density 
RS                 .ohm.m                                  : LLS/LLS 
T2LM               .ms                                     : T2LM/T2 Log Mean 
TVDSS              .M                                      :  
~Ascii
# ...
5032.820   8.500      -9999.000  0.006      0.251      0.000      0.001      0.066      0.001      0.005      0.057      0.000      -9999.000  15.472     8.497      -0.041     0.062      3.528      0.330      13.103     0.108      0.083      0.113      0.078      4.200      1225.902   2.516      1180.126   251.550    5000.255  
5032.972   8.500      -9999.000  0.004      0.244      0.000      0.001      0.075      0.001      0.006      0.053      0.000      -9999.000  15.463     8.496      -0.027     0.068      3.551      0.309      8.487      0.103      0.079      0.116      0.083      4.478      1508.646   2.488      1601.321   207.709    5000.406  
5033.125   8.500      -9999.000  0.002      0.264      0.000      0.001      0.061      0.001      0.008      0.052      0.000      -9999.000  15.160     8.496      -0.012     0.065      3.219      0.403      5.746      0.103      0.075      0.123      0.096      4.660      1877.726   2.481      2025.501   165.029    5000.557  
5033.277   8.500      -9999.000  0.003      0.282      0.000      0.001      0.047      0.001      0.010      0.053      0.000      -9999.000  14.937     8.496      -0.011     0.050      2.791      0.559      5.674      0.106      0.076      0.131      0.095      4.602      1807.941   2.490      1872.580   127.812    5000.708  
5033.430   8.500      -9999.000  0.007      0.283      0.000      0.001      0.045      0.001      0.011      0.050      0.000      -9999.000  14.714     8.487      -0.007     0.040      1.944      0.860      7.116      0.107      0.081      0.138      0.100      4.379      1602.154   2.517      1435.358   101.059    5000.860  
5033.582   8.500      -9999.000  0.010      0.277      0.000      0.001      0.047      0.001      0.011      0.050      0.000      -9999.000  14.651     8.485      -0.006     0.044      1.520      1.001      8.595      0.107      0.084      0.143      0.100      4.290      1948.129   2.517      1911.767   80.749     5001.011  
5033.734   8.500      -9999.000  0.016      0.278      0.000      0.000      0.041      0.001      0.012      0.053      0.001      -9999.000  14.907     8.507      -0.007     0.057      1.108      1.156      9.017      0.106      0.086      0.149      0.102      4.361      2045.233   2.489      2050.569   66.083     5001.162  
5033.887   8.500      -9999.000  0.017      0.293      0.000      0.000      0.025      0.001      0.013      0.058      0.001      -9999.000  15.117     8.504      -0.009     0.057      1.079      1.190      9.588      0.107      0.087      0.154      0.107      4.451      2200.952   2.481      2240.394   61.026     5001.313  
5034.039   8.500      -9999.000  0.020      0.295      0.000      0.000      0.024      0.001      0.011      0.055      0.001      -9999.000  15.125     8.509      -0.012     0.048      1.391      1.093      11.723     0.110      0.091      0.152      0.115      4.494      4774.707   2.478      8953.149   74.246     5001.464  
5034.192   8.500      -9999.000  0.017      0.287      0.000      0.000      0.035      0.001      0.009      0.050      0.002      -9999.000  15.128     8.513      -0.016     0.028      1.894      0.946      16.167     0.115      0.095      0.144      0.118      4.466      5231.546   2.475      10454.215  120.627    5001.616  
5034.344   8.500      -9999.000  0.014      0.270      0.000      0.000      0.055      0.001      0.008      0.040      0.002      -9999.000  15.084     8.517      -0.021     0.009      2.445      0.773      24.736     0.120      0.098      0.132      0.119      4.427      2912.098   2.475      3813.876   229.579    5001.767  
5034.496   8.500      -9999.000  0.014      0.271      0.000      0.001      0.057      0.001      0.008      0.038      0.002      -9999.000  15.007     8.504      -0.025     0.008      2.936      0.588      36.424     0.120      0.098      0.123      0.127      4.421      2710.654   2.479      3405.038   380.172    5001.918  
5034.649   8.500      -9999.000  0.012      0.260      0.001      0.002      0.068      0.001      0.008      0.032      0.001      -9999.000  15.469     8.503      -0.024     0.012      3.261      0.515      40.510     0.115      0.096      0.116      0.107      4.403      1742.326   2.489      1861.097   464.917    5002.069  
5034.801   8.500      -9999.000  0.009      0.276      0.001      0.002      0.058      0.001      0.010      0.033      0.001      -9999.000  15.888     8.499      -0.022     0.026      3.282      0.530      35.316     0.110      0.091      0.110      0.093      4.326      1089.641   2.508      986.621    491.930    5002.220  
5034.954   8.500      -9999.000  0.007      0.307      0.003      0.002      0.031      0.001      0.013      0.039      0.002      -9999.000  -9999.000  8.505      -0.027     -9999.000  -9999.000  -9999.000  27.311     0.105      0.087      0.106      0.096      4.200      1146.119   2.516      1312.866   488.996    5002.371  
5035.106   8.500      -9999.000  0.006      0.319      0.004      0.003      0.019      0.001      0.016      0.043      0.002      -9999.000  -9999.000  8.508      -0.029     -9999.000  -9999.000  -9999.000  25.999     0.103      0.085      0.103      0.096      4.162      1140.877   2.498      1273.852   495.022    5002.523  
5035.258   8.500      -9999.000  0.005      0.318      0.006      0.004      0.020      0.001      0.016      0.042      0.002      -9999.000  -9999.000  8.511      -0.019     -9999.000  -9999.000  -9999.000  43.671     0.103      0.089      0.103      0.097      4.302      1142.152   2.492      1273.590   527.793    5002.674  
5035.411   8.500      -9999.000  0.005      0.332      0.006      0.005      0.009      0.000      0.015      0.044      0.002      -9999.000  -9999.000  8.509      -0.010     -9999.000  -9999.000  -9999.000  107.154    0.103      0.093      0.103      0.099      4.397      1135.414   2.516      1219.662   573.349    5002.825  
5035.563   8.500      -9999.000  0.006      0.337      0.004      0.006      0.008      0.000      0.012      0.042      0.002      -9999.000  -9999.000  8.510      -0.010     -9999.000  -9999.000  -9999.000  161.894    0.100      0.092      0.100      0.097      4.347      1010.043   2.553      1029.593   609.727    5002.976  
5035.716   8.500      -9999.000  0.006      0.338      0.003      0.007      0.011      0.000      0.009      0.038      0.002      -9999.000  -9999.000  8.508      -0.012     -9999.000  -9999.000  -9999.000  87.268     0.093      0.085      0.093      0.089      4.054      934.419    2.616      1010.081   605.382    5003.127  
5035.868   8.500      -9999.000  0.009      0.333      0.001      0.011      0.016      0.001      0.004      0.036      0.001      -9999.000  -9999.000  8.507      -0.015     -9999.000  -9999.000  -9999.000  27.226     0.085      0.074      0.085      0.068      3.836      729.144    2.643      752.697    544.526    5003.279  
5036.020   8.500      -9999.000  0.010      0.330      0.000      0.013      0.017      0.001      0.001      0.036      0.001      -9999.000  -9999.000  8.509      -0.019     -9999.000  -9999.000  -9999.000  8.992      0.078      0.065      0.078      0.053      3.547      708.714    2.666      622.641    460.747    5003.430  
5036.173   8.500      -9999.000  0.011      0.325      0.000      0.014      0.020      0.001      0.000      0.038      0.001      -9999.000  -9999.000  8.508      -0.021     -9999.000  -9999.000  -9999.000  3.890      0.075      0.058      0.075      0.067      3.429      753.636    2.650      658.796    376.066    5003.581  
5036.325   8.500      -9999.000  0.010      0.327      0.000      0.012      0.016      0.000      0.002      0.043      0.001      -9999.000  -9999.000  8.507      -0.027     -9999.000  -9999.000  -9999.000  2.821      0.079      0.057      0.079      0.101      3.432      995.237    2.549      1039.820   307.767    5003.732  
5036.478   8.500      -9999.000  0.009      0.326      0.000      0.011      0.016      0.000      0.004      0.044      0.001      -9999.000  -9999.000  8.505      -0.028     -9999.000  -9999.000  -9999.000  3.378      0.089      0.062      0.089      0.111      3.531      1100.593   2.502      1231.182   255.388    5003.883  
