~Version
 VERS              .         2.0                           : CWLS LOG ASCII STANDARD - VERSION 2.0
 WRAP              .         NO                            : ONE LINE PER DEPTH STEP
 DLM               .         SPACE                         : DELIMITING CHARACTER(SPACE TAB OR COMMA)
~Well Information
#_______________________________________________________________________________
#
#PARAMETER_NAME    .UNIT     VALUE                         : DESCRIPTION
#_______________________________________________________________________________
STRT               .M        5014.000                      : First reference value
STOP               .M        5322.763                      : Last reference value
STEP               .M        0.152                         : Step increment
NULL               .         -9999                         : Missing value
COMP               .         PETROBRAS                     : Company
WELL               .         7-SPH-20D-SPS                 : Well name
FLD                .         SAPINHOA                      : Field
LOC                .                                       : Location
CNTY               .                                       : County
STAT               .         SAO PAULO                     : State
CTRY               .         BRASIL                        : Country
SRVC               .                                       : Service Company
DATE               .                                       : Date
API                .         863160046300                  : API number
APD                .M        26.0                          : ABOVE PERMANENT DATUM
BHT                .degF     140.0                         : BOTTOMHOLE TEMPERATURE
BLI                .M        5313.7                        : BOTTOM LOGGED INTERVAL
BS                 .in       12.25                         : BIT SIZE
DCS                .         31/01/2016                    : DATE CIRCULATION STOPPED
DFD                .lb/gal   9.7                           : DRILLING FLUID DENSITY
DFT                .         OLEDRILL(BASE OLEFINA)        : DRILLING FLUID TYPE
DLAB               .         01/02/2016                    : DATE LOGGING ON BOTTOM
EDF                .M        26.0                          : ELEVATION OF DRILLING FLOOR
EGL                .M        -2129.0                       : ELEVATION OF GROUND LEVEL
EKB                .M        26.0                          : ELEVATION OF KELLY BUSHING
EPD                .M        0                             : ELEVATATION OF PERMANENT DATUM
GDAT               .         SIRGAS2000                    : Geodetic Datum
LMF                .         MR                            : LOG MEASURED FROM
LUL                .         MCE                           : LOGGING UNIT LOCATION
LUN                .         11792307                      : LOGGING UNIT NUMBER
LATI               .         -25_41_36.136                 : Latitude
LONG               .         -43_10_30,988                 : LONGITUDE
MCST               .degF     -999.25                       : MUDCAKE SAMPLE TEMPERATURE
MFST               .degF     -999.25                       : MUD FILTRATE SAMPLE TEMPERATURE
MRT                .degF     140.0                         : MAXIMUM RECORDED TEMPERATURE
MST                .degF     -999.25                       : MUD SAMPLE TEMPERATURE
ORIGINALWELLNAME   .         7SPH 0020D SPS                : 
PDAT               .         NM                            : PERMANENT DATUM
PRODUCER-CODE      .         280                           : 
PRODUCER-NAME      .         Halliburton                   : 
RMB                .ohm.m    -999.25                       : RESISTIVITY OF MUD - BHT
RMCS               .ohm.m    -999.25                       : RESISTIVITY OF MUDCAKE SAMPLE
RMFS               .ohm.m    -999.25                       : RESISTIVITY OF MUD FILTRATE SAMPLE
RMS                .ohm.m    -999.25                       : RESISTIVITY OF MUD SAMPLE
RUN                .         01                            : RUN NUMBER 1
TCS                .h        09_00                         : TIME CIRCULATION STOPPED
TDD                .M        5315.0                        : DRILLERS DEPTH
TDL                .M        5316.9                        : LOGGERS DEPTH
TLAB               .h        08_00                         : TIME LOGGING ON BOTTOM
TLI                .M        5013.8                        : TOP LOGGED INTERVAL
X                  .M        683110.00000000               : X UTM Coordinate
Y                  .M        7157356.00000000              : Y UTM Coordinate
~Parameter Information Block
#_______________________________________________________________________________
#
#PARAMETER_NAME    .UNIT     VALUE                         : DESCRIPTION
#_______________________________________________________________________________
SET                .         BASE                          : 
TLFamily_BS        .         Bit Size                      : 
TLFamily_DT        .         Compressional Slowness        : 
TLFamily_DWAL      .         Aluminum Weight Fraction      : 
TLFamily_DWCA      .         Calcium Weight Fraction       : 
TLFamily_DWFE      .         Iron Weight Fraction          : 
TLFamily_DWGD      .         Gadolinium Weight Fraction    : 
TLFamily_DWK       .         Potassium Weight Fraction     : 
TLFamily_DWMG      .         Magnesium Weight Fraction     : 
TLFamily_DWMN      .         Manganese Weight Fraction     : 
TLFamily_DWS       .         Sulfur Weight Fraction        : 
TLFamily_DWSI      .         Silicon Weight Fraction       : 
TLFamily_DWTI      .         Titanium Weight Fraction      : 
TLFamily_GR        .         Gamma Ray                     : 
TLFamily_GRt       .         Gamma Ray                     : 
TLFamily_HCAL      .         Caliper                       : 
TLFamily_HDRA      .         Bulk Density Correction       : 
TLFamily_HFK       .         Potassium Concentration       : 
TLFamily_HTHO      .         Thorium Concentration         : 
TLFamily_HURA      .         Uranium Concentration         : 
TLFamily_MD        .         Measured Depth                : 
TLFamily_MPERM     .         NMR Permeability              : 
TLFamily_NMRE_Final .         NMR Bound Fluid Volume Fraction: 
TLFamily_NMRFL_Final .         NMR Free Fluids               : 
TLFamily_NMRT_Final .         NMR Porosity                  : 
TLFamily_NPHI      .         Neutron Porosity              : 
TLFamily_PE        .         Photoelectric Factor          : 
TLFamily_RD        .         Resistivity - Deep            : 
TLFamily_RHOB      .         Bulk Density                  : 
TLFamily_RM        .         Resistivity - Medium          : 
TLFamily_RS        .         Resistivity - Shallow         : 
TLFamily_T2LM      .         NMR T2 Logarithmic Mean       : 
TLFamily_TVDSS     .         True Vertical Depth Sub Sea   : 
~Curve Information
#_______________________________________________________________________________
#
#LOGNAME           .UNIT     LOG_ID                        : DESCRIPTION
#_______________________________________________________________________________
DEPTH              .M                                      :  
BS                 .in                                     : BS/Bit Size 
DT                 .us/ft                                  : DTC/MonoDeltaT 
DWAL               .kg/kg                                  : DAL/DryrockAlWF 
DWCA               .kg/kg                                  : DCA/DryrockCaWF 
DWFE               .kg/kg                                  : DFE/DryrockFeWF 
DWGD               .ppm                                    : DGD/DryrockGdWF 
DWK                .kg/kg                                  : DK/DryrockKWF 
DWMG               .kg/kg                                  : DMG/DryrockMgWF 
DWMN               .kg/kg                                  : DMN/DryrockMnWF 
DWS                .kg/kg                                  : DSUL/DryrockSuWF 
DWSI               .kg/kg                                  : DSI/DryrockSiWF 
DWTI               .kg/kg                                  : DTI/DryrockTiWF 
GR                 .gAPI                                   : GR/Gamma API 
GRt                .gAPI                                   : GKUT/GammaKUT 
HCAL               .in                                     : CALI/Caliper 
HDRA               .g/cm3                                  : Density Delta Rho Filtered 
HFK                .%                                      : POTA/Potassium 
HTHO               .ppm                                    : THOR/Thorium 
HURA               .ppm                                    : URAN/Uranium 
MPERM              .mD                                     : MPERMT2/MrilT2KCoat 
NMRE_Final         .m3/m3                                  : MPHIT2/TA-grp T2 Effective Por 
NMRFL_Final        .unitless                               : MFFIT2/TA-grp T2 FreeFluid Ind 
NMRT_Final         .frac                                   : MSIGT2/TA-grp T2 Total Por. 
NPHI               .frac                                   : POROSIDADE NEUTRONICA (COMPOSICAO DE CURVAS CABO E/OU LWD) 
PE                 .b/e                                    : Density PE Filtered 
RD                 .ohm.m                                  : RT90/90in Resistivity 2ft Res 
RHOB               .g/cm3                                  : DENSIDADE (COMPOSICAO DE CURVAS CABO E/OU LWD ) 
RM                 .ohm.m                                  : RT30/30in Resistivity 2ft Res 
RS                 .ohm.m                                  : RT10/10in Resistivity 2ft Res 
T2LM               .ms                                     : T2LM/T2 Log Mean 
TVDSS              .M                                      :  
~Ascii
# ...
5290.911   12.250     65.427     0.016      0.314      0.004      0.000      0.020      0.000      0.001      0.012      0.064      0.004      43.371     81.863     13.345     -9999.000  0.984      3.213      6.123      54.538     0.132      0.107      0.133      -9999.000  -9999.000  1.576      -9999.000  1.604      2.288      287.012    5157.569  
5291.063   12.250     65.672     0.022      0.312      0.004      0.000      0.023      0.000      0.000      0.010      0.060      0.004      46.590     82.814     13.365     -9999.000  0.893      3.129      6.426      84.414     0.138      0.115      0.139      -9999.000  -9999.000  1.475      -9999.000  1.507      2.097      288.877    5157.711  
5291.216   12.250     66.082     0.028      0.306      0.003      0.000      0.026      0.000      0.000      0.008      0.062      0.004      46.938     84.141     13.362     -9999.000  0.776      3.051      6.816      52.302     0.142      0.111      0.142      -9999.000  -9999.000  1.541      -9999.000  1.583      2.214      276.367    5157.853  
5291.368   12.250     66.587     0.041      0.290      0.001      0.000      0.030      0.001      0.000      0.008      0.065      0.003      45.349     -9999.000  13.333     -9999.000  -9999.000  -9999.000  -9999.000  26.319     0.142      0.102      0.142      -9999.000  -9999.000  1.722      -9999.000  1.782      2.558      245.432    5157.996  
5291.521   12.250     66.805     0.046      0.286      0.001      0.000      0.033      0.001      0.000      0.009      0.064      0.003      43.424     -9999.000  13.289     -9999.000  -9999.000  -9999.000  -9999.000  19.853     0.143      0.098      0.143      -9999.000  -9999.000  1.798      -9999.000  1.868      2.739      222.404    5158.138  
5291.673   12.250     66.902     0.044      0.281      0.002      0.000      0.031      0.009      0.000      0.014      0.055      0.003      42.196     -9999.000  13.197     -9999.000  -9999.000  -9999.000  -9999.000  23.148     0.146      0.101      0.146      -9999.000  -9999.000  1.715      -9999.000  1.779      2.621      202.478    5158.280  
5291.825   12.250     66.975     0.039      0.278      0.003      0.000      0.029      0.017      0.000      0.017      0.050      0.003      43.127     -9999.000  13.150     -9999.000  -9999.000  -9999.000  -9999.000  36.070     0.154      0.110      0.154      -9999.000  -9999.000  1.649      -9999.000  1.705      2.521      184.070    5158.423  
5291.978   12.250     67.169     0.036      0.291      0.004      0.000      0.029      0.012      0.000      0.017      0.044      0.003      44.623     -9999.000  13.155     -9999.000  -9999.000  -9999.000  -9999.000  49.736     0.160      0.117      0.160      -9999.000  -9999.000  1.769      -9999.000  1.821      2.783      188.392    5158.565  
5292.130   12.250     66.830     0.035      0.303      0.004      0.000      0.029      0.009      0.001      0.014      0.039      0.003      43.484     -9999.000  13.150     -9999.000  -9999.000  -9999.000  -9999.000  89.984     0.160      0.126      0.160      -9999.000  -9999.000  1.954      -9999.000  2.002      3.114      216.556    5158.707  
5292.283   12.250     65.546     0.032      0.300      0.003      0.000      0.025      0.014      0.001      0.012      0.040      0.003      41.544     -9999.000  13.122     -9999.000  -9999.000  -9999.000  -9999.000  138.817    0.150      0.126      0.150      -9999.000  -9999.000  2.367      -9999.000  2.396      3.662      241.404    5158.850  
5292.435   12.250     62.931     0.037      0.289      0.002      0.000      0.021      0.014      0.001      0.013      0.048      0.003      41.305     -9999.000  13.114     -9999.000  -9999.000  -9999.000  -9999.000  100.477    0.133      0.113      0.133      -9999.000  -9999.000  2.932      -9999.000  2.928      4.377      254.002    5158.992  
5292.587   12.250     60.374     0.053      0.281      0.000      0.000      0.019      0.001      0.000      0.020      0.059      0.003      40.914     -9999.000  13.129     -9999.000  -9999.000  -9999.000  -9999.000  37.358     0.113      0.094      0.114      -9999.000  -9999.000  4.464      -9999.000  4.326      6.093      247.876    5159.134  
5292.740   12.250     58.153     0.054      0.280      0.000      0.000      0.019      0.000      0.000      0.021      0.060      0.003      39.828     -9999.000  13.148     -9999.000  -9999.000  -9999.000  -9999.000  12.056     0.095      0.078      0.101      -9999.000  -9999.000  6.246      -9999.000  5.867      7.654      206.619    5159.277  
5292.892   12.250     56.996     0.054      0.280      0.000      0.000      0.019      0.000      0.000      0.021      0.060      0.003      39.520     -9999.000  13.161     -9999.000  -9999.000  -9999.000  -9999.000  3.912      0.080      0.064      0.090      -9999.000  -9999.000  10.957     -9999.000  9.624      10.542     163.668    5159.419  
5293.045   12.250     56.491     0.054      0.280      0.000      0.000      0.019      0.000      0.000      0.021      0.060      0.003      40.145     -9999.000  13.155     -9999.000  -9999.000  -9999.000  -9999.000  2.312      0.077      0.057      0.084      -9999.000  -9999.000  15.302     -9999.000  13.418     13.011     165.960    5159.562  
5293.197   12.250     56.487     0.054      0.281      0.000      0.000      0.019      0.000      0.000      0.021      0.060      0.003      40.961     -9999.000  13.149     -9999.000  -9999.000  -9999.000  -9999.000  2.014      0.079      0.055      0.081      -9999.000  -9999.000  20.407     -9999.000  17.994     18.006     185.713    5159.704  
5293.349   12.250     57.475     0.050      0.277      0.001      0.000      0.018      0.007      0.000      0.021      0.057      0.003      41.822     -9999.000  13.154     -9999.000  -9999.000  -9999.000  -9999.000  2.526      0.080      0.058      0.082      -9999.000  -9999.000  29.053     -9999.000  25.393     19.983     174.270    5159.846  
5293.502   12.250     58.611     0.040      0.272      0.003      0.000      0.018      0.019      0.000      0.020      0.053      0.003      41.772     -9999.000  13.165     -9999.000  -9999.000  -9999.000  -9999.000  3.704      0.080      0.062      0.085      -9999.000  -9999.000  32.650     -9999.000  28.318     20.997     151.496    5159.989  
5293.654   12.250     59.782     0.021      0.275      0.004      0.000      0.017      0.034      0.001      0.018      0.047      0.003      40.302     -9999.000  13.187     -9999.000  -9999.000  -9999.000  -9999.000  4.253      0.084      0.064      0.089      -9999.000  -9999.000  31.582     -9999.000  27.488     20.381     154.057    5160.131  
5293.807   12.250     60.424     0.015      0.284      0.005      0.000      0.015      0.032      0.001      0.018      0.048      0.002      38.880     -9999.000  13.203     -9999.000  -9999.000  -9999.000  -9999.000  4.537      0.089      0.065      0.091      -9999.000  -9999.000  27.321     -9999.000  24.077     18.760     188.967    5160.273  
5293.959   12.250     60.760     0.016      0.294      0.004      0.000      0.017      0.022      0.000      0.014      0.054      0.002      39.129     -9999.000  13.221     -9999.000  -9999.000  -9999.000  -9999.000  4.243      0.091      0.065      0.092      -9999.000  -9999.000  20.287     -9999.000  18.403     16.931     224.067    5160.416  
5294.111   12.250     61.299     0.016      0.307      0.004      0.000      0.017      0.009      0.000      0.010      0.060      0.002      40.290     -9999.000  13.231     -9999.000  -9999.000  -9999.000  -9999.000  4.063      0.094      0.065      0.094      -9999.000  -9999.000  16.587     -9999.000  15.194     14.772     244.960    5160.558  
5294.264   12.250     61.527     0.018      0.317      0.004      0.000      0.022      0.002      0.001      0.005      0.061      0.002      40.062     -9999.000  13.258     -9999.000  -9999.000  -9999.000  -9999.000  5.643      0.098      0.070      0.098      -9999.000  -9999.000  11.751     -9999.000  11.164     11.999     241.445    5160.700  
