~Version
 VERS              .         2.0                           : CWLS LOG ASCII STANDARD - VERSION 2.0
 WRAP              .         NO                            : ONE LINE PER DEPTH STEP
 DLM               .         SPACE                         : DELIMITING CHARACTER(SPACE TAB OR COMMA)
~Well Information
#_______________________________________________________________________________
#
#PARAMETER_NAME    .UNIT     VALUE                         : DESCRIPTION
#_______________________________________________________________________________
STRT               .M        5082.700                      : First reference value
STOP               .M        5352.753                      : Last reference value
STEP               .M        0.152                         : Step increment
NULL               .         -9999                         : Missing value
COMP               .         PETROBRAS                     : Company
WELL               .         7-SPH-16D-SPS                 : Well name
FLD                .         SAPINHOA                      : Field
LOC                .                                       : Location
CNTY               .                                       : County
STAT               .         SP                            : State
CTRY               .                                       : Country
SRVC               .                                       : Service Company
DATE               .                                       : Date
API                .                                       : API number
APD                .M        24.0                          : ABOVE PERMANENT DATUM
BHT                .degF     144.0                         : BOTTOMHOLE TEMPERATURE
BLI                .M        5312.4                        : BOTTOM LOGGED INTERVAL
BS                 .in       12.25                         : BIT SIZE
DCS                .         04/09/2014                    : DATE CIRCULATION STOPPED
DFD                .lb/gal   9.5                           : DRILLING FLUID DENSITY
DFT                .         BR-MUL                        : DRILLING FLUID TYPE
DLAB               .         05/09/2014                    : DATE LOGGING ON BOTTOM
EDF                .M        24.0                          : ELEVATION OF DRILLING FLOOR
EGL                .M        -2125.0                       : ELEVATION OF GROUND LEVEL
EKB                .M        -999.25                       : ELEVATION OF KELLY BUSHING
EPD                .M        0.0                           : ELEVATATION OF PERMANENT DATUM
LMF                .         MR                            : LOG MEASURED FROM
LUL                .         MCE                           : LOGGING UNIT LOCATION
LUN                .         11202303                      : LOGGING UNIT NUMBER
LONG               .         -43_10_06.229                 : LONGITUDE
MCST               .degF     -999.25                       : MUDCAKE SAMPLE TEMPERATURE
MFST               .degF     -999.25                       : MUD FILTRATE SAMPLE TEMPERATURE
MRT                .degF     144.0                         : MAXIMUM RECORDED TEMPERATURE
MST                .degF     -999.25                       : MUD SAMPLE TEMPERATURE
PDAT               .         NM                            : PERMANENT DATUM
PRODUCER-CODE      .         280                           : 
PRODUCER-NAME      .         Halliburton                   : 
RMB                .ohm.m    -999.25                       : RESISTIVITY OF MUD - BHT
RMCS               .ohm.m    -999.25                       : RESISTIVITY OF MUDCAKE SAMPLE
RMFS               .ohm.m    -999.25                       : RESISTIVITY OF MUD FILTRATE SAMPLE
RMS                .ohm.m    -999.25                       : RESISTIVITY OF MUD SAMPLE
RUN                .         01                            : RUN NUMBER 1
TCS                .h        05_30                         : TIME CIRCULATION STOPPED
TDD                .M        5343.0                        : DRILLERS DEPTH
TDL                .M        5345.0                        : LOGGERS DEPTH
TLAB               .h        16_45                         : TIME LOGGING ON BOTTOM
TLI                .M        5135.0                        : TOP LOGGED INTERVAL
X                  .M        683789.99900000               : X UTM Coordinate
Y                  .M        7152001.99900000              : Y UTM Coordinate
~Parameter Information Block
#_______________________________________________________________________________
#
#PARAMETER_NAME    .UNIT     VALUE                         : DESCRIPTION
#_______________________________________________________________________________
SET                .         BASE                          : 
TLFamily_BS        .         Bit Size                      : 
TLFamily_DT        .         Compressional Slowness        : 
TLFamily_DWAL      .         Aluminum Weight Fraction      : 
TLFamily_DWCA      .         Calcium Weight Fraction       : 
TLFamily_DWFE      .         Iron Weight Fraction          : 
TLFamily_DWGD      .         Gadolinium Weight Fraction    : 
TLFamily_DWK       .         Potassium Weight Fraction     : 
TLFamily_DWMG      .         Magnesium Weight Fraction     : 
TLFamily_DWMN      .         Manganese Weight Fraction     : 
TLFamily_DWS       .         Sulfur Weight Fraction        : 
TLFamily_DWSI      .         Silicon Weight Fraction       : 
TLFamily_DWTI      .         Titanium Weight Fraction      : 
TLFamily_GR        .         Gamma Ray                     : 
TLFamily_GRt       .         Gamma Ray                     : 
TLFamily_HCAL      .         Caliper                       : 
TLFamily_HDRA      .         Bulk Density Correction       : 
TLFamily_HFK       .         Potassium Concentration       : 
TLFamily_HTHO      .         Thorium Concentration         : 
TLFamily_HURA      .         Uranium Concentration         : 
TLFamily_MD        .         Measured Depth                : 
TLFamily_MPERM     .         NMR Permeability              : 
TLFamily_NMRE_Final .         NMR Bound Fluid Volume Fraction: 
TLFamily_NMRFL_Final .         NMR Free Fluids               : 
TLFamily_NMRT_Final .         NMR Porosity                  : 
TLFamily_NPHI      .         Neutron Porosity              : 
TLFamily_PE        .         Photoelectric Factor          : 
TLFamily_RD        .         Resistivity - Deep            : 
TLFamily_RHOB      .         Bulk Density                  : 
TLFamily_RM        .         Resistivity - Medium          : 
TLFamily_RS        .         Resistivity - Shallow         : 
TLFamily_T2LM      .         NMR T2 Logarithmic Mean       : 
TLFamily_TVDSS     .         True Vertical Depth Sub Sea   : 
~Curve Information
#_______________________________________________________________________________
#
#LOGNAME           .UNIT     LOG_ID                        : DESCRIPTION
#_______________________________________________________________________________
DEPTH              .M                                      :  
BS                 .in                                     : BS/Bit Size 
DT                 .us/ft                                  : DT/DTC 
DWAL               .kg/kg                                  : DAL/DryrockAlWF 
DWCA               .kg/kg                                  : DCA/DryrockCaWF 
DWFE               .kg/kg                                  : DFE/DryrockFeWF 
DWGD               .ppm                                    : DGD/DryrockGdWF 
DWK                .kg/kg                                  : DK/DryrockKWF 
DWMG               .kg/kg                                  : DMG/DryrockMgWF 
DWMN               .kg/kg                                  : DMN/DryrockMnWF 
DWS                .kg/kg                                  : DSUL/DryrockSuWF 
DWSI               .kg/kg                                  : DSI/DryrockSiWF 
DWTI               .kg/kg                                  : DTI/DryrockTiWF 
GR                 .gAPI                                   : GR/Gamma API 
GRt                .gAPI                                   : GKUT/GKUT 
HCAL               .in                                     : CALI/Caliper 
HDRA               .g/cm3                                  : DRHO/DensityCorr 
HFK                .%                                      : POTA/Potassium 
HTHO               .ppm                                    : THOR/Thorium 
HURA               .ppm                                    : URAN/Uranium 
MPERM              .mD                                     : MPERMT2/MrilT2KCoat 
NMRE_Final         .m3/m3                                  : MPHIT2/TA-grp T2 Effective Por 
NMRFL_Final        .unitless                               : MFFIT2/TA-grp T2 FreeFluid Ind 
NMRT_Final         .frac                                   : MSIGT2/TA-grp T2 Total Por. 
NPHI               .frac                                   : NPHI/Neutron Porosity 
PE                 .b/e                                    : PE/Pe 
RD                 .ohm.m                                  : RT90/90in Resistivity 2ft Res 
RHOB               .g/cm3                                  : RHOB/Density 
RM                 .ohm.m                                  : RT30/30in Resistivity 2ft Res 
RS                 .ohm.m                                  : RT10/10in Resistivity 2ft Res 
T2LM               .ms                                     : T2LM/T2 Log Mean 
TVDSS              .M                                      :  
~Ascii
# ...
5250.950   12.250     54.480     0.017      0.318      0.000      0.254      0.000      0.010      0.001      0.005      0.056      0.001      29.567     34.866     12.678     -0.013     0.035      2.255      2.653      1.776      0.070      0.051      0.070      0.092      4.615      345.494    2.630      392.881    557.581    220.201    5100.491  
5251.102   12.250     54.313     0.008      0.317      0.000      0.110      0.001      0.020      0.001      0.002      0.054      0.000      27.255     33.138     12.671     -0.020     0.011      1.937      2.595      1.604      0.070      0.050      0.070      0.097      4.551      308.769    2.641      347.115    487.735    192.172    5100.632  
5251.255   12.250     54.222     0.009      0.317      0.000      0.118      0.001      0.019      0.001      0.003      0.055      0.000      25.000     32.722     12.665     -0.021     0.024      1.600      2.587      2.655      0.070      0.054      0.071      0.094      4.426      337.925    2.639      378.090    525.180    195.661    5100.773  
5251.407   12.250     54.320     0.013      0.293      0.000      0.183      0.001      0.033      0.001      0.003      0.054      0.000      24.823     32.647     12.653     -0.018     0.069      1.318      2.614      5.020      0.071      0.059      0.072      0.083      4.302      468.919    2.621      517.017    691.360    220.644    5100.914  
5251.559   12.250     54.778     0.013      0.284      0.000      0.186      0.001      0.040      0.001      0.004      0.053      0.000      25.026     32.814     12.563     -0.015     0.111      1.260      2.592      8.125      0.075      0.063      0.076      0.081      4.353      557.991    2.590      606.067    787.196    252.404    5101.055  
5251.712   12.250     55.454     0.015      0.280      0.000      0.219      0.001      0.040      0.001      0.004      0.055      0.000      24.686     32.473     12.504     -0.012     0.138      1.223      2.483      12.044     0.080      0.068      0.081      0.084      4.380      609.936    2.585      653.830    832.674    288.130    5101.196  
5251.864   12.250     55.792     0.018      0.284      0.000      0.269      0.001      0.033      0.001      0.005      0.058      0.000      23.670     31.669     12.472     -0.009     0.134      1.290      2.361      13.631     0.082      0.070      0.084      0.093      4.259      640.703    2.595      679.448    856.355    277.671    5101.337  
5252.017   12.250     56.131     0.019      0.289      0.000      0.282      0.000      0.028      0.000      0.005      0.060      0.000      22.915     30.354     12.463     -0.008     0.113      1.426      2.215      13.192     0.084      0.073      0.090      0.091      4.203      637.811    2.603      678.092    857.343    221.832    5101.479  
5252.169   12.250     56.673     0.015      0.272      0.001      0.227      0.000      0.045      0.000      0.005      0.056      0.000      21.368     29.084     12.441     -0.010     0.059      1.616      2.152      16.145     0.089      0.078      0.095      0.089      4.248      619.966    2.596      670.878    855.264    222.345    5101.620  
5252.321   12.250     57.423     0.017      0.275      0.001      0.262      0.000      0.043      0.000      0.006      0.054      0.000      20.695     28.442     12.422     -0.011     0.024      1.997      2.257      20.004     0.095      0.081      0.098      0.089      4.263      593.319    2.573      657.926    847.411    281.293    5101.761  
5252.474   12.250     57.765     0.023      0.288      0.000      0.346      0.001      0.030      0.000      0.007      0.052      0.001      20.807     28.232     12.413     -0.011     0.015      2.413      2.392      19.487     0.099      0.082      0.101      0.091      4.181      528.293    2.546      610.438    810.015    321.082    5101.902  
5252.626   12.250     58.105     0.031      0.297      0.000      0.488      0.001      0.018      0.000      0.009      0.051      0.001      21.505     28.209     12.406     -0.010     0.021      2.851      2.511      18.025     0.101      0.084      0.107      0.098      4.067      423.996    2.536      505.644    704.341    272.278    5102.043  
5252.779   12.250     58.583     0.031      0.307      0.000      0.615      0.002      0.009      0.001      0.011      0.052      0.001      22.164     28.311     12.405     -0.007     0.051      3.150      2.554      15.716     0.104      0.087      0.117      0.104      3.997      272.241    2.546      328.968    485.096    206.959    5102.184  
5252.931   12.250     59.192     0.030      0.310      0.000      0.599      0.002      0.005      0.001      0.013      0.055      0.002      21.690     28.161     12.402     -0.003     0.100      3.335      2.437      19.018     0.109      0.091      0.122      0.098      4.104      201.249    2.549      223.153    300.882    205.737    5102.326  
5253.083   12.250     59.386     0.029      0.312      0.000      0.487      0.002      0.002      0.001      0.015      0.058      0.002      21.029     28.181     12.404     -0.001     0.171      3.257      2.360      35.790     0.113      0.096      0.119      0.093      4.273      159.104    2.532      173.112    216.222    283.914    5102.467  
5253.236   12.250     59.007     0.036      0.306      0.000      0.526      0.002      0.000      0.001      0.014      0.061      0.002      20.971     28.485     12.405     -0.000     0.198      2.779      2.322      67.130     0.111      0.097      0.113      0.096      4.302      160.443    2.509      174.247    216.983    366.899    5102.608  
5253.388   12.250     58.318     0.038      0.306      0.000      0.552      0.001      0.000      0.000      0.013      0.059      0.002      21.644     29.039     12.402     -0.002     0.199      2.127      2.350      107.487    0.106      0.096      0.106      0.093      4.277      206.268    2.512      225.890    281.282    393.956    5102.749  
5253.541   12.250     57.984     0.036      0.310      0.000      0.530      0.001      0.000      0.000      0.012      0.057      0.002      22.677     29.969     12.399     -0.005     0.170      1.416      2.443      90.648     0.101      0.092      0.102      0.094      4.313      259.614    2.545      295.452    419.604    368.794    5102.890  
5253.693   12.250     57.664     0.034      0.317      0.000      0.503      0.002      0.000      0.000      0.011      0.051      0.002      23.370     31.072     12.401     -0.011     0.119      0.871      2.479      35.132     0.099      0.086      0.101      0.091      4.375      369.551    2.579      402.113    553.262    312.356    5103.031  
5253.845   12.250     57.718     0.036      0.318      0.000      0.520      0.002      0.000      0.000      0.011      0.049      0.002      23.805     31.889     12.402     -0.014     0.116      0.594      2.406      15.759     0.096      0.080      0.101      0.096      4.372      476.216    2.599      488.318    642.497    257.198    5103.173  
5253.998   12.250     58.228     0.040      0.318      0.000      0.580      0.002      0.000      0.000      0.011      0.044      0.001      24.090     32.592     12.407     -0.013     0.145      0.447      2.257      14.355     0.096      0.079      0.101      0.112      4.363      690.699    2.592      639.259    784.904    258.639    5103.314  
5254.150   12.250     59.254     0.039      0.320      0.000      0.574      0.002      0.001      0.000      0.011      0.041      0.001      24.594     32.791     12.413     -0.009     0.172      0.514      2.139      25.830     0.099      0.084      0.101      0.121      4.383      753.897    2.572      665.171    664.920    334.702    5103.455  
5254.303   12.250     60.499     0.038      0.324      0.000      0.564      0.001      0.002      0.000      0.011      0.036      0.001      25.416     33.382     12.422     -0.001     0.194      0.690      2.119      41.803     0.104      0.089      0.104      0.127      4.522      807.635    2.556      675.014    802.017    427.181    5103.596  
