~Version
 VERS              .         2.0                           : CWLS LOG ASCII STANDARD - VERSION 2.0
 WRAP              .         NO                            : ONE LINE PER DEPTH STEP
 DLM               .         SPACE                         : DELIMITING CHARACTER(SPACE TAB OR COMMA)
~Well Information
#_______________________________________________________________________________
#
#PARAMETER_NAME    .UNIT     VALUE                         : DESCRIPTION
#_______________________________________________________________________________
STRT               .M        5014.000                      : First reference value
STOP               .M        5322.763                      : Last reference value
STEP               .M        0.152                         : Step increment
NULL               .         -9999                         : Missing value
COMP               .         PETROBRAS                     : Company
WELL               .         7-SPH-20D-SPS                 : Well name
FLD                .         SAPINHOA                      : Field
LOC                .                                       : Location
CNTY               .                                       : County
STAT               .         SAO PAULO                     : State
CTRY               .         BRASIL                        : Country
SRVC               .                                       : Service Company
DATE               .                                       : Date
API                .         863160046300                  : API number
APD                .M        26.0                          : ABOVE PERMANENT DATUM
BHT                .degF     140.0                         : BOTTOMHOLE TEMPERATURE
BLI                .M        5313.7                        : BOTTOM LOGGED INTERVAL
BS                 .in       12.25                         : BIT SIZE
DCS                .         31/01/2016                    : DATE CIRCULATION STOPPED
DFD                .lb/gal   9.7                           : DRILLING FLUID DENSITY
DFT                .         OLEDRILL(BASE OLEFINA)        : DRILLING FLUID TYPE
DLAB               .         01/02/2016                    : DATE LOGGING ON BOTTOM
EDF                .M        26.0                          : ELEVATION OF DRILLING FLOOR
EGL                .M        -2129.0                       : ELEVATION OF GROUND LEVEL
EKB                .M        26.0                          : ELEVATION OF KELLY BUSHING
EPD                .M        0                             : ELEVATATION OF PERMANENT DATUM
GDAT               .         SIRGAS2000                    : Geodetic Datum
LMF                .         MR                            : LOG MEASURED FROM
LUL                .         MCE                           : LOGGING UNIT LOCATION
LUN                .         11792307                      : LOGGING UNIT NUMBER
LATI               .         -25_41_36.136                 : Latitude
LONG               .         -43_10_30,988                 : LONGITUDE
MCST               .degF     -999.25                       : MUDCAKE SAMPLE TEMPERATURE
MFST               .degF     -999.25                       : MUD FILTRATE SAMPLE TEMPERATURE
MRT                .degF     140.0                         : MAXIMUM RECORDED TEMPERATURE
MST                .degF     -999.25                       : MUD SAMPLE TEMPERATURE
ORIGINALWELLNAME   .         7SPH 0020D SPS                : 
PDAT               .         NM                            : PERMANENT DATUM
PRODUCER-CODE      .         280                           : 
PRODUCER-NAME      .         Halliburton                   : 
RMB                .ohm.m    -999.25                       : RESISTIVITY OF MUD - BHT
RMCS               .ohm.m    -999.25                       : RESISTIVITY OF MUDCAKE SAMPLE
RMFS               .ohm.m    -999.25                       : RESISTIVITY OF MUD FILTRATE SAMPLE
RMS                .ohm.m    -999.25                       : RESISTIVITY OF MUD SAMPLE
RUN                .         01                            : RUN NUMBER 1
TCS                .h        09_00                         : TIME CIRCULATION STOPPED
TDD                .M        5315.0                        : DRILLERS DEPTH
TDL                .M        5316.9                        : LOGGERS DEPTH
TLAB               .h        08_00                         : TIME LOGGING ON BOTTOM
TLI                .M        5013.8                        : TOP LOGGED INTERVAL
X                  .M        683110.00000000               : X UTM Coordinate
Y                  .M        7157356.00000000              : Y UTM Coordinate
~Parameter Information Block
#_______________________________________________________________________________
#
#PARAMETER_NAME    .UNIT     VALUE                         : DESCRIPTION
#_______________________________________________________________________________
SET                .         BASE                          : 
TLFamily_BS        .         Bit Size                      : 
TLFamily_DT        .         Compressional Slowness        : 
TLFamily_DWAL      .         Aluminum Weight Fraction      : 
TLFamily_DWCA      .         Calcium Weight Fraction       : 
TLFamily_DWFE      .         Iron Weight Fraction          : 
TLFamily_DWGD      .         Gadolinium Weight Fraction    : 
TLFamily_DWK       .         Potassium Weight Fraction     : 
TLFamily_DWMG      .         Magnesium Weight Fraction     : 
TLFamily_DWMN      .         Manganese Weight Fraction     : 
TLFamily_DWS       .         Sulfur Weight Fraction        : 
TLFamily_DWSI      .         Silicon Weight Fraction       : 
TLFamily_DWTI      .         Titanium Weight Fraction      : 
TLFamily_GR        .         Gamma Ray                     : 
TLFamily_GRt       .         Gamma Ray                     : 
TLFamily_HCAL      .         Caliper                       : 
TLFamily_HDRA      .         Bulk Density Correction       : 
TLFamily_HFK       .         Potassium Concentration       : 
TLFamily_HTHO      .         Thorium Concentration         : 
TLFamily_HURA      .         Uranium Concentration         : 
TLFamily_MD        .         Measured Depth                : 
TLFamily_MPERM     .         NMR Permeability              : 
TLFamily_NMRE_Final .         NMR Bound Fluid Volume Fraction: 
TLFamily_NMRFL_Final .         NMR Free Fluids               : 
TLFamily_NMRT_Final .         NMR Porosity                  : 
TLFamily_NPHI      .         Neutron Porosity              : 
TLFamily_PE        .         Photoelectric Factor          : 
TLFamily_RD        .         Resistivity - Deep            : 
TLFamily_RHOB      .         Bulk Density                  : 
TLFamily_RM        .         Resistivity - Medium          : 
TLFamily_RS        .         Resistivity - Shallow         : 
TLFamily_T2LM      .         NMR T2 Logarithmic Mean       : 
TLFamily_TVDSS     .         True Vertical Depth Sub Sea   : 
~Curve Information
#_______________________________________________________________________________
#
#LOGNAME           .UNIT     LOG_ID                        : DESCRIPTION
#_______________________________________________________________________________
DEPTH              .M                                      :  
BS                 .in                                     : BS/Bit Size 
DT                 .us/ft                                  : DTC/MonoDeltaT 
DWAL               .kg/kg                                  : DAL/DryrockAlWF 
DWCA               .kg/kg                                  : DCA/DryrockCaWF 
DWFE               .kg/kg                                  : DFE/DryrockFeWF 
DWGD               .ppm                                    : DGD/DryrockGdWF 
DWK                .kg/kg                                  : DK/DryrockKWF 
DWMG               .kg/kg                                  : DMG/DryrockMgWF 
DWMN               .kg/kg                                  : DMN/DryrockMnWF 
DWS                .kg/kg                                  : DSUL/DryrockSuWF 
DWSI               .kg/kg                                  : DSI/DryrockSiWF 
DWTI               .kg/kg                                  : DTI/DryrockTiWF 
GR                 .gAPI                                   : GR/Gamma API 
GRt                .gAPI                                   : GKUT/GammaKUT 
HCAL               .in                                     : CALI/Caliper 
HDRA               .g/cm3                                  : Density Delta Rho Filtered 
HFK                .%                                      : POTA/Potassium 
HTHO               .ppm                                    : THOR/Thorium 
HURA               .ppm                                    : URAN/Uranium 
MPERM              .mD                                     : MPERMT2/MrilT2KCoat 
NMRE_Final         .m3/m3                                  : MPHIT2/TA-grp T2 Effective Por 
NMRFL_Final        .unitless                               : MFFIT2/TA-grp T2 FreeFluid Ind 
NMRT_Final         .frac                                   : MSIGT2/TA-grp T2 Total Por. 
NPHI               .frac                                   : POROSIDADE NEUTRONICA (COMPOSICAO DE CURVAS CABO E/OU LWD) 
PE                 .b/e                                    : Density PE Filtered 
RD                 .ohm.m                                  : RT90/90in Resistivity 2ft Res 
RHOB               .g/cm3                                  : DENSIDADE (COMPOSICAO DE CURVAS CABO E/OU LWD ) 
RM                 .ohm.m                                  : RT30/30in Resistivity 2ft Res 
RS                 .ohm.m                                  : RT10/10in Resistivity 2ft Res 
T2LM               .ms                                     : T2LM/T2 Log Mean 
TVDSS              .M                                      :  
~Ascii
5014.000   -9999.000  -9999.000  -9999.000  -9999.000  -9999.000  -9999.000  -9999.000  -9999.000  -9999.000  -9999.000  -9999.000  -9999.000  -9999.000  -9999.000  -9999.000  -5.784     -9999.000  -9999.000  -9999.000  -9999.000  -9999.000  -9999.000  -9999.000  -9999.000  13.154     -9999.000  -9999.000  -9999.000  -9999.000  -9999.000  4905.399  
5014.153   12.250     64.872     0.079      0.070      0.319      0.000      0.085      0.016      0.000      0.003      0.001      0.007      9.664      12.793     12.590     -6.021     0.319      1.401      0.325      -9999.000  -9999.000  -9999.000  -9999.000  -9999.000  13.102     26.955     -9999.000  0.624      0.074      -9999.000  4905.533  
5014.305   12.250     65.014     0.085      0.059      0.312      0.000      0.088      0.024      0.000      0.000      0.000      0.008      9.642      12.960     12.604     -6.261     0.320      1.305      0.376      -9999.000  -9999.000  -9999.000  -9999.000  -9999.000  12.999     26.263     -9999.000  0.620      0.074      -9999.000  4905.666  
5014.457   12.250     65.180     0.092      0.048      0.305      0.000      0.096      0.029      0.000      0.000      0.000      0.009      10.115     13.093     12.619     -6.154     0.328      1.013      0.486      -9999.000  -9999.000  -9999.000  -9999.000  -9999.000  12.999     27.774     -9999.000  0.637      0.076      -9999.000  4905.800  
5014.610   12.250     65.429     0.089      0.047      0.307      0.000      0.100      0.028      0.000      0.004      0.000      0.009      10.374     13.065     12.614     -5.915     0.326      0.765      0.580      -9999.000  -9999.000  -9999.000  -9999.000  -9999.000  13.088     30.261     -9999.000  0.661      0.079      -9999.000  4905.933  
5014.762   12.250     66.006     0.086      0.045      0.311      0.000      0.101      0.027      0.000      0.013      0.000      0.009      10.561     12.684     12.618     -5.913     0.334      0.548      0.603      -9999.000  -9999.000  -9999.000  -9999.000  -9999.000  13.206     34.762     -9999.000  0.695      0.082      -9999.000  4906.067  
5014.915   12.250     66.181     0.088      0.043      0.308      0.000      0.101      0.026      0.000      0.019      0.000      0.009      9.989      12.494     12.638     -5.958     0.331      0.481      0.612      -9999.000  -9999.000  -9999.000  -9999.000  -9999.000  13.327     36.141     -9999.000  0.693      0.081      -9999.000  4906.201  
5015.067   12.250     65.781     0.089      0.047      0.298      0.000      0.093      0.026      0.000      0.025      0.001      0.009      9.084      12.395     12.658     -5.735     0.318      0.356      0.671      -9999.000  -9999.000  -9999.000  -9999.000  -9999.000  13.347     36.209     -9999.000  0.675      0.079      -9999.000  4906.334  
5015.219   12.250     65.594     0.091      0.049      0.289      0.000      0.084      0.023      0.000      0.031      0.008      0.008      9.054      12.568     12.659     -5.402     0.296      0.290      0.756      -9999.000  -9999.000  -9999.000  -9999.000  -9999.000  13.332     35.221     -9999.000  0.661      0.077      -9999.000  4906.468  
5015.372   12.250     65.669     0.100      0.047      0.285      0.000      0.083      0.022      0.000      0.021      0.011      0.007      9.202      12.885     12.662     -5.433     0.243      0.277      0.892      -9999.000  -9999.000  -9999.000  -9999.000  -9999.000  13.277     33.724     -9999.000  0.650      0.076      -9999.000  4906.601  
5015.524   12.250     65.721     0.101      0.045      0.290      0.000      0.092      0.024      0.000      0.009      0.010      0.006      8.982      13.018     12.664     -5.596     0.196      0.342      0.967      -9999.000  -9999.000  -9999.000  -9999.000  -9999.000  13.216     32.788     -9999.000  0.647      0.075      -9999.000  4906.735  
5015.677   12.250     65.754     0.099      0.046      0.296      0.000      0.102      0.028      0.000      0.002      0.002      0.005      9.254      13.285     12.664     -5.645     0.152      0.465      1.029      -9999.000  -9999.000  -9999.000  -9999.000  -9999.000  13.209     32.371     -9999.000  0.652      0.076      -9999.000  4906.868  
5015.829   12.250     65.844     0.093      0.051      0.296      0.000      0.105      0.030      0.000      0.001      0.000      0.004      9.929      13.620     12.664     -5.608     0.139      0.528      1.067      -9999.000  -9999.000  -9999.000  -9999.000  -9999.000  13.188     32.567     -9999.000  0.659      0.077      -9999.000  4907.002  
5015.981   12.250     66.091     0.090      0.053      0.298      0.000      0.104      0.030      0.000      0.001      0.000      0.004      10.507     14.177     12.668     -5.459     0.162      0.671      1.034      -9999.000  -9999.000  -9999.000  -9999.000  -9999.000  13.176     33.779     -9999.000  0.673      0.078      -9999.000  4907.136  
5016.134   12.250     66.742     0.090      0.051      0.300      0.000      0.106      0.029      0.000      0.001      0.000      0.005      10.974     14.711     12.674     -5.228     0.187      0.796      1.002      -9999.000  -9999.000  -9999.000  -9999.000  -9999.000  13.231     34.694     -9999.000  0.681      0.079      -9999.000  4907.269  
5016.286   12.250     66.895     0.088      0.049      0.307      0.000      0.109      0.028      0.000      0.001      0.000      0.007      12.118     15.671     12.680     -5.086     0.203      1.024      0.995      -9999.000  -9999.000  -9999.000  -9999.000  -9999.000  13.297     35.586     -9999.000  0.686      0.079      -9999.000  4907.403  
5016.439   12.250     67.067     0.088      0.049      0.309      0.000      0.109      0.027      0.000      0.000      0.000      0.008      13.631     16.223     12.677     -4.997     0.199      1.243      0.981      -9999.000  -9999.000  -9999.000  -9999.000  -9999.000  13.254     35.467     -9999.000  0.683      0.079      -9999.000  4907.536  
5016.591   12.250     67.081     0.086      0.050      0.311      0.000      0.107      0.027      0.000      0.000      0.000      0.008      15.500     16.867     12.670     -5.057     0.159      1.313      1.100      -9999.000  -9999.000  -9999.000  -9999.000  -9999.000  13.106     34.347     -9999.000  0.673      0.078      -9999.000  4907.670  
5016.743   12.250     67.028     0.086      0.047      0.311      0.000      0.107      0.028      0.000      0.004      0.000      0.008      14.449     17.186     12.667     -5.124     0.146      1.259      1.180      -9999.000  -9999.000  -9999.000  -9999.000  -9999.000  13.139     33.236     -9999.000  0.665      0.077      -9999.000  4907.803  
5016.896   12.250     66.833     0.084      0.044      0.313      0.000      0.104      0.027      0.000      0.009      0.004      0.008      12.026     17.246     12.665     -5.191     0.175      1.208      1.152      -9999.000  -9999.000  -9999.000  -9999.000  -9999.000  13.190     31.752     -9999.000  0.658      0.076      -9999.000  4907.937  
5017.048   12.250     66.701     0.079      0.048      0.318      0.000      0.099      0.021      0.000      0.010      0.012      0.008      11.736     17.067     12.665     -5.295     0.222      1.093      1.090      -9999.000  -9999.000  -9999.000  -9999.000  -9999.000  13.262     30.980     -9999.000  0.655      0.076      -9999.000  4908.071  
5017.201   12.250     65.936     0.077      0.048      0.320      0.000      0.096      0.020      0.000      0.011      0.015      0.007      11.525     16.718     12.664     -5.476     0.282      1.043      0.961      -9999.000  -9999.000  -9999.000  -9999.000  -9999.000  13.304     30.459     -9999.000  0.654      0.076      -9999.000  4908.204  
5017.353   12.250     65.374     0.078      0.057      0.319      0.000      0.098      0.012      0.000      0.015      0.014      0.008      11.562     15.670     12.661     -5.643     0.347      1.121      0.698      -9999.000  -9999.000  -9999.000  -9999.000  -9999.000  13.306     29.904     -9999.000  0.652      0.076      -9999.000  4908.338  
