~Version
 VERS              .         2.0                           : CWLS LOG ASCII STANDARD - VERSION 2.0
 WRAP              .         NO                            : ONE LINE PER DEPTH STEP
 DLM               .         SPACE                         : DELIMITING CHARACTER(SPACE TAB OR COMMA)
~Well Information
#_______________________________________________________________________________
#
#PARAMETER_NAME    .UNIT     VALUE                         : DESCRIPTION
#_______________________________________________________________________________
STRT               .M        4949.000                      : First reference value
STOP               .M        5060.404                      : Last reference value
STEP               .M        0.152                         : Step increment
NULL               .         -9999                         : Missing value
COMP               .         PETROBRAS                     : Company
WELL               .         7-SPH-22-SPS                  : Well name
FLD                .         SAPINHOA                      : Field
LOC                .                                       : Location
CNTY               .                                       : County
STAT               .         SAO PAULO                     : State
CTRY               .         BR                            : Country
SRVC               .                                       : Service Company
DATE               .         25/07/2016                    : Date
API                .         863160046800                  : API number
APD                .M        26.0                          : ABOVE PERMANENT DATUM
BHT                .degF     140.0                         : BOTTOMHOLE TEMPERATURE
BLI                .M        5055.8                        : BOTTOM LOGGED INTERVAL
BS                 .in       8.5                           : BIT SIZE
CBDR               .M        4981                          : Casing Bottom (Driller)
CBLO               .M        4981                          : Casing Bottom of Logger
CSIZ               .in       10.75                         : Casing Outer Diameter
CWEI               .lb/ft    85.3                          : Casing Weight
DCS                .         23/07/2016                    : DATE CIRCULATION STOPPED
DFD                .lb/gal   9.7                           : DRILLING FLUID DENSITY
DFT                .         CATIONICO_SCOL (BASE AGUA)    : DRILLING FLUID TYPE
DLAB               .         25/07/2016                    : DATE LOGGING ON BOTTOM
EDF                .M        26.0                          : ELEVATION OF DRILLING FLOOR
EGL                .M        -2144.0                       : ELEVATION OF GROUND LEVEL
EKB                .M        -999.25                       : ELEVATION OF KELLY BUSHING
EPD                .M        0.0                           : ELEVATATION OF PERMANENT DATUM
GDAT               .                                       : Geodetic Datum
LMF                .         MR                            : LOG MEASURED FROM
LUL                .         MCE                           : LOGGING UNIT LOCATION
LUN                .         10898943                      : LOGGING UNIT NUMBER
LATI               .         -25_48_08.320                 : Latitude
LONG               .         -43_13_44,430                 : LONGITUDE
MCST               .degF     66.1                          : MUDCAKE SAMPLE TEMPERATURE
MFST               .degF     66.4                          : MUD FILTRATE SAMPLE TEMPERATURE
MRT                .degF     140.0                         : MAXIMUM RECORDED TEMPERATURE
MST                .degF     65.8                          : MUD SAMPLE TEMPERATURE
ORIGINALWELLNAME   .         7SPH 0022  SPS                : 
PDAT               .         NM                            : PERMANENT DATUM
PRODUCER-CODE      .         280                           : 
PRODUCER-NAME      .         Halliburton                   : 
RMB                .ohm.m    0.040                         : RESISTIVITY OF MUD - BHT
RMCS               .ohm.m    0.140                         : RESISTIVITY OF MUDCAKE SAMPLE
RMFS               .ohm.m    0.012                         : RESISTIVITY OF MUD FILTRATE SAMPLE
RMS                .ohm.m    0.080                         : RESISTIVITY OF MUD SAMPLE
RUN                .         01                            : RUN NUMBER 1
TCS                .h        19_00                         : TIME CIRCULATION STOPPED
TDD                .M        5058.0                        : DRILLERS DEPTH
TDL                .M        5057.1                        : LOGGERS DEPTH
TLAB               .h        07_15                         : TIME LOGGING ON BOTTOM
TLI                .M        4950.0                        : TOP LOGGED INTERVAL
X                  .M        677550.00000000               : X or East-West coordinate
Y                  .M        7145014.00000000              : Y or North South coordinate
~Parameter Information Block
#_______________________________________________________________________________
#
#PARAMETER_NAME    .UNIT     VALUE                         : DESCRIPTION
#_______________________________________________________________________________
SET                .         BASE                          : 
TLFamily_BS        .         Bit Size                      : 
TLFamily_DT        .         Compressional Slowness        : 
TLFamily_DWAL      .         Aluminum Weight Fraction      : 
TLFamily_DWCA      .         Calcium Weight Fraction       : 
TLFamily_DWFE      .         Iron Weight Fraction          : 
TLFamily_DWK       .         Potassium Weight Fraction     : 
TLFamily_DWMG      .         Magnesium Weight Fraction     : 
TLFamily_DWMN      .         Manganese Weight Fraction     : 
TLFamily_DWS       .         Sulfur Weight Fraction        : 
TLFamily_DWSI      .         Silicon Weight Fraction       : 
TLFamily_DWTI      .         Titanium Weight Fraction      : 
TLFamily_GR        .         Gamma Ray                     : 
TLFamily_GRt       .         Gamma Ray                     : 
TLFamily_HCAL      .         Caliper                       : 
TLFamily_HDRA      .         Bulk Density Correction       : 
TLFamily_HFK       .         Potassium Concentration       : 
TLFamily_HTHO      .         Thorium Concentration         : 
TLFamily_HURA      .         Uranium Concentration         : 
TLFamily_MD        .         Measured Depth                : 
TLFamily_MPERM     .         NMR Permeability              : 
TLFamily_NMRE_Final .         NMR Bound Fluid Volume Fraction: 
TLFamily_NMRFL_Final .         NMR Free Fluids               : 
TLFamily_NMRT_Final .         NMR Porosity                  : 
TLFamily_NPHI      .         Neutron Porosity              : 
TLFamily_PE        .         Photoelectric Factor          : 
TLFamily_RD        .         Resistivity - Deep            : 
TLFamily_RHOB      .         Bulk Density                  : 
TLFamily_RS        .         Resistivity - Shallow         : 
TLFamily_T2LM      .         NMR T2 Logarithmic Mean       : 
TLFamily_TVDSS     .         True Vertical Depth Sub Sea   : 
~Curve Information
#_______________________________________________________________________________
#
#LOGNAME           .UNIT     LOG_ID                        : DESCRIPTION
#_______________________________________________________________________________
DEPTH              .M                                      :  
BS                 .in                                     : BS/Bit Size 
DT                 .us/ft                                  : SONICO COMPRESSIONAL (COMPOSICAO DE CURVAS CABO E/OU LWD) 
DWAL               .kg/kg                                  : DAL/DryrockAlWF 
DWCA               .kg/kg                                  : DCA/DryrockCaWF 
DWFE               .kg/kg                                  : DFE/DryrockFeWF 
DWK                .kg/kg                                  : DK/DryrockKWF 
DWMG               .kg/kg                                  : DMG/DryrockMgWF 
DWMN               .kg/kg                                  : DMN/DryrockMnWF 
DWS                .kg/kg                                  : DSUL/DryrockSuWF 
DWSI               .kg/kg                                  : DSI/DryrockSiWF 
DWTI               .kg/kg                                  : DTI/DryrockTiWF 
GR                 .gAPI                                   : GR/Gamma API 
GRt                .gAPI                                   : GKUT/GammaKUT 
HCAL               .in                                     : CALI/Caliper 
HDRA               .g/cm3                                  : DRHO/DensityCorr 
HFK                .%                                      : POTA/Potassium 
HTHO               .ppm                                    : THOR/Thorium 
HURA               .ppm                                    : URAN/Uranium 
MPERM              .mD                                     : MPERMT2/MrilT2KCoat 
NMRE_Final         .m3/m3                                  : MPHIT2/TA-grp T2 Effective Por 
NMRFL_Final        .unitless                               : MFFIT2/TA-grp T2 FreeFluid Ind 
NMRT_Final         .frac                                   : MSIGT2/TA-grp T2 Total Por. 
NPHI               .frac                                   : NPHI/Neutron Porosity 
PE                 .b/e                                    : PE/Pe 
RD                 .ohm.m                                  : LLD/LLD 
RHOB               .g/cm3                                  : RHOB/Density 
RS                 .ohm.m                                  : LLS/LLS 
T2LM               .ms                                     : T2LM/T2 Log Mean 
TVDSS              .M                                      :  
~Ascii
# ...
4994.720   8.500      65.866     0.016      0.243      0.000      0.000      0.053      0.001      0.010      0.074      0.000      13.788     13.490     8.502      -0.018     0.059      0.967      1.045      20.018     0.121      0.092      0.123      0.117      4.199      818.378    2.535      833.202    223.040    4962.450  
4994.872   8.500      64.713     0.016      0.229      0.000      0.000      0.062      0.001      0.009      0.076      0.000      12.114     14.016     8.502      -0.015     0.037      0.923      1.159      12.472     0.112      0.085      0.118      0.103      4.054      819.601    2.550      833.221    206.700    4962.601  
4995.025   8.500      63.127     0.015      0.221      0.000      0.000      0.065      0.001      0.007      0.082      0.001      12.350     14.530     8.503      -0.007     0.014      0.978      1.238      11.248     0.105      0.084      0.120      0.108      3.869      836.762    2.557      875.200    158.781    4962.752  
4995.177   8.500      62.761     0.018      0.229      0.000      0.000      0.053      0.001      0.007      0.088      0.001      13.435     14.513     8.499      -0.002     0.002      1.032      1.237      14.851     0.101      0.088      0.122      0.112      3.705      1063.346   2.551      1308.961   144.177    4962.904  
4995.330   8.500      62.984     0.016      0.221      0.000      0.001      0.058      0.001      0.005      0.093      0.001      13.437     14.717     8.500      -0.001     0.000      1.142      1.223      26.768     0.103      0.094      0.120      0.134      3.390      1158.251   2.526      1529.045   186.145    4963.055  
4995.482   8.500      66.624     0.013      0.202      0.000      0.001      0.075      0.001      0.004      0.092      0.001      14.180     14.959     8.501      0.002      0.005      1.161      1.235      46.843     0.109      0.098      0.118      0.139      3.368      1081.987   2.512      1490.788   266.424    4963.206  
4995.634   8.500      68.400     0.009      0.188      0.000      0.001      0.082      0.001      0.002      0.103      0.001      16.269     15.453     8.501      0.006      0.031      1.144      1.249      31.692     0.116      0.095      0.120      0.133      3.515      952.913    2.505      1368.447   289.021    4963.357  
4995.787   8.500      66.301     0.008      0.185      0.001      0.002      0.077      0.001      0.002      0.114      0.001      16.347     15.904     8.499      0.004      0.067      1.206      1.215      12.913     0.121      0.087      0.123      0.140      3.465      573.878    2.532      827.113    248.104    4963.508  
4995.939   8.500      62.903     0.008      0.176      0.002      0.001      0.077      0.001      0.002      0.125      0.001      16.706     16.278     8.507      -0.001     0.115      1.419      1.093      8.226      0.126      0.081      0.127      0.132      3.267      296.980    2.553      343.522    225.425    4963.660  
4996.092   8.500      61.337     0.009      0.172      0.002      0.001      0.080      0.000      0.002      0.123      0.001      17.404     16.251     8.511      -0.009     0.171      1.667      0.902      8.621      0.132      0.083      0.132      0.124      3.233      322.472    2.499      354.369    241.468    4963.811  
4996.244   8.500      61.377     0.014      0.205      0.002      0.001      0.059      0.001      0.003      0.112      0.001      15.453     15.916     8.515      -0.020     0.189      1.810      0.780      14.137     0.142      0.093      0.142      0.170      3.513      439.429    2.413      541.377    276.804    4963.962  
4996.396   8.500      64.257     0.021      0.240      0.001      0.001      0.037      0.001      0.005      0.098      0.002      13.281     15.296     8.513      -0.036     0.181      1.755      0.745      33.503     0.156      0.110      0.158      0.193      3.671      486.264    2.364      610.646    295.017    4964.113  
4996.549   8.500      68.833     0.026      0.290      0.001      0.001      0.011      0.001      0.006      0.076      0.002      12.429     14.521     8.512      -0.051     0.150      1.567      0.782      95.657     0.171      0.135      0.179      0.187      3.727      1526.373   2.331      2260.940   283.401    4964.265  
4996.701   8.500      72.093     0.024      0.328      0.000      0.001      0.000      0.001      0.007      0.052      0.001      11.815     14.069     8.509      -0.050     0.105      1.394      0.875      232.548    0.186      0.160      0.203      0.183      4.040      5841.380   2.291      10941.859  247.005    4964.416  
4996.854   8.500      73.942     0.023      0.343      0.000      0.001      0.000      0.001      0.008      0.035      0.001      13.139     13.942     8.509      -0.034     0.073      1.371      0.924      297.731    0.198      0.173      0.224      0.197      4.470      11041.895  2.263      37438.793  206.650    4964.567  
4997.006   8.500      75.840     0.022      0.350      0.000      0.001      0.000      0.001      0.011      0.027      0.000      14.109     14.011     8.511      -0.026     0.059      1.403      0.945      244.371    0.207      0.174      0.235      0.213      4.665      15473.500  2.249      39999.984  199.958    4964.718  
4997.158   8.500      77.963     0.025      0.350      0.000      0.001      0.000      0.001      0.015      0.022      0.000      13.247     14.643     8.510      -0.022     0.049      1.459      1.012      214.729    0.214      0.171      0.236      0.214      4.677      24807.703  2.254      39999.984  230.428    4964.870  
4997.311   8.500      79.331     0.024      0.351      0.000      0.000      0.000      0.000      0.017      0.021      0.000      13.590     15.001     8.503      -0.021     0.046      1.465      1.056      249.216    0.219      0.174      0.234      0.212      4.722      38972.504  2.258      39999.984  271.403    4965.021  
4997.463   8.500      79.427     0.025      0.344      0.000      0.000      0.005      0.000      0.016      0.021      0.000      14.861     15.155     8.503      -0.023     0.046      1.384      1.104      309.860    0.221      0.178      0.232      0.212      4.770      22776.186  2.258      39999.984  301.202    4965.172  
4997.616   8.500      79.503     0.027      0.326      0.000      0.001      0.017      0.000      0.015      0.020      0.000      14.948     15.372     8.509      -0.021     0.039      1.250      1.189      364.016    0.222      0.180      0.231      0.230      4.808      16027.559  2.260      31383.248  316.202    4965.323  
4997.768   8.500      79.067     0.031      0.306      0.000      0.001      0.030      0.001      0.013      0.020      0.000      14.035     15.128     8.508      -0.017     0.037      1.213      1.177      397.384    0.222      0.181      0.229      0.224      4.820      15662.236  2.272      32544.520  303.830    4965.475  
4997.920   8.500      77.821     0.035      0.306      0.000      0.001      0.025      0.001      0.011      0.023      0.000      13.169     14.564     8.506      -0.014     0.046      1.016      1.171      352.932    0.215      0.177      0.224      0.198      4.745      15733.229  2.315      35750.160  272.265    4965.626  
4998.073   8.500      76.314     0.037      0.315      0.000      0.001      0.014      0.001      0.010      0.029      0.001      13.384     13.991     8.506      -0.018     0.065      0.889      1.120      250.095    0.204      0.165      0.213      0.188      4.630      14634.024  2.339      39999.984  258.656    4965.777  
4998.225   8.500      74.510     0.038      0.328      0.000      0.001      0.000      0.001      0.011      0.034      0.001      13.033     13.063     8.494      -0.025     0.078      0.590      1.102      170.214    0.195      0.153      0.199      0.190      4.473      14849.373  2.351      39999.984  267.109    4965.928  
4998.378   8.500      73.319     0.036      0.328      0.000      0.001      0.000      0.001      0.011      0.037      0.001      12.424     12.618     8.497      -0.026     0.092      0.378      1.106      147.650    0.190      0.147      0.190      0.188      4.429      14751.287  2.349      39999.984  271.784    4966.080  
