~Version
 VERS              .         2.0                           : CWLS LOG ASCII STANDARD - VERSION 2.0
 WRAP              .         NO                            : ONE LINE PER DEPTH STEP
 DLM               .         SPACE                         : DELIMITING CHARACTER(SPACE TAB OR COMMA)
~Well Information
#_______________________________________________________________________________
#
#PARAMETER_NAME    .UNIT     VALUE                         : DESCRIPTION
#_______________________________________________________________________________
STRT               .M        5014.000                      : First reference value
STOP               .M        5322.763                      : Last reference value
STEP               .M        0.152                         : Step increment
NULL               .         -9999                         : Missing value
COMP               .         PETROBRAS                     : Company
WELL               .         7-SPH-20D-SPS                 : Well name
FLD                .         SAPINHOA                      : Field
LOC                .                                       : Location
CNTY               .                                       : County
STAT               .         SAO PAULO                     : State
CTRY               .         BRASIL                        : Country
SRVC               .                                       : Service Company
DATE               .                                       : Date
API                .         863160046300                  : API number
APD                .M        26.0                          : ABOVE PERMANENT DATUM
BHT                .degF     140.0                         : BOTTOMHOLE TEMPERATURE
BLI                .M        5313.7                        : BOTTOM LOGGED INTERVAL
BS                 .in       12.25                         : BIT SIZE
DCS                .         31/01/2016                    : DATE CIRCULATION STOPPED
DFD                .lb/gal   9.7                           : DRILLING FLUID DENSITY
DFT                .         OLEDRILL(BASE OLEFINA)        : DRILLING FLUID TYPE
DLAB               .         01/02/2016                    : DATE LOGGING ON BOTTOM
EDF                .M        26.0                          : ELEVATION OF DRILLING FLOOR
EGL                .M        -2129.0                       : ELEVATION OF GROUND LEVEL
EKB                .M        26.0                          : ELEVATION OF KELLY BUSHING
EPD                .M        0                             : ELEVATATION OF PERMANENT DATUM
GDAT               .         SIRGAS2000                    : Geodetic Datum
LMF                .         MR                            : LOG MEASURED FROM
LUL                .         MCE                           : LOGGING UNIT LOCATION
LUN                .         11792307                      : LOGGING UNIT NUMBER
LATI               .         -25_41_36.136                 : Latitude
LONG               .         -43_10_30,988                 : LONGITUDE
MCST               .degF     -999.25                       : MUDCAKE SAMPLE TEMPERATURE
MFST               .degF     -999.25                       : MUD FILTRATE SAMPLE TEMPERATURE
MRT                .degF     140.0                         : MAXIMUM RECORDED TEMPERATURE
MST                .degF     -999.25                       : MUD SAMPLE TEMPERATURE
ORIGINALWELLNAME   .         7SPH 0020D SPS                : 
PDAT               .         NM                            : PERMANENT DATUM
PRODUCER-CODE      .         280                           : 
PRODUCER-NAME      .         Halliburton                   : 
RMB                .ohm.m    -999.25                       : RESISTIVITY OF MUD - BHT
RMCS               .ohm.m    -999.25                       : RESISTIVITY OF MUDCAKE SAMPLE
RMFS               .ohm.m    -999.25                       : RESISTIVITY OF MUD FILTRATE SAMPLE
RMS                .ohm.m    -999.25                       : RESISTIVITY OF MUD SAMPLE
RUN                .         01                            : RUN NUMBER 1
TCS                .h        09_00                         : TIME CIRCULATION STOPPED
TDD                .M        5315.0                        : DRILLERS DEPTH
TDL                .M        5316.9                        : LOGGERS DEPTH
TLAB               .h        08_00                         : TIME LOGGING ON BOTTOM
TLI                .M        5013.8                        : TOP LOGGED INTERVAL
X                  .M        683110.00000000               : X UTM Coordinate
Y                  .M        7157356.00000000              : Y UTM Coordinate
~Parameter Information Block
#_______________________________________________________________________________
#
#PARAMETER_NAME    .UNIT     VALUE                         : DESCRIPTION
#_______________________________________________________________________________
SET                .         BASE                          : 
TLFamily_BS        .         Bit Size                      : 
TLFamily_DT        .         Compressional Slowness        : 
TLFamily_DWAL      .         Aluminum Weight Fraction      : 
TLFamily_DWCA      .         Calcium Weight Fraction       : 
TLFamily_DWFE      .         Iron Weight Fraction          : 
TLFamily_DWGD      .         Gadolinium Weight Fraction    : 
TLFamily_DWK       .         Potassium Weight Fraction     : 
TLFamily_DWMG      .         Magnesium Weight Fraction     : 
TLFamily_DWMN      .         Manganese Weight Fraction     : 
TLFamily_DWS       .         Sulfur Weight Fraction        : 
TLFamily_DWSI      .         Silicon Weight Fraction       : 
TLFamily_DWTI      .         Titanium Weight Fraction      : 
TLFamily_GR        .         Gamma Ray                     : 
TLFamily_GRt       .         Gamma Ray                     : 
TLFamily_HCAL      .         Caliper                       : 
TLFamily_HDRA      .         Bulk Density Correction       : 
TLFamily_HFK       .         Potassium Concentration       : 
TLFamily_HTHO      .         Thorium Concentration         : 
TLFamily_HURA      .         Uranium Concentration         : 
TLFamily_MD        .         Measured Depth                : 
TLFamily_MPERM     .         NMR Permeability              : 
TLFamily_NMRE_Final .         NMR Bound Fluid Volume Fraction: 
TLFamily_NMRFL_Final .         NMR Free Fluids               : 
TLFamily_NMRT_Final .         NMR Porosity                  : 
TLFamily_NPHI      .         Neutron Porosity              : 
TLFamily_PE        .         Photoelectric Factor          : 
TLFamily_RD        .         Resistivity - Deep            : 
TLFamily_RHOB      .         Bulk Density                  : 
TLFamily_RM        .         Resistivity - Medium          : 
TLFamily_RS        .         Resistivity - Shallow         : 
TLFamily_T2LM      .         NMR T2 Logarithmic Mean       : 
TLFamily_TVDSS     .         True Vertical Depth Sub Sea   : 
~Curve Information
#_______________________________________________________________________________
#
#LOGNAME           .UNIT     LOG_ID                        : DESCRIPTION
#_______________________________________________________________________________
DEPTH              .M                                      :  
BS                 .in                                     : BS/Bit Size 
DT                 .us/ft                                  : DTC/MonoDeltaT 
DWAL               .kg/kg                                  : DAL/DryrockAlWF 
DWCA               .kg/kg                                  : DCA/DryrockCaWF 
DWFE               .kg/kg                                  : DFE/DryrockFeWF 
DWGD               .ppm                                    : DGD/DryrockGdWF 
DWK                .kg/kg                                  : DK/DryrockKWF 
DWMG               .kg/kg                                  : DMG/DryrockMgWF 
DWMN               .kg/kg                                  : DMN/DryrockMnWF 
DWS                .kg/kg                                  : DSUL/DryrockSuWF 
DWSI               .kg/kg                                  : DSI/DryrockSiWF 
DWTI               .kg/kg                                  : DTI/DryrockTiWF 
GR                 .gAPI                                   : GR/Gamma API 
GRt                .gAPI                                   : GKUT/GammaKUT 
HCAL               .in                                     : CALI/Caliper 
HDRA               .g/cm3                                  : Density Delta Rho Filtered 
HFK                .%                                      : POTA/Potassium 
HTHO               .ppm                                    : THOR/Thorium 
HURA               .ppm                                    : URAN/Uranium 
MPERM              .mD                                     : MPERMT2/MrilT2KCoat 
NMRE_Final         .m3/m3                                  : MPHIT2/TA-grp T2 Effective Por 
NMRFL_Final        .unitless                               : MFFIT2/TA-grp T2 FreeFluid Ind 
NMRT_Final         .frac                                   : MSIGT2/TA-grp T2 Total Por. 
NPHI               .frac                                   : POROSIDADE NEUTRONICA (COMPOSICAO DE CURVAS CABO E/OU LWD) 
PE                 .b/e                                    : Density PE Filtered 
RD                 .ohm.m                                  : RT90/90in Resistivity 2ft Res 
RHOB               .g/cm3                                  : DENSIDADE (COMPOSICAO DE CURVAS CABO E/OU LWD ) 
RM                 .ohm.m                                  : RT30/30in Resistivity 2ft Res 
RS                 .ohm.m                                  : RT10/10in Resistivity 2ft Res 
T2LM               .ms                                     : T2LM/T2 Log Mean 
TVDSS              .M                                      :  
~Ascii
# ...
5178.745   12.250     67.988     0.013      0.323      0.000      0.000      0.017      0.000      0.000      0.002      0.068      0.002      37.714     48.674     12.667     0.038      0.241      0.891      4.651      91.508     0.139      0.119      0.144      0.174      6.715      210.387    2.445      206.605    237.230    220.605    5053.508  
5178.897   12.250     67.107     0.014      0.326      0.000      32438.551  0.018      0.000      0.000      0.004      0.062      0.002      40.076     49.405     12.668     0.037      0.239      1.007      4.692      133.932    0.138      0.121      0.141      0.169      6.855      197.636    2.446      197.907    249.391    252.387    5053.648  
5179.049   12.250     66.058     0.015      0.333      0.000      33511.750  0.019      0.000      0.000      0.004      0.052      0.002      44.336     51.637     12.647     0.037      0.257      1.256      4.816      239.854    0.142      0.126      0.143      0.164      6.888      202.632    2.452      210.439    280.847    277.771    5053.789  
5179.202   12.250     65.252     0.015      0.334      0.000      32976.391  0.019      0.000      0.000      0.004      0.051      0.002      47.793     53.205     12.635     0.036      0.247      1.386      4.960      152.938    0.145      0.124      0.145      0.157      6.809      202.886    2.462      215.016    295.152    263.000    5053.929  
5179.354   12.250     64.694     0.014      0.336      0.000      0.000      0.018      0.000      0.000      0.004      0.050      0.002      48.330     55.979     12.641     0.036      0.218      1.488      5.282      59.532     0.144      0.114      0.146      0.147      6.739      180.342    2.485      193.716    272.940    235.442    5054.070  
5179.507   12.250     64.409     0.013      0.329      0.000      0.000      0.016      0.006      0.000      0.003      0.050      0.001      47.406     57.287     12.647     0.037      0.212      1.536      5.421      37.438     0.138      0.108      0.144      0.135      6.699      161.907    2.507      173.631    247.992    205.268    5054.211  
5179.659   12.250     63.956     0.012      0.310      0.000      0.000      0.015      0.019      0.000      0.001      0.055      0.001      46.128     58.094     12.644     0.038      0.202      1.594      5.506      34.862     0.125      0.104      0.137      0.123      6.668      133.665    2.526      141.473    198.259    164.118    5054.351  
5179.811   12.250     63.252     0.012      0.294      0.000      0.000      0.015      0.032      0.000      0.000      0.054      0.001      44.706     57.349     12.640     0.038      0.225      1.571      5.390      24.809     0.111      0.095      0.125      0.113      6.656      112.055    2.547      116.976    155.892    138.201    5054.492  
5179.964   12.250     62.374     0.014      0.282      0.000      0.000      0.017      0.040      0.000      0.001      0.051      0.001      41.488     54.602     12.643     0.037      0.276      1.491      5.023      12.260     0.099      0.082      0.109      0.104      6.595      89.095     2.562      91.378     112.749    142.677    5054.632  
5180.116   12.250     61.425     0.013      0.268      0.000      0.000      0.017      0.051      0.000      0.002      0.050      0.001      39.088     51.711     12.654     0.034      0.293      1.288      4.746      4.327      0.089      0.066      0.093      0.097      6.407      86.992     2.572      88.553     105.657    168.253    5054.773  
5180.269   12.250     60.544     0.015      0.266      0.000      0.000      0.018      0.048      0.000      0.005      0.053      0.002      37.463     47.352     12.654     0.031      0.322      1.248      4.223      2.247      0.085      0.057      0.085      0.092      6.152      101.942    2.563      103.036    119.923    175.070    5054.913  
5180.421   12.250     60.087     0.017      0.275      0.000      0.000      0.021      0.032      0.000      0.007      0.062      0.003      36.871     44.546     12.647     0.028      0.339      1.240      3.883      1.976      0.084      0.056      0.085      0.094      5.917      125.792    2.546      126.559    146.360    156.294    5055.054  
5180.573   12.250     59.627     0.018      0.266      0.000      0.000      0.022      0.017      0.000      0.007      0.097      0.003      35.653     40.393     12.619     0.023      0.364      1.439      3.301      2.342      0.084      0.059      0.090      0.098      5.808      192.891    2.533      191.732    222.863    124.312    5055.194  
5180.726   12.250     59.574     0.016      0.237      0.000      0.000      0.020      0.019      0.000      0.007      0.131      0.002      31.017     37.489     12.590     0.019      0.400      1.606      2.851      2.259      0.077      0.059      0.093      0.103      5.893      300.007    2.525      289.443    329.651    96.004     5055.335  
5180.878   12.250     60.221     0.014      0.201      0.000      0.000      0.017      0.022      0.000      0.004      0.172      0.002      28.861     35.560     12.564     0.019      0.430      1.486      2.626      1.622      0.072      0.055      0.093      0.108      6.150      532.513    2.521      493.778    515.532    87.324     5055.475  
5181.031   12.250     60.806     0.014      0.192      0.000      0.000      0.017      0.016      0.000      0.002      0.195      0.002      29.467     35.585     12.556     0.020      0.432      1.335      2.683      1.209      0.072      0.052      0.089      0.113      6.385      637.842    2.518      577.091    672.761    99.457     5055.616  
5181.183   12.250     61.031     0.013      0.201      0.000      0.000      0.016      0.003      0.000      0.001      0.206      0.002      31.951     37.750     12.558     0.020      0.394      1.047      3.099      1.292      0.071      0.052      0.083      0.119      6.493      715.768    2.515      628.560    761.198    132.280    5055.756  
5181.335   12.250     61.301     0.013      0.210      0.000      0.000      0.016      0.000      0.000      0.001      0.201      0.002      34.631     40.021     12.566     0.020      0.349      0.786      3.532      1.719      0.071      0.054      0.080      0.126      6.534      765.482    2.511      659.365    799.134    189.312    5055.897  
5181.488   12.250     61.694     0.012      0.228      0.000      0.000      0.015      0.000      0.000      0.005      0.179      0.002      34.776     42.329     12.576     0.020      0.292      0.844      3.869      2.347      0.074      0.056      0.078      0.126      6.554      833.042    2.506      702.743    838.875    276.840    5056.038  
5181.640   12.250     62.135     0.012      0.240      0.001      0.000      0.015      0.000      0.000      0.008      0.162      0.002      34.959     42.919     12.582     0.021      0.253      0.866      3.998      4.089      0.076      0.060      0.078      0.124      6.573      879.036    2.500      734.887    864.011    321.907    5056.178  
5181.793   12.250     62.381     0.011      0.252      0.001      0.000      0.013      0.000      0.000      0.011      0.148      0.002      35.046     42.494     12.597     0.024      0.219      1.006      3.959      8.050      0.079      0.066      0.081      0.126      6.535      940.985    2.492      783.714    899.420    301.069    5056.319  
5181.945   12.250     62.895     0.010      0.252      0.001      0.000      0.012      0.002      0.000      0.011      0.148      0.002      37.488     42.173     12.599     0.025      0.202      1.069      3.931      7.849      0.084      0.069      0.088      0.133      6.452      973.821    2.489      813.631    921.015    224.678    5056.459  
5182.097   12.250     63.312     0.010      0.249      0.001      0.000      0.012      0.004      0.000      0.010      0.149      0.002      39.970     42.367     12.595     0.022      0.168      1.046      4.022      6.867      0.089      0.071      0.097      0.144      6.362      997.524    2.490      838.864    939.803    155.512    5056.600  
