~Version
 VERS              .         2.0                           : CWLS LOG ASCII STANDARD - VERSION 2.0
 WRAP              .         NO                            : ONE LINE PER DEPTH STEP
 DLM               .         SPACE                         : DELIMITING CHARACTER(SPACE TAB OR COMMA)
~Well Information
#_______________________________________________________________________________
#
#PARAMETER_NAME    .UNIT     VALUE                         : DESCRIPTION
#_______________________________________________________________________________
STRT               .M        5082.700                      : First reference value
STOP               .M        5352.753                      : Last reference value
STEP               .M        0.152                         : Step increment
NULL               .         -9999                         : Missing value
COMP               .         PETROBRAS                     : Company
WELL               .         7-SPH-16D-SPS                 : Well name
FLD                .         SAPINHOA                      : Field
LOC                .                                       : Location
CNTY               .                                       : County
STAT               .         SP                            : State
CTRY               .                                       : Country
SRVC               .                                       : Service Company
DATE               .                                       : Date
API                .                                       : API number
APD                .M        24.0                          : ABOVE PERMANENT DATUM
BHT                .degF     144.0                         : BOTTOMHOLE TEMPERATURE
BLI                .M        5312.4                        : BOTTOM LOGGED INTERVAL
BS                 .in       12.25                         : BIT SIZE
DCS                .         04/09/2014                    : DATE CIRCULATION STOPPED
DFD                .lb/gal   9.5                           : DRILLING FLUID DENSITY
DFT                .         BR-MUL                        : DRILLING FLUID TYPE
DLAB               .         05/09/2014                    : DATE LOGGING ON BOTTOM
EDF                .M        24.0                          : ELEVATION OF DRILLING FLOOR
EGL                .M        -2125.0                       : ELEVATION OF GROUND LEVEL
EKB                .M        -999.25                       : ELEVATION OF KELLY BUSHING
EPD                .M        0.0                           : ELEVATATION OF PERMANENT DATUM
LMF                .         MR                            : LOG MEASURED FROM
LUL                .         MCE                           : LOGGING UNIT LOCATION
LUN                .         11202303                      : LOGGING UNIT NUMBER
LONG               .         -43_10_06.229                 : LONGITUDE
MCST               .degF     -999.25                       : MUDCAKE SAMPLE TEMPERATURE
MFST               .degF     -999.25                       : MUD FILTRATE SAMPLE TEMPERATURE
MRT                .degF     144.0                         : MAXIMUM RECORDED TEMPERATURE
MST                .degF     -999.25                       : MUD SAMPLE TEMPERATURE
PDAT               .         NM                            : PERMANENT DATUM
PRODUCER-CODE      .         280                           : 
PRODUCER-NAME      .         Halliburton                   : 
RMB                .ohm.m    -999.25                       : RESISTIVITY OF MUD - BHT
RMCS               .ohm.m    -999.25                       : RESISTIVITY OF MUDCAKE SAMPLE
RMFS               .ohm.m    -999.25                       : RESISTIVITY OF MUD FILTRATE SAMPLE
RMS                .ohm.m    -999.25                       : RESISTIVITY OF MUD SAMPLE
RUN                .         01                            : RUN NUMBER 1
TCS                .h        05_30                         : TIME CIRCULATION STOPPED
TDD                .M        5343.0                        : DRILLERS DEPTH
TDL                .M        5345.0                        : LOGGERS DEPTH
TLAB               .h        16_45                         : TIME LOGGING ON BOTTOM
TLI                .M        5135.0                        : TOP LOGGED INTERVAL
X                  .M        683789.99900000               : X UTM Coordinate
Y                  .M        7152001.99900000              : Y UTM Coordinate
~Parameter Information Block
#_______________________________________________________________________________
#
#PARAMETER_NAME    .UNIT     VALUE                         : DESCRIPTION
#_______________________________________________________________________________
SET                .         BASE                          : 
TLFamily_BS        .         Bit Size                      : 
TLFamily_DT        .         Compressional Slowness        : 
TLFamily_DWAL      .         Aluminum Weight Fraction      : 
TLFamily_DWCA      .         Calcium Weight Fraction       : 
TLFamily_DWFE      .         Iron Weight Fraction          : 
TLFamily_DWGD      .         Gadolinium Weight Fraction    : 
TLFamily_DWK       .         Potassium Weight Fraction     : 
TLFamily_DWMG      .         Magnesium Weight Fraction     : 
TLFamily_DWMN      .         Manganese Weight Fraction     : 
TLFamily_DWS       .         Sulfur Weight Fraction        : 
TLFamily_DWSI      .         Silicon Weight Fraction       : 
TLFamily_DWTI      .         Titanium Weight Fraction      : 
TLFamily_GR        .         Gamma Ray                     : 
TLFamily_GRt       .         Gamma Ray                     : 
TLFamily_HCAL      .         Caliper                       : 
TLFamily_HDRA      .         Bulk Density Correction       : 
TLFamily_HFK       .         Potassium Concentration       : 
TLFamily_HTHO      .         Thorium Concentration         : 
TLFamily_HURA      .         Uranium Concentration         : 
TLFamily_MD        .         Measured Depth                : 
TLFamily_MPERM     .         NMR Permeability              : 
TLFamily_NMRE_Final .         NMR Bound Fluid Volume Fraction: 
TLFamily_NMRFL_Final .         NMR Free Fluids               : 
TLFamily_NMRT_Final .         NMR Porosity                  : 
TLFamily_NPHI      .         Neutron Porosity              : 
TLFamily_PE        .         Photoelectric Factor          : 
TLFamily_RD        .         Resistivity - Deep            : 
TLFamily_RHOB      .         Bulk Density                  : 
TLFamily_RM        .         Resistivity - Medium          : 
TLFamily_RS        .         Resistivity - Shallow         : 
TLFamily_T2LM      .         NMR T2 Logarithmic Mean       : 
TLFamily_TVDSS     .         True Vertical Depth Sub Sea   : 
~Curve Information
#_______________________________________________________________________________
#
#LOGNAME           .UNIT     LOG_ID                        : DESCRIPTION
#_______________________________________________________________________________
DEPTH              .M                                      :  
BS                 .in                                     : BS/Bit Size 
DT                 .us/ft                                  : DT/DTC 
DWAL               .kg/kg                                  : DAL/DryrockAlWF 
DWCA               .kg/kg                                  : DCA/DryrockCaWF 
DWFE               .kg/kg                                  : DFE/DryrockFeWF 
DWGD               .ppm                                    : DGD/DryrockGdWF 
DWK                .kg/kg                                  : DK/DryrockKWF 
DWMG               .kg/kg                                  : DMG/DryrockMgWF 
DWMN               .kg/kg                                  : DMN/DryrockMnWF 
DWS                .kg/kg                                  : DSUL/DryrockSuWF 
DWSI               .kg/kg                                  : DSI/DryrockSiWF 
DWTI               .kg/kg                                  : DTI/DryrockTiWF 
GR                 .gAPI                                   : GR/Gamma API 
GRt                .gAPI                                   : GKUT/GKUT 
HCAL               .in                                     : CALI/Caliper 
HDRA               .g/cm3                                  : DRHO/DensityCorr 
HFK                .%                                      : POTA/Potassium 
HTHO               .ppm                                    : THOR/Thorium 
HURA               .ppm                                    : URAN/Uranium 
MPERM              .mD                                     : MPERMT2/MrilT2KCoat 
NMRE_Final         .m3/m3                                  : MPHIT2/TA-grp T2 Effective Por 
NMRFL_Final        .unitless                               : MFFIT2/TA-grp T2 FreeFluid Ind 
NMRT_Final         .frac                                   : MSIGT2/TA-grp T2 Total Por. 
NPHI               .frac                                   : NPHI/Neutron Porosity 
PE                 .b/e                                    : PE/Pe 
RD                 .ohm.m                                  : RT90/90in Resistivity 2ft Res 
RHOB               .g/cm3                                  : RHOB/Density 
RM                 .ohm.m                                  : RT30/30in Resistivity 2ft Res 
RS                 .ohm.m                                  : RT10/10in Resistivity 2ft Res 
T2LM               .ms                                     : T2LM/T2 Log Mean 
TVDSS              .M                                      :  
~Ascii
# ...
5293.012   12.250     72.176     0.015      0.061      0.002      0.186      0.001      0.000      0.001      0.013      0.370      0.000      11.943     18.010     12.236     0.016      0.086      1.205      0.983      7.394      0.132      0.082      0.151      0.130      2.809      5.642      2.390      7.845      14.201     98.051     5139.518  
5293.165   12.250     70.509     0.023      0.058      0.003      0.292      0.002      0.000      0.001      0.012      0.364      0.000      11.952     18.445     12.222     0.019      0.117      0.833      0.942      6.782      0.135      0.081      0.155      0.125      2.966      5.733      2.396      7.845      13.517     94.027     5139.659  
5293.317   12.250     69.126     0.028      0.052      0.004      0.360      0.002      0.000      0.001      0.013      0.364      0.001      11.974     19.055     12.243     0.017      0.144      0.650      1.004      7.875      0.142      0.083      0.154      0.120      2.869      5.861      2.431      7.942      13.222     115.336    5139.801  
5293.469   12.250     68.416     0.032      0.047      0.004      0.421      0.002      0.000      0.000      0.012      0.366      0.001      12.397     20.003     12.260     0.010      0.174      0.667      1.118      8.784      0.144      0.085      0.149      0.105      2.535      6.133      2.454      8.224      13.092     142.571    5139.943  
5293.622   12.250     67.471     0.035      0.043      0.003      0.451      0.002      0.000      0.000      0.011      0.368      0.001      12.482     20.665     12.256     0.006      0.200      0.953      1.263      9.411      0.138      0.085      0.141      0.093      2.397      6.413      2.468      8.553      13.200     176.031    5140.084  
5293.774   12.250     66.257     0.037      0.040      0.003      0.488      0.002      0.000      0.001      0.010      0.370      0.001      12.384     21.401     12.260     0.004      0.213      1.174      1.528      11.399     0.128      0.087      0.133      0.085      2.397      6.903      2.481      9.177      13.655     199.321    5140.226  
5293.927   12.250     64.932     0.037      0.040      0.002      0.486      0.002      0.000      0.001      0.010      0.370      0.001      12.810     21.582     12.270     0.000      0.228      1.406      1.692      10.905     0.124      0.086      0.131      0.086      2.428      7.435      2.492      9.919      14.501     162.953    5140.367  
5294.079   12.250     64.144     0.034      0.040      0.002      0.442      0.002      0.000      0.001      0.010      0.375      0.000      13.504     21.636     12.320     -0.008     0.233      1.593      1.912      6.725      0.123      0.079      0.130      0.089      2.380      8.351      2.491      11.291     16.449     119.500    5140.509  
5294.231   12.250     63.782     0.031      0.041      0.002      0.407      0.002      0.000      0.001      0.010      0.376      0.000      13.788     21.644     12.320     -0.005     0.221      1.833      2.081      3.379      0.117      0.067      0.122      0.092      2.452      9.208      2.490      12.639     18.525     113.924    5140.651  
5294.384   12.250     63.934     0.025      0.042      0.004      0.342      0.001      0.000      0.001      0.012      0.379      0.001      13.822     21.213     12.310     0.009      0.202      1.901      2.053      1.616      0.110      0.056      0.111      0.098      2.815      10.043     2.495      13.932     20.321     114.672    5140.792  
5294.536   12.250     64.199     0.021      0.042      0.005      0.287      0.001      0.000      0.001      0.012      0.383      0.001      13.381     20.882     12.328     0.012      0.163      1.989      1.926      1.348      0.107      0.054      0.109      0.097      3.098      10.476     2.486      14.585     21.196     90.426     5140.934  
5294.689   12.250     64.930     0.016      0.041      0.006      0.230      0.000      0.000      0.001      0.013      0.389      0.000      13.280     20.204     12.426     -0.001     0.104      1.991      1.542      1.217      0.104      0.052      0.110      0.094      3.116      10.930     2.465      15.231     22.207     64.846     5141.075  
5294.841   12.250     65.816     0.018      0.040      0.006      0.251      0.000      0.000      0.001      0.013      0.390      0.000      13.656     19.771     12.392     -0.006     0.068      1.794      1.228      0.571      0.103      0.042      0.109      0.086      2.994      11.238     2.444      15.704     23.297     61.118     5141.217  
5294.993   12.250     66.362     0.026      0.036      0.005      0.365      0.001      0.000      0.001      0.013      0.385      0.000      14.190     19.225     12.206     -0.002     0.024      1.610      0.946      0.241      0.105      0.032      0.108      0.076      2.837      11.307     2.440      15.697     23.765     71.850     5141.359  
5295.146   12.250     66.541     0.032      0.034      0.004      0.446      0.001      0.000      0.001      0.014      0.380      0.001      14.869     19.054     12.187     0.002      0.004      1.314      0.959      0.168      0.104      0.028      0.109      0.075      2.662      10.996     2.443      15.042     22.700     63.943     5141.500  
5295.298   12.250     66.532     0.033      0.034      0.004      0.446      0.002      0.000      0.001      0.017      0.377      0.001      14.558     18.821     12.188     0.007      0.047      0.918      1.112      0.227      0.098      0.031      0.112      0.078      2.320      10.424     2.453      13.919     20.691     46.526     5141.642  
5295.451   12.250     66.616     0.032      0.038      0.004      0.428      0.003      0.000      0.001      0.017      0.374      0.001      13.522     18.731     12.193     0.009      0.094      0.673      1.284      0.630      0.092      0.044      0.111      0.078      2.171      10.136     2.469      13.372     19.643     41.292     5141.783  
5295.603   12.250     67.052     0.032      0.041      0.004      0.415      0.004      0.000      0.001      0.017      0.370      0.001      12.930     18.593     12.198     0.006      0.210      0.610      1.445      2.033      0.088      0.059      0.109      0.087      2.028      9.728      2.490      12.617     18.177     48.380     5141.925  
5295.755   12.250     68.413     0.030      0.042      0.004      0.394      0.004      0.000      0.001      0.017      0.370      0.001      11.863     18.195     12.203     0.003      0.289      0.852      1.564      3.576      0.089      0.067      0.108      0.099      1.976      9.432      2.508      12.094     17.211     58.097     5142.067  
5295.908   12.250     69.880     0.026      0.046      0.004      0.342      0.003      0.000      0.001      0.018      0.370      0.001      10.990     17.853     12.235     -0.001     0.359      1.186      1.558      3.869      0.094      0.068      0.108      0.120      1.944      8.738      2.510      10.941     15.151     75.534     5142.208  
5296.060   12.250     71.577     0.026      0.047      0.004      0.341      0.002      0.000      0.001      0.018      0.369      0.001      10.296     17.202     12.235     -0.004     0.347      1.429      1.470      5.005      0.101      0.071      0.107      0.150      1.968      8.245      2.485      10.161     13.785     106.352    5142.350  
5296.213   12.250     73.388     0.030      0.045      0.004      0.410      0.002      0.000      0.001      0.020      0.366      0.001      10.253     16.744     12.251     -0.007     0.279      1.451      1.295      11.495     0.107      0.081      0.109      0.172      2.020      7.838      2.456      9.535      12.705     139.067    5142.491  
5296.365   12.250     75.033     0.038      0.039      0.002      0.531      0.001      0.000      0.001      0.022      0.364      0.001      11.354     16.159     12.300     -0.007     0.214      1.309      0.969      18.113     0.113      0.088      0.115      0.167      2.190      7.693      2.435      9.299      12.244     145.580    5142.633  
