~Version
 VERS              .         2.0                           : CWLS LOG ASCII STANDARD - VERSION 2.0
 WRAP              .         NO                            : ONE LINE PER DEPTH STEP
 DLM               .         SPACE                         : DELIMITING CHARACTER(SPACE TAB OR COMMA)
~Well Information
#_______________________________________________________________________________
#
#PARAMETER_NAME    .UNIT     VALUE                         : DESCRIPTION
#_______________________________________________________________________________
STRT               .M        4949.000                      : First reference value
STOP               .M        5060.404                      : Last reference value
STEP               .M        0.152                         : Step increment
NULL               .         -9999                         : Missing value
COMP               .         PETROBRAS                     : Company
WELL               .         7-SPH-22-SPS                  : Well name
FLD                .         SAPINHOA                      : Field
LOC                .                                       : Location
CNTY               .                                       : County
STAT               .         SAO PAULO                     : State
CTRY               .         BR                            : Country
SRVC               .                                       : Service Company
DATE               .         25/07/2016                    : Date
API                .         863160046800                  : API number
APD                .M        26.0                          : ABOVE PERMANENT DATUM
BHT                .degF     140.0                         : BOTTOMHOLE TEMPERATURE
BLI                .M        5055.8                        : BOTTOM LOGGED INTERVAL
BS                 .in       8.5                           : BIT SIZE
CBDR               .M        4981                          : Casing Bottom (Driller)
CBLO               .M        4981                          : Casing Bottom of Logger
CSIZ               .in       10.75                         : Casing Outer Diameter
CWEI               .lb/ft    85.3                          : Casing Weight
DCS                .         23/07/2016                    : DATE CIRCULATION STOPPED
DFD                .lb/gal   9.7                           : DRILLING FLUID DENSITY
DFT                .         CATIONICO_SCOL (BASE AGUA)    : DRILLING FLUID TYPE
DLAB               .         25/07/2016                    : DATE LOGGING ON BOTTOM
EDF                .M        26.0                          : ELEVATION OF DRILLING FLOOR
EGL                .M        -2144.0                       : ELEVATION OF GROUND LEVEL
EKB                .M        -999.25                       : ELEVATION OF KELLY BUSHING
EPD                .M        0.0                           : ELEVATATION OF PERMANENT DATUM
GDAT               .                                       : Geodetic Datum
LMF                .         MR                            : LOG MEASURED FROM
LUL                .         MCE                           : LOGGING UNIT LOCATION
LUN                .         10898943                      : LOGGING UNIT NUMBER
LATI               .         -25_48_08.320                 : Latitude
LONG               .         -43_13_44,430                 : LONGITUDE
MCST               .degF     66.1                          : MUDCAKE SAMPLE TEMPERATURE
MFST               .degF     66.4                          : MUD FILTRATE SAMPLE TEMPERATURE
MRT                .degF     140.0                         : MAXIMUM RECORDED TEMPERATURE
MST                .degF     65.8                          : MUD SAMPLE TEMPERATURE
ORIGINALWELLNAME   .         7SPH 0022  SPS                : 
PDAT               .         NM                            : PERMANENT DATUM
PRODUCER-CODE      .         280                           : 
PRODUCER-NAME      .         Halliburton                   : 
RMB                .ohm.m    0.040                         : RESISTIVITY OF MUD - BHT
RMCS               .ohm.m    0.140                         : RESISTIVITY OF MUDCAKE SAMPLE
RMFS               .ohm.m    0.012                         : RESISTIVITY OF MUD FILTRATE SAMPLE
RMS                .ohm.m    0.080                         : RESISTIVITY OF MUD SAMPLE
RUN                .         01                            : RUN NUMBER 1
TCS                .h        19_00                         : TIME CIRCULATION STOPPED
TDD                .M        5058.0                        : DRILLERS DEPTH
TDL                .M        5057.1                        : LOGGERS DEPTH
TLAB               .h        07_15                         : TIME LOGGING ON BOTTOM
TLI                .M        4950.0                        : TOP LOGGED INTERVAL
X                  .M        677550.00000000               : X or East-West coordinate
Y                  .M        7145014.00000000              : Y or North South coordinate
~Parameter Information Block
#_______________________________________________________________________________
#
#PARAMETER_NAME    .UNIT     VALUE                         : DESCRIPTION
#_______________________________________________________________________________
SET                .         BASE                          : 
TLFamily_BS        .         Bit Size                      : 
TLFamily_DT        .         Compressional Slowness        : 
TLFamily_DWAL      .         Aluminum Weight Fraction      : 
TLFamily_DWCA      .         Calcium Weight Fraction       : 
TLFamily_DWFE      .         Iron Weight Fraction          : 
TLFamily_DWK       .         Potassium Weight Fraction     : 
TLFamily_DWMG      .         Magnesium Weight Fraction     : 
TLFamily_DWMN      .         Manganese Weight Fraction     : 
TLFamily_DWS       .         Sulfur Weight Fraction        : 
TLFamily_DWSI      .         Silicon Weight Fraction       : 
TLFamily_DWTI      .         Titanium Weight Fraction      : 
TLFamily_GR        .         Gamma Ray                     : 
TLFamily_GRt       .         Gamma Ray                     : 
TLFamily_HCAL      .         Caliper                       : 
TLFamily_HDRA      .         Bulk Density Correction       : 
TLFamily_HFK       .         Potassium Concentration       : 
TLFamily_HTHO      .         Thorium Concentration         : 
TLFamily_HURA      .         Uranium Concentration         : 
TLFamily_MD        .         Measured Depth                : 
TLFamily_MPERM     .         NMR Permeability              : 
TLFamily_NMRE_Final .         NMR Bound Fluid Volume Fraction: 
TLFamily_NMRFL_Final .         NMR Free Fluids               : 
TLFamily_NMRT_Final .         NMR Porosity                  : 
TLFamily_NPHI      .         Neutron Porosity              : 
TLFamily_PE        .         Photoelectric Factor          : 
TLFamily_RD        .         Resistivity - Deep            : 
TLFamily_RHOB      .         Bulk Density                  : 
TLFamily_RS        .         Resistivity - Shallow         : 
TLFamily_T2LM      .         NMR T2 Logarithmic Mean       : 
TLFamily_TVDSS     .         True Vertical Depth Sub Sea   : 
~Curve Information
#_______________________________________________________________________________
#
#LOGNAME           .UNIT     LOG_ID                        : DESCRIPTION
#_______________________________________________________________________________
DEPTH              .M                                      :  
BS                 .in                                     : BS/Bit Size 
DT                 .us/ft                                  : SONICO COMPRESSIONAL (COMPOSICAO DE CURVAS CABO E/OU LWD) 
DWAL               .kg/kg                                  : DAL/DryrockAlWF 
DWCA               .kg/kg                                  : DCA/DryrockCaWF 
DWFE               .kg/kg                                  : DFE/DryrockFeWF 
DWK                .kg/kg                                  : DK/DryrockKWF 
DWMG               .kg/kg                                  : DMG/DryrockMgWF 
DWMN               .kg/kg                                  : DMN/DryrockMnWF 
DWS                .kg/kg                                  : DSUL/DryrockSuWF 
DWSI               .kg/kg                                  : DSI/DryrockSiWF 
DWTI               .kg/kg                                  : DTI/DryrockTiWF 
GR                 .gAPI                                   : GR/Gamma API 
GRt                .gAPI                                   : GKUT/GammaKUT 
HCAL               .in                                     : CALI/Caliper 
HDRA               .g/cm3                                  : DRHO/DensityCorr 
HFK                .%                                      : POTA/Potassium 
HTHO               .ppm                                    : THOR/Thorium 
HURA               .ppm                                    : URAN/Uranium 
MPERM              .mD                                     : MPERMT2/MrilT2KCoat 
NMRE_Final         .m3/m3                                  : MPHIT2/TA-grp T2 Effective Por 
NMRFL_Final        .unitless                               : MFFIT2/TA-grp T2 FreeFluid Ind 
NMRT_Final         .frac                                   : MSIGT2/TA-grp T2 Total Por. 
NPHI               .frac                                   : NPHI/Neutron Porosity 
PE                 .b/e                                    : PE/Pe 
RD                 .ohm.m                                  : LLD/LLD 
RHOB               .g/cm3                                  : RHOB/Density 
RS                 .ohm.m                                  : LLS/LLS 
T2LM               .ms                                     : T2LM/T2 Log Mean 
TVDSS              .M                                      :  
~Ascii
# ...
4983.290   8.500      67.344     0.023      0.208      0.000      0.000      0.064      0.001      0.006      0.091      0.002      23.194     23.471     8.515      -0.016     0.035      1.427      2.032      -9999.000  0.165      0.149      0.179      0.170      4.002      3825.100   2.403      1268.157   -9999.000  4951.106  
4983.442   8.500      67.400     0.027      0.212      0.000      0.000      0.061      0.001      0.007      0.085      0.001      22.560     21.148     8.510      -0.015     0.072      1.407      1.716      -9999.000  0.167      0.145      0.181      0.161      3.984      4032.586   2.400      1231.502   -9999.000  4951.257  
4983.595   8.500      66.178     0.028      0.212      0.000      0.000      0.063      0.001      0.008      0.081      0.001      18.894     19.880     8.509      -0.012     0.106      1.213      1.586      -9999.000  0.154      0.087      0.164      0.158      3.950      2365.845   2.430      1095.827   -9999.000  4951.408  
4983.747   8.500      64.691     0.023      0.202      0.000      0.001      0.079      0.001      0.008      0.073      0.001      20.563     21.498     8.506      -0.009     0.130      0.929      1.825      -9999.000  0.116      0.072      0.127      0.143      3.820      1022.828   2.492      683.437    -9999.000  4951.560  
4983.900   8.500      64.873     0.018      0.197      0.000      0.001      0.090      0.001      0.008      0.066      0.001      26.449     25.215     8.507      -0.006     0.125      0.566      2.380      -9999.000  0.075      0.062      0.093      0.132      3.649      742.151    2.551      447.987    -9999.000  4951.711  
4984.052   8.500      66.486     0.011      0.198      0.001      0.001      0.094      0.001      0.009      0.064      0.001      30.388     31.522     8.509      -0.007     0.086      0.337      3.235      -9999.000  0.061      0.052      0.084      0.132      3.600      687.869    2.567      436.978    -9999.000  4951.862  
4984.204   8.500      66.244     0.008      0.204      0.001      0.001      0.092      0.001      0.009      0.065      0.001      34.728     37.859     8.514      -0.007     0.048      0.263      4.035      3.003      0.053      0.039      0.080      0.113      3.527      326.283    2.575      332.840    256.557    4952.013  
4984.357   8.500      67.540     0.006      0.220      0.002      0.001      0.082      0.001      0.007      0.064      0.000      41.160     41.741     8.514      -0.005     0.019      0.408      4.466      3.039      0.089      0.053      0.098      0.116      3.568      158.027    2.568      130.860    242.623    4952.165  
4984.509   8.500      70.607     0.004      0.257      0.001      0.002      0.058      0.001      0.005      0.064      0.000      40.837     42.663     8.512      -0.005     0.000      0.552      4.549      3.656      0.105      0.069      0.110      0.148      4.014      152.970    2.524      119.882    216.918    4952.316  
4984.662   8.500      69.606     0.006      0.289      0.002      0.002      0.037      0.001      0.007      0.055      0.000      28.554     38.986     8.512      -0.009     0.000      0.705      4.084      6.919      0.113      0.077      0.120      0.155      4.742      160.218    2.459      128.231    224.248    4952.467  
4984.814   8.500      66.685     0.012      0.313      0.001      0.002      0.024      0.002      0.009      0.042      0.000      19.529     33.893     8.512      -0.009     0.000      0.791      3.486      16.155     0.126      0.092      0.132      0.157      5.076      252.256    2.429      241.180    258.696    4952.618  
4984.966   8.500      64.417     0.019      0.322      0.001      0.002      0.019      0.002      0.012      0.029      0.000      17.796     29.279     8.512      -0.005     0.000      0.748      2.987      36.167     0.139      0.107      0.144      0.164      5.092      806.224    2.428      783.843    278.140    4952.770  
4985.119   8.500      63.000     0.022      0.334      0.001      0.002      0.009      0.002      0.014      0.028      0.000      18.809     23.986     8.510      -0.004     0.004      0.779      2.379      46.558     0.142      0.114      0.153      0.152      4.991      589.246    2.432      548.023    209.587    4952.921  
4985.271   8.500      63.784     0.019      0.325      0.002      0.001      0.007      0.002      0.015      0.044      0.001      20.182     22.568     8.515      -0.006     0.014      0.828      2.187      27.853     0.134      0.107      0.157      0.150      4.845      477.938    2.451      439.126    114.380    4953.072  
4985.424   8.500      63.848     0.015      0.301      0.003      0.001      0.013      0.002      0.015      0.066      0.001      22.380     23.385     8.515      -0.012     0.021      0.947      2.223      15.305     0.124      0.096      0.153      0.134      4.441      444.196    2.524      414.642    76.552     4953.224  
4985.576   8.500      62.302     0.011      0.268      0.003      0.001      0.025      0.002      0.015      0.088      0.001      23.253     24.792     8.511      -0.024     0.044      1.118      2.276      10.716     0.118      0.088      0.146      0.111      4.142      352.035    2.553      337.471    70.858     4953.375  
4985.728   8.500      61.701     0.008      0.210      0.003      0.001      0.047      0.001      0.010      0.127      0.002      27.273     27.243     8.511      -0.035     0.102      1.315      2.375      5.461      0.107      0.075      0.126      0.088      3.865      197.013    2.571      176.336    76.319     4953.526  
4985.881   8.500      61.757     0.007      0.186      0.003      0.002      0.056      0.001      0.008      0.142      0.002      30.008     28.732     8.512      -0.027     0.140      1.370      2.454      2.916      0.097      0.064      0.108      0.092      3.852      212.822    2.595      186.025    91.046     4953.677  
4986.033   8.500      62.704     0.007      0.159      0.004      0.002      0.068      0.001      0.007      0.156      0.001      32.429     30.463     8.519      -0.017     0.178      1.497      2.533      2.121      0.091      0.059      0.102      0.100      3.683      235.585    2.599      208.271    88.339     4953.829  
4986.186   8.500      64.176     0.009      0.148      0.004      0.002      0.072      0.000      0.005      0.161      0.001      32.379     31.334     8.515      -0.016     0.167      1.432      2.673      2.892      0.089      0.064      0.107      0.105      3.425      252.346    2.586      225.724    75.028     4953.980  
4986.338   8.500      65.504     0.013      0.144      0.003      0.002      0.068      0.000      0.004      0.169      0.001      32.322     32.897     8.514      -0.012     0.113      1.293      2.993      5.923      0.095      0.075      0.117      0.104      3.070      356.061    2.596      338.710    83.669     4954.131  
4986.490   8.500      66.681     0.016      0.145      0.002      0.002      0.063      0.000      0.004      0.172      0.002      34.732     33.912     8.516      -0.012     0.077      1.163      3.217      12.040     0.108      0.086      0.124      0.107      2.988      546.883    2.591      516.822    130.421    4954.282  
4986.643   8.500      67.706     0.012      0.146      0.002      0.001      0.062      0.000      0.006      0.178      0.002      37.632     35.154     8.519      -0.010     0.036      1.125      3.441      20.244     0.122      0.094      0.129      0.114      2.962      381.555    2.553      339.130    195.093    4954.434  
4986.795   8.500      68.638     0.013      0.146      0.001      0.001      0.066      0.001      0.007      0.169      0.001      38.813     35.369     8.522      -0.010     0.032      1.361      3.387      29.754     0.131      0.102      0.137      0.132      2.898      219.290    2.503      170.520    211.083    4954.585  
4986.948   8.500      69.204     0.012      0.158      0.000      0.001      0.071      0.001      0.009      0.148      0.001      38.876     33.730     8.512      -0.012     0.035      1.821      3.031      34.503     0.133      0.107      0.147      0.140      2.827      222.514    2.451      172.053    180.330    4954.736  
