~Version
 VERS              .         2.0                           : CWLS LOG ASCII STANDARD - VERSION 2.0
 WRAP              .         NO                            : ONE LINE PER DEPTH STEP
 DLM               .         SPACE                         : DELIMITING CHARACTER(SPACE TAB OR COMMA)
~Well Information
#_______________________________________________________________________________
#
#PARAMETER_NAME    .UNIT     VALUE                         : DESCRIPTION
#_______________________________________________________________________________
STRT               .M        4938.217                      : First reference value
STOP               .M        5227.625                      : Last reference value
STEP               .M        0.152                         : Step increment
NULL               .         -9999                         : Missing value
COMP               .         PETROBRAS                     : Company
WELL               .         7-SPH-17-SPS                  : Well name
FLD                .         SAPINHOA                      : Field
LOC                .                                       : Location
CNTY               .                                       : County
STAT               .         86316027948                   : State
CTRY               .         Brasil                        : Country
SRVC               .                                       : Service Company
DATE               .                                       : Date
API                .                                       : API number
APD                .M        25                            : Elevation of Depth Reference (LMF) Above Permanent Datum
BHS                .         OPEN                          : Borehole Status (Open or Cased Hole)
BHT                .degF     144                           : Bottom Hole Temperature
BLI                .M        5222.59                       : Bottom Log Interval
BS                 .in       12.25                         : Bit Size
CBDR               .M        5017                          : Casing Bottom (Driller)
CBLO               .M        5020.6                        : Casing Bottom (Logger)
CSIZ               .in       14                            : Casing Outer Diameter
CWEI               .lbm/ft   114                           : Casing Weight
DCS                .         04/01/2015                    : Date Circulation Stopped
DFD                .lb/gal   9.6                           : Drilling Fluid Density
DFT                .         BR-MUL                        : Drilling Fluid Type
DLAB               .         06/01/2015                    : Date Logging on Bottom
EDF                .M        25                            : Elevation of Drill Floor
EGL                .M        -2131                         : Elevation of Ground Level
EKB                .M        25                            : Elevation of Kelly Bushing
EPD                .M        0                             : Elevation of Permanent Datum (PDAT) above Mean Sea Level
LMF                .         MR                            : Logging Measured From (Name of Logging Elevation Reference)
LUL                .         BRMA                          : Logging Unit Location
LUN                .         7806                          : Logging Unit Number
LONG               .         -43_09_42,450                 : Longitude
MCST               .degF     -999.25                       : Mudcake Sample Temperature
MFST               .degF     -999.25                       : Mud Filtrate Sample Temperature
MRT                .degF     144                           : Maximum Recorded Temperature
MST                .degF     -999.25                       : Mud Sample Temperature
PDAT               .         NM                            : Permanent Datum
PRODUCER-CODE      .         440                           : 
PRODUCER-NAME      .         Schlumberger                  : 
RMB                .ohm.m    -999.25                       : Resistivity of Mud at Bottom Hole Temperature
RMCS               .ohm.m    -999.25                       : Resistivity of Mud Cake Sample
RMFS               .ohm.m    -999.25                       : Resistivity of Mud Filtrate Sample
RMS                .ohm.m    -999.25                       : Resistivity of Mud Sample
RUN                .         02                            : Run Number
TCS                .h        17_30                         : Time Circulation Stopped
TDD                .M        5221                          : Total Depth (Driller)
TDL                .M        5225                          : Logger Total Depth
TLAB               .h        09_25                         : Time Logging on Bottom
TLI                .M        5020.6                        : Top Log Interval
X                  .M        684517.00000000               : 
Y                  .M        7161201.00000000              : 
~Parameter Information Block
#_______________________________________________________________________________
#
#PARAMETER_NAME    .UNIT     VALUE                         : DESCRIPTION
#_______________________________________________________________________________
SET                .         BASE                          : 
TLFamily_BS        .         Bit Size                      : 
TLFamily_DT        .         Compressional Slowness        : 
TLFamily_DWAL      .         Aluminum Weight Fraction      : 
TLFamily_DWCA      .         Calcium Weight Fraction       : 
TLFamily_DWFE      .         Iron Weight Fraction          : 
TLFamily_DWGD      .         Gadolinium Weight Fraction    : 
TLFamily_DWS       .         Sulfur Weight Fraction        : 
TLFamily_DWSI      .         Silicon Weight Fraction       : 
TLFamily_DWTI      .         Titanium Weight Fraction      : 
TLFamily_GR        .         Gamma Ray                     : 
TLFamily_GRt       .         Gamma Ray                     : 
TLFamily_HCAL      .         Caliper                       : 
TLFamily_HDRA      .         Bulk Density Correction       : 
TLFamily_HFK       .         Potassium Concentration       : 
TLFamily_HTHO      .         Thorium Concentration         : 
TLFamily_HURA      .         Uranium Concentration         : 
TLFamily_KSDR      .         NMR Permeability              : 
TLFamily_KTIM      .         NMR Permeability              : 
TLFamily_MD        .         Measured Depth                : 
TLFamily_NMRE_Final .         NMR Bound Fluid Volume Fraction: 
TLFamily_NMRFL_Final .         NMR Free Fluids               : 
TLFamily_NMRT_Final .         NMR Porosity                  : 
TLFamily_NPHI      .         Neutron Porosity              : 
TLFamily_PE        .         Photoelectric Factor          : 
TLFamily_RD        .         Resistivity - Deep            : 
TLFamily_RHOB      .         Bulk Density                  : 
TLFamily_RM        .         Resistivity - Medium          : 
TLFamily_RS        .         Resistivity - Shallow         : 
TLFamily_T2LM      .         NMR T2 Logarithmic Mean       : 
TLFamily_TVDSS     .         True Vertical Depth Sub Sea   : 
~Curve Information
#_______________________________________________________________________________
#
#LOGNAME           .UNIT     LOG_ID                        : DESCRIPTION
#_______________________________________________________________________________
DEPTH              .M                                      :  
BS                 .in                                     : Bit Size 
DT                 .us/ft                                  : Delta-T Compressional 
DWAL               .kg/kg                                  : Dry Weight Fraction Pseudo Aluminum (SpectroLith WALK2 Model) 
DWCA               .kg/kg                                  : Dry Weight Fraction Calcium (SpectroLith WALK2 Model) 
DWFE               .kg/kg                                  : Dry Weight Fraction Iron + 0.14 Aluminum (SpectroLith WALK2 Model) 
DWGD               .ppm                                    : Dry Weight Fraction Gadolinium (SpectroLith WALK2 Model) 
DWS                .kg/kg                                  : Dry Weight Fraction Sulfur (SpectroLith WALK2 Model) 
DWSI               .kg/kg                                  : Dry Weight Fraction Silicon (SpectroLith WALK2 Model) 
DWTI               .kg/kg                                  : Dry Weight Fraction Titanium (SpectroLith WALK2 Model) 
GR                 .gAPI                                   : Gamma Ray 
GRt                .gAPI                                   : HNGS Standard Gamma-Ray 
HCAL               .in                                     : HRCC Caliper Calibrated 
HDRA               .g/cm3                                  : Density Standoff Correction 
HFK                .%                                      : HNGS Formation Potassium Concentration 
HTHO               .ppm                                    : HNGS Formation Thorium Concentration 
HURA               .ppm                                    : HNGS Formation Uranium Concentration 
KSDR               .mD                                     : SDR Permeability 
KTIM               .mD                                     : Timur/Coates Permeability 
NMRE_Final         .m3/m3                                  : CMR Porosity with T2 values greater than 3 ms 
NMRFL_Final        .unitless                               : CMR Free Fluid 
NMRT_Final         .frac                                   : Total CMR Porosity 
NPHI               .frac                                   : Enhanced Thermal Neutron Porosity in Selected Lithology 
PE                 .b/e                                    : Standard Resolution Formation Photoelectric Factor 
RD                 .ohm.m                                  : Array Induction Two Foot Resistivity A90 
RHOB               .g/cm3                                  : Standard Resolution Formation Density 
RM                 .ohm.m                                  : Array Induction Two Foot Resistivity A30 
RS                 .ohm.m                                  : Array Induction Two Foot Resistivity A10 
T2LM               .ms                                     : T2 Logarithmic Mean 
TVDSS              .M                                      :  
~Ascii
# ...
5197.297   12.250     71.552     0.000      0.236      0.000      0.881      0.010      0.187      0.000      27.800     32.337     12.333     -0.003     0.213      1.955      2.983      16.347     5.385      0.133      0.074      0.133      0.167      6.028      6.197      2.444      8.352      12.047     115.707    5172.010  
5197.450   12.250     71.552     0.000      0.237      0.000      1.827      0.000      0.190      0.000      32.486     36.383     12.419     0.002      0.263      2.272      3.305      11.973     5.792      0.108      0.073      0.108      0.172      5.717      5.542      2.472      6.894      7.596      148.855    5172.163  
5197.602   12.250     71.552     0.000      0.222      0.000      3.505      0.000      0.208      0.000      31.809     36.610     12.441     0.005      0.265      2.465      3.237      5.160      3.531      0.086      0.062      0.086      0.211      5.174      5.570      2.508      6.431      6.626      152.755    5172.315  
5197.754   12.250     71.552     0.005      0.216      0.002      4.334      0.000      0.208      0.000      29.173     31.463     12.334     -0.001     0.188      2.032      2.960      4.929      3.042      0.081      0.059      0.081      0.206      4.588      6.411      2.517      7.111      9.405      170.942    5172.467  
5197.907   12.250     71.552     0.000      0.229      0.000      4.629      0.004      0.198      0.000      23.199     26.263     12.270     0.000      0.153      1.513      2.510      7.645      4.584      0.083      0.064      0.084      0.132      4.235      8.133      2.540      7.806      9.214      198.265    5172.620  
5198.059   12.250     71.552     0.000      0.253      0.000      3.445      0.008      0.168      0.000      21.001     23.807     12.291     -0.001     0.142      1.329      2.283      12.755     9.092      0.090      0.073      0.092      0.106      4.100      9.434      2.539      7.758      18.365     212.210    5172.772  
5198.212   12.250     71.552     0.000      0.272      0.000      1.650      0.004      0.147      0.001      20.420     25.430     12.247     -0.000     0.140      1.372      2.471      17.533     16.223     0.097      0.081      0.100      0.096      4.115      7.617      2.545      5.962      11.389     208.476    5172.925  
5198.364   12.250     71.552     0.000      0.284      0.000      0.002      0.000      0.135      0.000      25.019     29.001     12.269     -0.003     0.140      1.700      2.819      17.548     16.238     0.097      0.081      0.100      0.094      4.324      5.456      2.536      4.258      7.221      208.399    5173.077  
5198.516   12.250     71.552     0.000      0.295      0.000      0.000      0.000      0.123      0.000      30.385     34.170     12.291     0.001      0.133      2.070      3.389      22.706     21.767     0.107      0.089      0.113      0.092      4.659      4.173      2.549      3.392      5.026      185.647    5173.229  
5198.669   12.250     71.552     0.000      0.305      0.000      0.000      0.000      0.112      0.000      36.164     38.505     12.312     0.001      0.141      2.384      3.791      29.463     30.640     0.120      0.100      0.131      0.091      5.056      3.288      2.541      2.904      3.788      158.640    5173.382  
5198.821   12.250     71.552     0.001      0.312      0.000      0.000      0.000      0.102      0.001      38.494     40.558     12.301     0.001      0.137      2.591      3.974      42.260     49.597     0.134      0.114      0.149      0.148      5.329      2.509      2.515      2.345      2.890      146.454    5173.534  
5198.974   12.250     71.552     0.000      0.309      0.000      0.000      0.000      0.106      0.001      39.619     39.597     12.227     -0.002     0.131      2.413      3.925      70.060     90.520     0.149      0.128      0.165      0.248      5.408      1.981      2.459      1.916      2.396      154.007    5173.687  
5199.126   12.250     71.552     0.000      0.306      0.000      0.000      0.008      0.107      0.000      37.824     37.952     12.249     0.001      0.114      2.232      3.813      133.026    163.281    0.163      0.143      0.178      0.295      5.353      1.726      2.422      1.744      2.036      182.047    5173.839  
5199.278   12.250     71.552     0.000      0.308      0.000      0.000      0.013      0.101      0.000      36.603     37.587     12.290     0.003      0.104      2.104      3.842      224.872    201.928    0.173      0.147      0.181      0.348      5.170      1.656      2.414      1.730      2.261      228.255    5173.991  
5199.431   12.250     71.552     0.000      0.316      0.000      0.000      0.011      0.092      0.000      37.072     40.180     12.227     0.005      0.122      2.330      4.040      292.416    181.607    0.177      0.145      0.181      0.252      4.935      1.635      2.425      1.738      2.337      262.346    5174.144  
5199.583   12.250     71.552     0.000      0.330      0.000      0.000      0.006      0.079      0.000      37.910     41.962     12.270     0.001      0.112      2.673      4.206      307.708    150.737    0.178      0.142      0.179      0.199      4.759      1.663      2.422      1.747      2.465      272.462    5174.296  
5199.736   12.250     71.552     0.000      0.342      0.000      0.000      0.000      0.068      0.000      38.503     42.392     12.291     0.001      0.115      2.589      4.238      281.378    128.751    0.177      0.140      0.179      0.246      4.780      1.687      2.416      1.735      2.487      261.225    5174.449  
5199.888   12.250     71.552     0.001      0.351      0.001      0.000      0.000      0.056      0.000      38.342     41.969     12.259     0.001      0.139      2.493      4.128      245.105    111.239    0.175      0.137      0.179      0.275      4.901      1.697      2.412      1.707      2.445      244.630    5174.601  
5200.040   12.250     71.552     0.000      0.351      0.000      1.110      0.001      0.057      0.000      40.337     43.471     12.248     0.000      0.153      2.466      4.303      243.207    120.944    0.176      0.139      0.181      0.276      5.072      1.672      2.406      1.651      2.341      238.048    5174.753  
5200.193   12.250     71.552     0.000      0.347      0.000      2.783      0.003      0.061      0.000      41.625     44.985     12.291     -0.002     0.177      2.524      4.393      281.121    164.868    0.181      0.146      0.184      0.269      5.201      1.645      2.387      1.578      2.227      247.960    5174.906  
5200.345   12.250     71.552     0.000      0.335      0.000      2.678      0.001      0.076      0.000      41.773     44.192     12.311     -0.004     0.197      2.631      4.203      291.691    214.343    0.181      0.149      0.182      0.227      5.299      1.595      2.363      1.537      2.164      256.684    5175.058  
5200.498   12.250     71.552     0.000      0.331      0.000      0.416      0.002      0.081      0.000      39.658     43.063     12.290     -0.005     0.197      2.435      4.162      247.919    220.178    0.176      0.146      0.177      0.246      5.304      1.605      2.347      1.557      2.208      249.956    5175.210  
5200.650   12.250     71.552     0.002      0.326      0.001      0.001      0.007      0.080      0.000      37.104     43.246     12.228     -0.003     0.201      2.407      4.196      186.603    161.514    0.171      0.141      0.176      0.311      5.189      1.595      2.357      1.588      2.311      221.030    5175.363  
5200.802   12.250     71.552     0.009      0.328      0.006      0.000      0.002      0.066      0.000      37.996     45.443     12.290     -0.004     0.217      2.813      4.305      160.496    145.326    0.174      0.143      0.182      0.254      5.126      1.474      2.369      1.458      2.124      190.555    5175.515  
5200.955   12.250     71.552     0.014      0.323      0.009      0.007      0.001      0.064      0.000      40.154     48.091     12.248     -0.004     0.233      3.080      4.510      158.561    167.490    0.178      0.149      0.190      0.269      5.114      1.337      2.381      1.347      1.989      174.158    5175.668  
