~Version
 VERS              .         2.0                           : CWLS LOG ASCII STANDARD - VERSION 2.0
 WRAP              .         NO                            : ONE LINE PER DEPTH STEP
 DLM               .         SPACE                         : DELIMITING CHARACTER(SPACE TAB OR COMMA)
~Well Information
#_______________________________________________________________________________
#
#PARAMETER_NAME    .UNIT     VALUE                         : DESCRIPTION
#_______________________________________________________________________________
STRT               .M        5014.000                      : First reference value
STOP               .M        5322.763                      : Last reference value
STEP               .M        0.152                         : Step increment
NULL               .         -9999                         : Missing value
COMP               .         PETROBRAS                     : Company
WELL               .         7-SPH-20D-SPS                 : Well name
FLD                .         SAPINHOA                      : Field
LOC                .                                       : Location
CNTY               .                                       : County
STAT               .         SAO PAULO                     : State
CTRY               .         BRASIL                        : Country
SRVC               .                                       : Service Company
DATE               .                                       : Date
API                .         863160046300                  : API number
APD                .M        26.0                          : ABOVE PERMANENT DATUM
BHT                .degF     140.0                         : BOTTOMHOLE TEMPERATURE
BLI                .M        5313.7                        : BOTTOM LOGGED INTERVAL
BS                 .in       12.25                         : BIT SIZE
DCS                .         31/01/2016                    : DATE CIRCULATION STOPPED
DFD                .lb/gal   9.7                           : DRILLING FLUID DENSITY
DFT                .         OLEDRILL(BASE OLEFINA)        : DRILLING FLUID TYPE
DLAB               .         01/02/2016                    : DATE LOGGING ON BOTTOM
EDF                .M        26.0                          : ELEVATION OF DRILLING FLOOR
EGL                .M        -2129.0                       : ELEVATION OF GROUND LEVEL
EKB                .M        26.0                          : ELEVATION OF KELLY BUSHING
EPD                .M        0                             : ELEVATATION OF PERMANENT DATUM
GDAT               .         SIRGAS2000                    : Geodetic Datum
LMF                .         MR                            : LOG MEASURED FROM
LUL                .         MCE                           : LOGGING UNIT LOCATION
LUN                .         11792307                      : LOGGING UNIT NUMBER
LATI               .         -25_41_36.136                 : Latitude
LONG               .         -43_10_30,988                 : LONGITUDE
MCST               .degF     -999.25                       : MUDCAKE SAMPLE TEMPERATURE
MFST               .degF     -999.25                       : MUD FILTRATE SAMPLE TEMPERATURE
MRT                .degF     140.0                         : MAXIMUM RECORDED TEMPERATURE
MST                .degF     -999.25                       : MUD SAMPLE TEMPERATURE
ORIGINALWELLNAME   .         7SPH 0020D SPS                : 
PDAT               .         NM                            : PERMANENT DATUM
PRODUCER-CODE      .         280                           : 
PRODUCER-NAME      .         Halliburton                   : 
RMB                .ohm.m    -999.25                       : RESISTIVITY OF MUD - BHT
RMCS               .ohm.m    -999.25                       : RESISTIVITY OF MUDCAKE SAMPLE
RMFS               .ohm.m    -999.25                       : RESISTIVITY OF MUD FILTRATE SAMPLE
RMS                .ohm.m    -999.25                       : RESISTIVITY OF MUD SAMPLE
RUN                .         01                            : RUN NUMBER 1
TCS                .h        09_00                         : TIME CIRCULATION STOPPED
TDD                .M        5315.0                        : DRILLERS DEPTH
TDL                .M        5316.9                        : LOGGERS DEPTH
TLAB               .h        08_00                         : TIME LOGGING ON BOTTOM
TLI                .M        5013.8                        : TOP LOGGED INTERVAL
X                  .M        683110.00000000               : X UTM Coordinate
Y                  .M        7157356.00000000              : Y UTM Coordinate
~Parameter Information Block
#_______________________________________________________________________________
#
#PARAMETER_NAME    .UNIT     VALUE                         : DESCRIPTION
#_______________________________________________________________________________
SET                .         BASE                          : 
TLFamily_BS        .         Bit Size                      : 
TLFamily_DT        .         Compressional Slowness        : 
TLFamily_DWAL      .         Aluminum Weight Fraction      : 
TLFamily_DWCA      .         Calcium Weight Fraction       : 
TLFamily_DWFE      .         Iron Weight Fraction          : 
TLFamily_DWGD      .         Gadolinium Weight Fraction    : 
TLFamily_DWK       .         Potassium Weight Fraction     : 
TLFamily_DWMG      .         Magnesium Weight Fraction     : 
TLFamily_DWMN      .         Manganese Weight Fraction     : 
TLFamily_DWS       .         Sulfur Weight Fraction        : 
TLFamily_DWSI      .         Silicon Weight Fraction       : 
TLFamily_DWTI      .         Titanium Weight Fraction      : 
TLFamily_GR        .         Gamma Ray                     : 
TLFamily_GRt       .         Gamma Ray                     : 
TLFamily_HCAL      .         Caliper                       : 
TLFamily_HDRA      .         Bulk Density Correction       : 
TLFamily_HFK       .         Potassium Concentration       : 
TLFamily_HTHO      .         Thorium Concentration         : 
TLFamily_HURA      .         Uranium Concentration         : 
TLFamily_MD        .         Measured Depth                : 
TLFamily_MPERM     .         NMR Permeability              : 
TLFamily_NMRE_Final .         NMR Bound Fluid Volume Fraction: 
TLFamily_NMRFL_Final .         NMR Free Fluids               : 
TLFamily_NMRT_Final .         NMR Porosity                  : 
TLFamily_NPHI      .         Neutron Porosity              : 
TLFamily_PE        .         Photoelectric Factor          : 
TLFamily_RD        .         Resistivity - Deep            : 
TLFamily_RHOB      .         Bulk Density                  : 
TLFamily_RM        .         Resistivity - Medium          : 
TLFamily_RS        .         Resistivity - Shallow         : 
TLFamily_T2LM      .         NMR T2 Logarithmic Mean       : 
TLFamily_TVDSS     .         True Vertical Depth Sub Sea   : 
~Curve Information
#_______________________________________________________________________________
#
#LOGNAME           .UNIT     LOG_ID                        : DESCRIPTION
#_______________________________________________________________________________
DEPTH              .M                                      :  
BS                 .in                                     : BS/Bit Size 
DT                 .us/ft                                  : DTC/MonoDeltaT 
DWAL               .kg/kg                                  : DAL/DryrockAlWF 
DWCA               .kg/kg                                  : DCA/DryrockCaWF 
DWFE               .kg/kg                                  : DFE/DryrockFeWF 
DWGD               .ppm                                    : DGD/DryrockGdWF 
DWK                .kg/kg                                  : DK/DryrockKWF 
DWMG               .kg/kg                                  : DMG/DryrockMgWF 
DWMN               .kg/kg                                  : DMN/DryrockMnWF 
DWS                .kg/kg                                  : DSUL/DryrockSuWF 
DWSI               .kg/kg                                  : DSI/DryrockSiWF 
DWTI               .kg/kg                                  : DTI/DryrockTiWF 
GR                 .gAPI                                   : GR/Gamma API 
GRt                .gAPI                                   : GKUT/GammaKUT 
HCAL               .in                                     : CALI/Caliper 
HDRA               .g/cm3                                  : Density Delta Rho Filtered 
HFK                .%                                      : POTA/Potassium 
HTHO               .ppm                                    : THOR/Thorium 
HURA               .ppm                                    : URAN/Uranium 
MPERM              .mD                                     : MPERMT2/MrilT2KCoat 
NMRE_Final         .m3/m3                                  : MPHIT2/TA-grp T2 Effective Por 
NMRFL_Final        .unitless                               : MFFIT2/TA-grp T2 FreeFluid Ind 
NMRT_Final         .frac                                   : MSIGT2/TA-grp T2 Total Por. 
NPHI               .frac                                   : POROSIDADE NEUTRONICA (COMPOSICAO DE CURVAS CABO E/OU LWD) 
PE                 .b/e                                    : Density PE Filtered 
RD                 .ohm.m                                  : RT90/90in Resistivity 2ft Res 
RHOB               .g/cm3                                  : DENSIDADE (COMPOSICAO DE CURVAS CABO E/OU LWD ) 
RM                 .ohm.m                                  : RT30/30in Resistivity 2ft Res 
RS                 .ohm.m                                  : RT10/10in Resistivity 2ft Res 
T2LM               .ms                                     : T2LM/T2 Log Mean 
TVDSS              .M                                      :  
~Ascii
# ...
5234.828   12.250     74.115     0.021      0.253      0.001      0.000      0.026      0.006      0.000      0.000      0.129      0.002      41.914     53.377     12.695     0.057      0.201      1.176      5.140      20.343     0.170      0.104      0.171      0.185      6.597      274.966    2.451      202.775    188.158    156.735    5105.367  
5234.980   12.250     73.123     0.020      0.277      0.001      0.000      0.025      0.009      0.000      0.001      0.095      0.002      43.755     54.856     12.761     0.044      0.162      1.586      5.222      23.177     0.179      0.108      0.182      0.209      6.615      500.447    2.439      319.456    280.592    156.538    5105.509  
5235.133   12.250     71.809     0.020      0.297      0.001      0.000      0.024      0.005      0.000      0.003      0.080      0.003      43.895     55.651     12.774     0.032      0.137      1.710      5.309      28.794     0.179      0.113      0.187      0.231      6.601      812.761    2.422      543.575    467.237    140.243    5105.650  
5235.285   12.250     70.482     0.018      0.307      0.002      0.000      0.022      0.009      0.000      0.003      0.063      0.003      43.217     55.158     12.767     0.024      0.125      1.601      5.316      31.822     0.171      0.115      0.184      0.235      6.576      1201.155   2.416      904.308    782.943    116.377    5105.792  
5235.437   12.250     69.437     0.017      0.308      0.002      0.000      0.021      0.011      0.000      0.002      0.060      0.003      42.562     54.117     12.820     0.029      0.113      1.520      5.252      27.406     0.155      0.110      0.172      0.220      6.785      1339.103   2.419      1032.036   901.956    102.288    5105.933  
5235.590   12.250     68.710     0.017      0.310      0.002      0.000      0.021      0.005      0.000      0.000      0.068      0.003      41.588     51.617     12.852     0.039      0.093      1.315      5.088      20.337     0.135      0.100      0.151      0.197      7.234      1390.174   2.420      1043.709   925.639    102.539    5106.074  
5235.742   12.250     67.783     0.017      0.310      0.002      0.000      0.021      0.001      0.000      0.000      0.076      0.002      38.851     49.663     12.874     0.043      0.100      1.307      4.859      14.253     0.124      0.092      0.138      0.182      7.576      1392.576   2.415      1020.308   915.282    108.435    5106.216  
5235.895   12.250     67.653     0.015      0.298      0.002      0.000      0.019      0.000      0.000      0.000      0.093      0.002      37.060     46.698     12.829     0.041      0.120      1.426      4.449      8.874      0.121      0.084      0.136      0.177      7.704      1370.575   2.410      977.437    875.957    105.751    5106.357  
5236.047   12.250     68.171     0.015      0.288      0.002      0.000      0.018      0.000      0.001      0.000      0.106      0.001      34.350     45.296     12.762     0.042      0.160      1.464      4.207      7.900      0.125      0.082      0.140      0.179      7.806      1346.758   2.410      951.989    873.435    106.910    5106.498  
5236.199   12.250     68.613     0.015      0.276      0.002      0.000      0.019      0.000      0.001      0.001      0.120      0.001      33.515     44.298     12.699     0.047      0.219      1.526      3.966      9.567      0.131      0.086      0.143      0.181      7.888      1318.335   2.410      929.081    860.265    122.353    5106.640  
5236.352   12.250     68.650     0.015      0.260      0.001      0.000      0.018      0.000      0.001      0.001      0.139      0.001      32.905     43.038     12.734     0.050      0.306      1.567      3.652      15.248     0.138      0.094      0.142      0.177      7.846      1264.455   2.411      898.918    846.118    156.974    5106.781  
5236.504   12.250     68.416     0.014      0.252      0.001      0.000      0.017      0.000      0.001      0.002      0.149      0.001      31.206     42.325     12.734     0.045      0.331      1.514      3.547      21.319     0.139      0.098      0.140      0.171      7.651      1235.473   2.420      895.103    846.503    177.842    5106.922  
5236.657   12.250     67.341     0.012      0.248      0.000      0.000      0.015      0.000      0.001      0.003      0.156      0.001      27.673     40.347     12.680     0.040      0.355      1.551      3.270      22.719     0.133      0.097      0.133      0.163      7.435      1210.213   2.437      929.854    866.259    187.681    5107.064  
5236.809   12.250     66.031     0.012      0.247      0.000      0.000      0.015      0.000      0.000      0.005      0.157      0.001      26.844     38.489     12.646     0.037      0.346      1.587      3.066      19.867     0.128      0.094      0.128      0.150      7.218      1206.027   2.458      975.500    903.207    190.764    5107.205  
5236.961   12.250     65.620     0.012      0.243      0.000      0.000      0.014      0.000      0.000      0.006      0.161      0.001      27.127     35.494     12.634     0.033      0.313      1.710      2.747      17.264     0.127      0.092      0.129      0.140      7.007      1148.729   2.468      969.258    864.862    179.935    5107.347  
5237.114   12.250     65.201     0.012      0.239      0.000      0.000      0.014      0.000      0.000      0.006      0.167      0.001      26.246     33.970     12.625     0.026      0.291      1.810      2.579      15.125     0.127      0.091      0.133      0.137      6.852      1024.151   2.459      866.815    769.373    160.352    5107.488  
5237.266   12.250     65.452     0.012      0.232      0.000      0.000      0.015      0.000      0.001      0.006      0.175      0.001      24.988     33.289     12.629     0.019      0.242      1.676      2.643      12.363     0.131      0.089      0.138      0.140      6.718      644.357    2.442      522.375    460.815    153.557    5107.629  
5237.419   12.250     66.183     0.012      0.223      0.000      0.000      0.015      0.000      0.001      0.006      0.184      0.001      25.904     34.084     12.630     0.015      0.200      1.566      2.848      9.461      0.136      0.085      0.140      0.146      6.609      344.963    2.429      280.865    253.572    159.052    5107.771  
5237.571   12.250     66.250     0.013      0.215      0.000      0.000      0.017      0.000      0.001      0.006      0.192      0.002      28.267     36.533     12.646     0.014      0.180      1.433      3.206      7.791      0.137      0.082      0.138      0.151      6.557      154.252    2.428      137.913    131.515    168.182    5107.912  
5237.723   12.250     65.871     0.014      0.216      0.000      0.000      0.017      0.000      0.000      0.006      0.190      0.002      30.717     39.034     12.643     0.017      0.176      1.414      3.500      10.939     0.134      0.087      0.134      0.156      6.501      102.708    2.436      93.157     89.823     197.870    5108.054  
5237.876   12.250     65.351     0.012      0.224      0.000      0.000      0.014      0.004      0.000      0.008      0.176      0.002      35.295     43.488     12.629     0.023      0.180      1.531      3.945      23.148     0.133      0.097      0.134      0.164      6.408      70.733     2.439      65.434     64.482     227.886    5108.195  
5238.028   12.250     64.949     0.012      0.238      0.000      0.000      0.014      0.005      0.000      0.009      0.157      0.002      38.967     47.109     12.621     0.026      0.211      1.554      4.283      57.755     0.137      0.110      0.138      0.173      6.352      63.248     2.436      59.452     59.711     236.435    5108.336  
5238.181   12.250     64.989     0.015      0.266      0.000      0.000      0.019      0.001      0.000      0.010      0.126      0.003      41.507     50.659     12.635     0.021      0.275      1.639      4.530      83.624     0.140      0.116      0.142      0.182      6.489      67.136     2.426      64.121     66.329     226.859    5108.478  
