~Version
 VERS              .         2.0                           : CWLS LOG ASCII STANDARD - VERSION 2.0
 WRAP              .         NO                            : ONE LINE PER DEPTH STEP
 DLM               .         SPACE                         : DELIMITING CHARACTER(SPACE TAB OR COMMA)
~Well Information
#_______________________________________________________________________________
#
#PARAMETER_NAME    .UNIT     VALUE                         : DESCRIPTION
#_______________________________________________________________________________
STRT               .M        5014.000                      : First reference value
STOP               .M        5322.763                      : Last reference value
STEP               .M        0.152                         : Step increment
NULL               .         -9999                         : Missing value
COMP               .         PETROBRAS                     : Company
WELL               .         7-SPH-20D-SPS                 : Well name
FLD                .         SAPINHOA                      : Field
LOC                .                                       : Location
CNTY               .                                       : County
STAT               .         SAO PAULO                     : State
CTRY               .         BRASIL                        : Country
SRVC               .                                       : Service Company
DATE               .                                       : Date
API                .         863160046300                  : API number
APD                .M        26.0                          : ABOVE PERMANENT DATUM
BHT                .degF     140.0                         : BOTTOMHOLE TEMPERATURE
BLI                .M        5313.7                        : BOTTOM LOGGED INTERVAL
BS                 .in       12.25                         : BIT SIZE
DCS                .         31/01/2016                    : DATE CIRCULATION STOPPED
DFD                .lb/gal   9.7                           : DRILLING FLUID DENSITY
DFT                .         OLEDRILL(BASE OLEFINA)        : DRILLING FLUID TYPE
DLAB               .         01/02/2016                    : DATE LOGGING ON BOTTOM
EDF                .M        26.0                          : ELEVATION OF DRILLING FLOOR
EGL                .M        -2129.0                       : ELEVATION OF GROUND LEVEL
EKB                .M        26.0                          : ELEVATION OF KELLY BUSHING
EPD                .M        0                             : ELEVATATION OF PERMANENT DATUM
GDAT               .         SIRGAS2000                    : Geodetic Datum
LMF                .         MR                            : LOG MEASURED FROM
LUL                .         MCE                           : LOGGING UNIT LOCATION
LUN                .         11792307                      : LOGGING UNIT NUMBER
LATI               .         -25_41_36.136                 : Latitude
LONG               .         -43_10_30,988                 : LONGITUDE
MCST               .degF     -999.25                       : MUDCAKE SAMPLE TEMPERATURE
MFST               .degF     -999.25                       : MUD FILTRATE SAMPLE TEMPERATURE
MRT                .degF     140.0                         : MAXIMUM RECORDED TEMPERATURE
MST                .degF     -999.25                       : MUD SAMPLE TEMPERATURE
ORIGINALWELLNAME   .         7SPH 0020D SPS                : 
PDAT               .         NM                            : PERMANENT DATUM
PRODUCER-CODE      .         280                           : 
PRODUCER-NAME      .         Halliburton                   : 
RMB                .ohm.m    -999.25                       : RESISTIVITY OF MUD - BHT
RMCS               .ohm.m    -999.25                       : RESISTIVITY OF MUDCAKE SAMPLE
RMFS               .ohm.m    -999.25                       : RESISTIVITY OF MUD FILTRATE SAMPLE
RMS                .ohm.m    -999.25                       : RESISTIVITY OF MUD SAMPLE
RUN                .         01                            : RUN NUMBER 1
TCS                .h        09_00                         : TIME CIRCULATION STOPPED
TDD                .M        5315.0                        : DRILLERS DEPTH
TDL                .M        5316.9                        : LOGGERS DEPTH
TLAB               .h        08_00                         : TIME LOGGING ON BOTTOM
TLI                .M        5013.8                        : TOP LOGGED INTERVAL
X                  .M        683110.00000000               : X UTM Coordinate
Y                  .M        7157356.00000000              : Y UTM Coordinate
~Parameter Information Block
#_______________________________________________________________________________
#
#PARAMETER_NAME    .UNIT     VALUE                         : DESCRIPTION
#_______________________________________________________________________________
SET                .         BASE                          : 
TLFamily_BS        .         Bit Size                      : 
TLFamily_DT        .         Compressional Slowness        : 
TLFamily_DWAL      .         Aluminum Weight Fraction      : 
TLFamily_DWCA      .         Calcium Weight Fraction       : 
TLFamily_DWFE      .         Iron Weight Fraction          : 
TLFamily_DWGD      .         Gadolinium Weight Fraction    : 
TLFamily_DWK       .         Potassium Weight Fraction     : 
TLFamily_DWMG      .         Magnesium Weight Fraction     : 
TLFamily_DWMN      .         Manganese Weight Fraction     : 
TLFamily_DWS       .         Sulfur Weight Fraction        : 
TLFamily_DWSI      .         Silicon Weight Fraction       : 
TLFamily_DWTI      .         Titanium Weight Fraction      : 
TLFamily_GR        .         Gamma Ray                     : 
TLFamily_GRt       .         Gamma Ray                     : 
TLFamily_HCAL      .         Caliper                       : 
TLFamily_HDRA      .         Bulk Density Correction       : 
TLFamily_HFK       .         Potassium Concentration       : 
TLFamily_HTHO      .         Thorium Concentration         : 
TLFamily_HURA      .         Uranium Concentration         : 
TLFamily_MD        .         Measured Depth                : 
TLFamily_MPERM     .         NMR Permeability              : 
TLFamily_NMRE_Final .         NMR Bound Fluid Volume Fraction: 
TLFamily_NMRFL_Final .         NMR Free Fluids               : 
TLFamily_NMRT_Final .         NMR Porosity                  : 
TLFamily_NPHI      .         Neutron Porosity              : 
TLFamily_PE        .         Photoelectric Factor          : 
TLFamily_RD        .         Resistivity - Deep            : 
TLFamily_RHOB      .         Bulk Density                  : 
TLFamily_RM        .         Resistivity - Medium          : 
TLFamily_RS        .         Resistivity - Shallow         : 
TLFamily_T2LM      .         NMR T2 Logarithmic Mean       : 
TLFamily_TVDSS     .         True Vertical Depth Sub Sea   : 
~Curve Information
#_______________________________________________________________________________
#
#LOGNAME           .UNIT     LOG_ID                        : DESCRIPTION
#_______________________________________________________________________________
DEPTH              .M                                      :  
BS                 .in                                     : BS/Bit Size 
DT                 .us/ft                                  : DTC/MonoDeltaT 
DWAL               .kg/kg                                  : DAL/DryrockAlWF 
DWCA               .kg/kg                                  : DCA/DryrockCaWF 
DWFE               .kg/kg                                  : DFE/DryrockFeWF 
DWGD               .ppm                                    : DGD/DryrockGdWF 
DWK                .kg/kg                                  : DK/DryrockKWF 
DWMG               .kg/kg                                  : DMG/DryrockMgWF 
DWMN               .kg/kg                                  : DMN/DryrockMnWF 
DWS                .kg/kg                                  : DSUL/DryrockSuWF 
DWSI               .kg/kg                                  : DSI/DryrockSiWF 
DWTI               .kg/kg                                  : DTI/DryrockTiWF 
GR                 .gAPI                                   : GR/Gamma API 
GRt                .gAPI                                   : GKUT/GammaKUT 
HCAL               .in                                     : CALI/Caliper 
HDRA               .g/cm3                                  : Density Delta Rho Filtered 
HFK                .%                                      : POTA/Potassium 
HTHO               .ppm                                    : THOR/Thorium 
HURA               .ppm                                    : URAN/Uranium 
MPERM              .mD                                     : MPERMT2/MrilT2KCoat 
NMRE_Final         .m3/m3                                  : MPHIT2/TA-grp T2 Effective Por 
NMRFL_Final        .unitless                               : MFFIT2/TA-grp T2 FreeFluid Ind 
NMRT_Final         .frac                                   : MSIGT2/TA-grp T2 Total Por. 
NPHI               .frac                                   : POROSIDADE NEUTRONICA (COMPOSICAO DE CURVAS CABO E/OU LWD) 
PE                 .b/e                                    : Density PE Filtered 
RD                 .ohm.m                                  : RT90/90in Resistivity 2ft Res 
RHOB               .g/cm3                                  : DENSIDADE (COMPOSICAO DE CURVAS CABO E/OU LWD ) 
RM                 .ohm.m                                  : RT30/30in Resistivity 2ft Res 
RS                 .ohm.m                                  : RT10/10in Resistivity 2ft Res 
T2LM               .ms                                     : T2LM/T2 Log Mean 
TVDSS              .M                                      :  
~Ascii
# ...
5143.693   12.250     57.213     0.015      0.275      0.000      0.000      0.018      0.023      0.000      0.001      0.086      0.002      29.935     37.639     13.091     0.062      0.279      1.380      3.169      6.633      0.080      0.065      0.081      0.111      7.457      167.414    2.536      146.713    155.239    278.357    5021.292  
5143.845   12.250     57.800     0.016      0.263      0.000      0.000      0.019      0.030      0.000      0.000      0.086      0.002      31.830     38.460     13.099     0.064      0.285      1.467      3.215      11.891     0.083      0.069      0.083      0.112      7.434      109.759    2.535      98.504     103.599    273.875    5021.431  
5143.997   12.250     58.695     0.018      0.260      0.000      0.000      0.022      0.027      0.000      0.000      0.091      0.003      33.844     39.751     13.113     0.067      0.275      1.510      3.362      6.762      0.083      0.066      0.083      0.114      7.427      69.826     2.537      63.828     67.354     215.313    5021.571  
5144.150   12.250     60.222     0.021      0.278      0.001      0.000      0.026      0.004      0.000      0.000      0.100      0.004      35.636     41.919     13.115     0.070      0.238      1.450      3.692      1.841      0.082      0.055      0.082      0.119      7.437      39.240     2.543      36.736     39.637     165.548    5021.710  
5144.302   12.250     61.205     0.022      0.282      0.001      0.000      0.027      0.001      0.000      0.000      0.101      0.005      35.468     42.417     13.108     0.075      0.226      1.431      3.776      0.686      0.082      0.045      0.082      0.127      7.423      30.970     2.549      29.262     32.113     147.612    5021.850  
5144.455   12.250     61.401     0.024      0.291      0.000      0.000      0.030      0.000      0.000      0.000      0.087      0.005      32.587     41.797     13.106     0.079      0.184      1.500      3.759      0.315      0.082      0.037      0.083      0.137      7.380      25.420     2.552      24.197     27.300     131.416    5021.990  
5144.607   12.250     61.249     0.025      0.299      0.000      0.000      0.031      0.001      0.000      0.000      0.076      0.006      30.267     40.739     13.113     0.083      0.181      1.474      3.656      0.233      0.080      0.034      0.083      0.143      7.357      24.662     2.552      23.508     27.007     110.481    5022.129  
5144.759   12.250     61.169     0.022      0.295      0.000      0.000      0.028      0.014      0.000      0.000      0.063      0.005      28.751     39.459     13.145     0.086      0.192      1.400      3.521      0.365      0.076      0.039      0.084      0.144      7.354      24.799     2.549      23.640     27.714     92.868     5022.269  
5144.912   12.250     61.124     0.021      0.287      0.001      0.000      0.026      0.025      0.000      0.000      0.056      0.005      28.915     39.839     13.167     0.086      0.208      1.282      3.578      0.842      0.076      0.048      0.085      0.145      7.330      23.991     2.547      22.899     26.850     86.967     5022.408  
5145.064   12.250     60.862     0.020      0.302      0.001      0.000      0.025      0.020      0.000      0.000      0.049      0.003      30.989     41.608     13.178     0.086      0.299      1.080      3.685      1.785      0.079      0.056      0.087      0.148      7.330      22.653     2.546      21.668     25.093     91.526     5022.548  
5145.217   12.250     60.508     0.020      0.317      0.001      0.000      0.025      0.008      0.000      0.000      0.050      0.003      34.224     43.951     13.169     0.086      0.370      0.983      3.854      2.323      0.085      0.058      0.088      0.151      7.320      24.432     2.548      23.313     26.909     98.438     5022.688  
5145.369   12.250     60.147     0.017      0.301      0.001      0.000      0.021      0.018      0.000      0.001      0.058      0.003      40.035     47.562     13.129     0.081      0.424      0.828      4.216      1.683      0.085      0.055      0.086      0.149      7.332      33.066     2.549      31.199     36.475     105.516    5022.827  
5145.521   12.250     59.813     0.015      0.285      0.000      0.000      0.019      0.029      0.000      0.003      0.061      0.003      44.592     49.311     13.101     0.075      0.432      0.713      4.439      1.099      0.080      0.050      0.080      0.144      7.437      42.103     2.549      39.316     46.464     124.816    5022.967  
5145.674   12.250     59.202     0.014      0.268      0.000      0.000      0.018      0.039      0.000      0.006      0.065      0.003      44.246     50.806     13.084     0.071      0.366      0.497      4.807      0.988      0.076      0.048      0.076      0.135      7.490      51.845     2.550      48.004     56.028     146.541    5023.107  
5145.826   12.250     59.130     0.013      0.251      0.000      0.000      0.017      0.048      0.000      0.006      0.071      0.003      40.132     50.917     13.089     0.066      0.299      0.290      5.017      0.929      0.073      0.047      0.074      0.129      7.400      58.358     2.558      53.779     60.776     148.561    5023.246  
5145.979   12.250     59.632     0.012      0.218      0.000      0.000      0.015      0.066      0.000      0.005      0.082      0.002      36.071     49.704     13.100     0.062      0.249      0.185      5.013      0.788      0.072      0.046      0.074      0.132      7.217      81.077     2.562      73.037     82.121     112.693    5023.386  
5146.131   12.250     61.102     0.013      0.225      0.000      0.000      0.016      0.056      0.000      0.006      0.089      0.002      36.188     48.393     13.109     0.063      0.248      0.125      4.891      0.711      0.073      0.046      0.083      0.129      7.135      119.918    2.548      104.112    120.490    68.375     5023.526  
5146.283   12.250     63.187     0.014      0.270      0.000      0.000      0.018      0.019      0.000      0.010      0.093      0.002      36.725     46.704     13.113     0.065      0.278      0.126      4.649      0.772      0.080      0.047      0.098      0.126      7.124      218.026    2.516      174.475    207.705    47.210     5023.665  
5146.436   12.250     64.928     0.013      0.295      0.000      0.000      0.017      0.002      0.000      0.012      0.091      0.002      35.440     45.944     13.121     0.065      0.320      0.156      4.476      1.260      0.092      0.053      0.110      0.131      7.249      349.927    2.488      236.477    291.588    53.909     5023.805  
5146.588   12.250     66.301     0.011      0.306      0.000      0.000      0.014      0.004      0.001      0.012      0.079      0.001      33.614     45.148     13.164     0.067      0.345      0.163      4.340      3.247      0.108      0.066      0.116      0.147      7.495      665.106    2.443      403.804    523.724    84.084     5023.945  
5146.741   12.250     67.223     0.011      0.316      0.000      0.000      0.014      0.005      0.001      0.011      0.068      0.001      32.896     44.395     13.204     0.074      0.330      0.280      4.240      5.706      0.116      0.075      0.119      0.165      7.748      828.524    2.405      508.317    631.088    108.858    5024.084  
5146.893   12.250     67.769     0.010      0.324      0.000      0.000      0.013      0.011      0.001      0.009      0.050      0.001      33.250     43.630     13.206     0.081      0.341      0.512      4.047      4.588      0.120      0.072      0.120      0.172      7.844      996.730    2.392      625.118    716.791    111.587    5024.224  
5147.045   12.250     68.214     0.008      0.323      0.000      0.000      0.010      0.018      0.001      0.008      0.044      0.001      33.044     43.222     13.141     0.078      0.356      0.582      3.949      2.295      0.118      0.062      0.120      0.171      7.725      1100.356   2.402      696.014    759.475    97.414     5024.364  
