~Version
 VERS              .         2.0                           : CWLS LOG ASCII STANDARD - VERSION 2.0
 WRAP              .         NO                            : ONE LINE PER DEPTH STEP
 DLM               .         SPACE                         : DELIMITING CHARACTER(SPACE TAB OR COMMA)
~Well Information
#_______________________________________________________________________________
#
#PARAMETER_NAME    .UNIT     VALUE                         : DESCRIPTION
#_______________________________________________________________________________
STRT               .M        4949.000                      : First reference value
STOP               .M        5060.404                      : Last reference value
STEP               .M        0.152                         : Step increment
NULL               .         -9999                         : Missing value
COMP               .         PETROBRAS                     : Company
WELL               .         7-SPH-22-SPS                  : Well name
FLD                .         SAPINHOA                      : Field
LOC                .                                       : Location
CNTY               .                                       : County
STAT               .         SAO PAULO                     : State
CTRY               .         BR                            : Country
SRVC               .                                       : Service Company
DATE               .         25/07/2016                    : Date
API                .         863160046800                  : API number
APD                .M        26.0                          : ABOVE PERMANENT DATUM
BHT                .degF     140.0                         : BOTTOMHOLE TEMPERATURE
BLI                .M        5055.8                        : BOTTOM LOGGED INTERVAL
BS                 .in       8.5                           : BIT SIZE
CBDR               .M        4981                          : Casing Bottom (Driller)
CBLO               .M        4981                          : Casing Bottom of Logger
CSIZ               .in       10.75                         : Casing Outer Diameter
CWEI               .lb/ft    85.3                          : Casing Weight
DCS                .         23/07/2016                    : DATE CIRCULATION STOPPED
DFD                .lb/gal   9.7                           : DRILLING FLUID DENSITY
DFT                .         CATIONICO_SCOL (BASE AGUA)    : DRILLING FLUID TYPE
DLAB               .         25/07/2016                    : DATE LOGGING ON BOTTOM
EDF                .M        26.0                          : ELEVATION OF DRILLING FLOOR
EGL                .M        -2144.0                       : ELEVATION OF GROUND LEVEL
EKB                .M        -999.25                       : ELEVATION OF KELLY BUSHING
EPD                .M        0.0                           : ELEVATATION OF PERMANENT DATUM
GDAT               .                                       : Geodetic Datum
LMF                .         MR                            : LOG MEASURED FROM
LUL                .         MCE                           : LOGGING UNIT LOCATION
LUN                .         10898943                      : LOGGING UNIT NUMBER
LATI               .         -25_48_08.320                 : Latitude
LONG               .         -43_13_44,430                 : LONGITUDE
MCST               .degF     66.1                          : MUDCAKE SAMPLE TEMPERATURE
MFST               .degF     66.4                          : MUD FILTRATE SAMPLE TEMPERATURE
MRT                .degF     140.0                         : MAXIMUM RECORDED TEMPERATURE
MST                .degF     65.8                          : MUD SAMPLE TEMPERATURE
ORIGINALWELLNAME   .         7SPH 0022  SPS                : 
PDAT               .         NM                            : PERMANENT DATUM
PRODUCER-CODE      .         280                           : 
PRODUCER-NAME      .         Halliburton                   : 
RMB                .ohm.m    0.040                         : RESISTIVITY OF MUD - BHT
RMCS               .ohm.m    0.140                         : RESISTIVITY OF MUDCAKE SAMPLE
RMFS               .ohm.m    0.012                         : RESISTIVITY OF MUD FILTRATE SAMPLE
RMS                .ohm.m    0.080                         : RESISTIVITY OF MUD SAMPLE
RUN                .         01                            : RUN NUMBER 1
TCS                .h        19_00                         : TIME CIRCULATION STOPPED
TDD                .M        5058.0                        : DRILLERS DEPTH
TDL                .M        5057.1                        : LOGGERS DEPTH
TLAB               .h        07_15                         : TIME LOGGING ON BOTTOM
TLI                .M        4950.0                        : TOP LOGGED INTERVAL
X                  .M        677550.00000000               : X or East-West coordinate
Y                  .M        7145014.00000000              : Y or North South coordinate
~Parameter Information Block
#_______________________________________________________________________________
#
#PARAMETER_NAME    .UNIT     VALUE                         : DESCRIPTION
#_______________________________________________________________________________
SET                .         BASE                          : 
TLFamily_BS        .         Bit Size                      : 
TLFamily_DT        .         Compressional Slowness        : 
TLFamily_DWAL      .         Aluminum Weight Fraction      : 
TLFamily_DWCA      .         Calcium Weight Fraction       : 
TLFamily_DWFE      .         Iron Weight Fraction          : 
TLFamily_DWK       .         Potassium Weight Fraction     : 
TLFamily_DWMG      .         Magnesium Weight Fraction     : 
TLFamily_DWMN      .         Manganese Weight Fraction     : 
TLFamily_DWS       .         Sulfur Weight Fraction        : 
TLFamily_DWSI      .         Silicon Weight Fraction       : 
TLFamily_DWTI      .         Titanium Weight Fraction      : 
TLFamily_GR        .         Gamma Ray                     : 
TLFamily_GRt       .         Gamma Ray                     : 
TLFamily_HCAL      .         Caliper                       : 
TLFamily_HDRA      .         Bulk Density Correction       : 
TLFamily_HFK       .         Potassium Concentration       : 
TLFamily_HTHO      .         Thorium Concentration         : 
TLFamily_HURA      .         Uranium Concentration         : 
TLFamily_MD        .         Measured Depth                : 
TLFamily_MPERM     .         NMR Permeability              : 
TLFamily_NMRE_Final .         NMR Bound Fluid Volume Fraction: 
TLFamily_NMRFL_Final .         NMR Free Fluids               : 
TLFamily_NMRT_Final .         NMR Porosity                  : 
TLFamily_NPHI      .         Neutron Porosity              : 
TLFamily_PE        .         Photoelectric Factor          : 
TLFamily_RD        .         Resistivity - Deep            : 
TLFamily_RHOB      .         Bulk Density                  : 
TLFamily_RS        .         Resistivity - Shallow         : 
TLFamily_T2LM      .         NMR T2 Logarithmic Mean       : 
TLFamily_TVDSS     .         True Vertical Depth Sub Sea   : 
~Curve Information
#_______________________________________________________________________________
#
#LOGNAME           .UNIT     LOG_ID                        : DESCRIPTION
#_______________________________________________________________________________
DEPTH              .M                                      :  
BS                 .in                                     : BS/Bit Size 
DT                 .us/ft                                  : SONICO COMPRESSIONAL (COMPOSICAO DE CURVAS CABO E/OU LWD) 
DWAL               .kg/kg                                  : DAL/DryrockAlWF 
DWCA               .kg/kg                                  : DCA/DryrockCaWF 
DWFE               .kg/kg                                  : DFE/DryrockFeWF 
DWK                .kg/kg                                  : DK/DryrockKWF 
DWMG               .kg/kg                                  : DMG/DryrockMgWF 
DWMN               .kg/kg                                  : DMN/DryrockMnWF 
DWS                .kg/kg                                  : DSUL/DryrockSuWF 
DWSI               .kg/kg                                  : DSI/DryrockSiWF 
DWTI               .kg/kg                                  : DTI/DryrockTiWF 
GR                 .gAPI                                   : GR/Gamma API 
GRt                .gAPI                                   : GKUT/GammaKUT 
HCAL               .in                                     : CALI/Caliper 
HDRA               .g/cm3                                  : DRHO/DensityCorr 
HFK                .%                                      : POTA/Potassium 
HTHO               .ppm                                    : THOR/Thorium 
HURA               .ppm                                    : URAN/Uranium 
MPERM              .mD                                     : MPERMT2/MrilT2KCoat 
NMRE_Final         .m3/m3                                  : MPHIT2/TA-grp T2 Effective Por 
NMRFL_Final        .unitless                               : MFFIT2/TA-grp T2 FreeFluid Ind 
NMRT_Final         .frac                                   : MSIGT2/TA-grp T2 Total Por. 
NPHI               .frac                                   : NPHI/Neutron Porosity 
PE                 .b/e                                    : PE/Pe 
RD                 .ohm.m                                  : LLD/LLD 
RHOB               .g/cm3                                  : RHOB/Density 
RS                 .ohm.m                                  : LLS/LLS 
T2LM               .ms                                     : T2LM/T2 Log Mean 
TVDSS              .M                                      :  
~Ascii
# ...
4975.670   -9999.000  -9999.000  -9999.000  -9999.000  -9999.000  -9999.000  -9999.000  -9999.000  -9999.000  -9999.000  -9999.000  15.766     -9999.000  -9999.000  -9999.000  -9999.000  -9999.000  -9999.000  -9999.000  -9999.000  -9999.000  -9999.000  -9999.000  -9999.000  -9999.000  -9999.000  -9999.000  -9999.000  4943.543  
4975.822   -9999.000  -9999.000  -9999.000  -9999.000  -9999.000  -9999.000  -9999.000  -9999.000  -9999.000  -9999.000  -9999.000  12.407     -9999.000  -9999.000  -9999.000  -9999.000  -9999.000  -9999.000  -9999.000  -9999.000  -9999.000  -9999.000  -9999.000  -9999.000  -9999.000  -9999.000  -9999.000  -9999.000  4943.694  
4975.975   -9999.000  -9999.000  -9999.000  -9999.000  -9999.000  -9999.000  -9999.000  -9999.000  -9999.000  -9999.000  -9999.000  10.145     -9999.000  -9999.000  -9999.000  -9999.000  -9999.000  -9999.000  -9999.000  -9999.000  -9999.000  -9999.000  -9999.000  -9999.000  -9999.000  -9999.000  -9999.000  -9999.000  4943.845  
4976.127   8.500      -9999.000  -9999.000  -9999.000  -9999.000  -9999.000  -9999.000  -9999.000  -9999.000  -9999.000  -9999.000  8.657      11.349     8.806      -1.815     0.024      1.222      0.776      -9999.000  -9999.000  -9999.000  -9999.000  0.383      9.928      19.768     2.086      26.706     -9999.000  4943.997  
4976.280   8.500      -9999.000  0.000      0.103      0.322      0.000      0.062      0.000      0.001      0.002      0.007      8.289      10.887     8.805      -1.819     0.023      1.244      0.718      -9999.000  -9999.000  -9999.000  -9999.000  0.394      10.286     19.768     2.072      26.705     -9999.000  4944.148  
4976.432   8.500      -9999.000  0.000      0.108      0.303      0.001      0.064      0.000      0.012      0.000      0.008      8.016      10.329     8.795      -1.818     0.052      1.352      0.566      -9999.000  -9999.000  -9999.000  -9999.000  0.381      10.740     19.768     2.030      26.704     -9999.000  4944.299  
4976.584   8.500      -9999.000  0.000      0.107      0.320      0.001      0.056      0.000      0.013      0.000      0.009      8.739      10.049     8.795      -1.806     0.083      1.382      0.468      -9999.000  -9999.000  -9999.000  -9999.000  0.379      10.706     19.777     2.016      26.703     -9999.000  4944.450  
4976.737   8.500      -9999.000  0.000      0.117      0.370      0.001      0.024      0.000      0.014      0.003      0.010      9.329      9.990      8.782      -1.732     0.132      1.416      0.363      -9999.000  -9999.000  -9999.000  -9999.000  0.401      10.475     19.781     2.078      26.698     -9999.000  4944.602  
4976.889   8.500      -9999.000  0.000      0.119      0.383      0.002      0.012      0.000      0.019      0.007      0.009      8.956      10.143     8.793      -1.700     0.156      1.379      0.350      -9999.000  -9999.000  -9999.000  -9999.000  0.407      10.643     19.779     2.123      26.701     -9999.000  4944.753  
4977.042   8.500      -9999.000  0.000      0.098      0.346      0.001      0.019      0.000      0.023      0.050      0.006      9.186      10.516     8.757      -1.663     0.174      1.223      0.417      -9999.000  -9999.000  -9999.000  -9999.000  0.391      10.102     19.779     2.186      26.698     -9999.000  4944.904  
4977.194   8.500      -9999.000  0.002      0.061      0.337      0.001      0.021      0.000      0.012      0.102      0.003      10.096     11.107     8.742      -1.638     0.180      1.037      0.541      -9999.000  -9999.000  -9999.000  -9999.000  0.410      8.987      19.766     2.263      26.706     -9999.000  4945.055  
4977.346   8.500      -9999.000  0.002      0.019      0.353      0.000      0.009      0.000      0.000      0.167      0.001      10.219     11.735     8.723      -1.633     0.167      0.790      0.724      -9999.000  -9999.000  -9999.000  -9999.000  0.379      8.491      19.779     2.296      26.699     -9999.000  4945.207  
4977.499   8.500      -9999.000  0.003      0.015      0.346      0.000      0.002      0.000      0.000      0.187      0.000      9.735      12.203     8.710      -1.628     0.147      0.647      0.863      -9999.000  -9999.000  -9999.000  -9999.000  0.358      8.444      19.781     2.356      26.704     -9999.000  4945.358  
4977.651   8.500      -9999.000  0.002      0.013      0.342      0.000      0.000      0.000      0.000      0.196      0.000      9.875      12.629     8.707      -1.632     0.134      0.760      0.892      -9999.000  -9999.000  -9999.000  -9999.000  0.353      8.837      19.776     2.414      26.696     -9999.000  4945.509  
4977.804   8.500      -9999.000  0.002      0.000      0.340      0.000      0.000      0.000      0.000      0.212      0.001      10.187     13.046     8.704      -1.644     0.123      0.939      0.894      -9999.000  -9999.000  -9999.000  -9999.000  0.338      9.331      19.767     2.422      26.704     -9999.000  4945.660  
4977.956   8.500      -9999.000  0.000      0.000      0.330      0.001      0.000      0.000      0.000      0.221      0.002      10.283     15.616     8.687      -1.644     0.139      1.134      1.081      -9999.000  -9999.000  -9999.000  -9999.000  0.337      8.775      19.767     2.421      26.700     -9999.000  4945.812  
4978.108   8.500      -9999.000  0.000      0.000      0.317      0.002      0.002      0.000      0.000      0.227      0.003      10.517     25.129     8.675      -1.633     0.274      1.102      1.913      -9999.000  -9999.000  -9999.000  -9999.000  0.329      7.317      19.764     2.447      26.706     -9999.000  4945.963  
4978.261   8.500      -9999.000  0.000      0.006      0.310      0.009      0.013      0.000      0.000      0.203      0.004      11.651     53.742     8.675      -1.625     0.733      0.828      4.387      -9999.000  -9999.000  -9999.000  -9999.000  0.337      6.065      19.769     2.480      26.705     -9999.000  4946.114  
4978.413   8.500      -9999.000  0.000      0.018      0.297      0.019      0.031      0.000      0.000      0.164      0.007      18.355     90.371     8.678      -1.613     1.299      0.524      7.575      -9999.000  -9999.000  -9999.000  -9999.000  0.343      5.344      19.765     2.484      26.704     -9999.000  4946.266  
4978.566   8.500      -9999.000  0.000      0.034      0.293      0.032      0.055      0.000      0.000      0.105      0.009      44.278     124.965    8.681      -1.623     1.840      0.237      10.575     -9999.000  -9999.000  -9999.000  -9999.000  0.344      5.347      19.766     2.392      26.702     -9999.000  4946.417  
4978.718   8.500      -9999.000  0.000      0.044      0.289      0.040      0.070      0.000      0.002      0.068      0.010      120.851    163.106    8.685      -1.620     2.407      0.000      13.908     -9999.000  -9999.000  -9999.000  -9999.000  0.327      6.008      19.774     2.237      26.703     -9999.000  4946.568  
4978.870   8.500      -9999.000  0.000      0.072      0.245      0.038      0.084      0.000      0.008      0.043      0.009      157.820    165.138    8.681      -1.445     2.408      0.000      14.132     -9999.000  -9999.000  -9999.000  -9999.000  0.322      6.274      19.768     2.335      26.706     -9999.000  4946.719  
4979.023   8.500      -9999.000  0.000      0.105      0.181      0.031      0.095      0.000      0.015      0.033      0.008      210.010    133.663    8.648      -0.862     1.881      0.071      11.532     -9999.000  -9999.000  -9999.000  -9999.000  0.363      5.594      19.762     2.629      26.700     -9999.000  4946.871  
4979.175   8.500      -9999.000  0.007      0.137      0.129      0.023      0.083      0.000      0.020      0.047      0.007      194.707    100.251    8.648      -0.522     1.363      0.206      8.678      -9999.000  -9999.000  -9999.000  -9999.000  0.370      4.740      19.765     2.674      26.703     -9999.000  4947.022  
4979.328   8.500      -9999.000  0.037      0.177      0.075      0.009      0.032      0.000      0.029      0.090      0.005      63.233     50.500     8.857      -0.039     0.606      0.357      4.421      -9999.000  -9999.000  -9999.000  -9999.000  0.377      4.622      19.765     2.793      26.705     -9999.000  4947.173  
