~Version
 VERS              .         2.0                           : CWLS LOG ASCII STANDARD - VERSION 2.0
 WRAP              .         NO                            : ONE LINE PER DEPTH STEP
 DLM               .         SPACE                         : DELIMITING CHARACTER(SPACE TAB OR COMMA)
~Well Information
#_______________________________________________________________________________
#
#PARAMETER_NAME    .UNIT     VALUE                         : DESCRIPTION
#_______________________________________________________________________________
STRT               .M        5014.000                      : First reference value
STOP               .M        5322.763                      : Last reference value
STEP               .M        0.152                         : Step increment
NULL               .         -9999                         : Missing value
COMP               .         PETROBRAS                     : Company
WELL               .         7-SPH-20D-SPS                 : Well name
FLD                .         SAPINHOA                      : Field
LOC                .                                       : Location
CNTY               .                                       : County
STAT               .         SAO PAULO                     : State
CTRY               .         BRASIL                        : Country
SRVC               .                                       : Service Company
DATE               .                                       : Date
API                .         863160046300                  : API number
APD                .M        26.0                          : ABOVE PERMANENT DATUM
BHT                .degF     140.0                         : BOTTOMHOLE TEMPERATURE
BLI                .M        5313.7                        : BOTTOM LOGGED INTERVAL
BS                 .in       12.25                         : BIT SIZE
DCS                .         31/01/2016                    : DATE CIRCULATION STOPPED
DFD                .lb/gal   9.7                           : DRILLING FLUID DENSITY
DFT                .         OLEDRILL(BASE OLEFINA)        : DRILLING FLUID TYPE
DLAB               .         01/02/2016                    : DATE LOGGING ON BOTTOM
EDF                .M        26.0                          : ELEVATION OF DRILLING FLOOR
EGL                .M        -2129.0                       : ELEVATION OF GROUND LEVEL
EKB                .M        26.0                          : ELEVATION OF KELLY BUSHING
EPD                .M        0                             : ELEVATATION OF PERMANENT DATUM
GDAT               .         SIRGAS2000                    : Geodetic Datum
LMF                .         MR                            : LOG MEASURED FROM
LUL                .         MCE                           : LOGGING UNIT LOCATION
LUN                .         11792307                      : LOGGING UNIT NUMBER
LATI               .         -25_41_36.136                 : Latitude
LONG               .         -43_10_30,988                 : LONGITUDE
MCST               .degF     -999.25                       : MUDCAKE SAMPLE TEMPERATURE
MFST               .degF     -999.25                       : MUD FILTRATE SAMPLE TEMPERATURE
MRT                .degF     140.0                         : MAXIMUM RECORDED TEMPERATURE
MST                .degF     -999.25                       : MUD SAMPLE TEMPERATURE
ORIGINALWELLNAME   .         7SPH 0020D SPS                : 
PDAT               .         NM                            : PERMANENT DATUM
PRODUCER-CODE      .         280                           : 
PRODUCER-NAME      .         Halliburton                   : 
RMB                .ohm.m    -999.25                       : RESISTIVITY OF MUD - BHT
RMCS               .ohm.m    -999.25                       : RESISTIVITY OF MUDCAKE SAMPLE
RMFS               .ohm.m    -999.25                       : RESISTIVITY OF MUD FILTRATE SAMPLE
RMS                .ohm.m    -999.25                       : RESISTIVITY OF MUD SAMPLE
RUN                .         01                            : RUN NUMBER 1
TCS                .h        09_00                         : TIME CIRCULATION STOPPED
TDD                .M        5315.0                        : DRILLERS DEPTH
TDL                .M        5316.9                        : LOGGERS DEPTH
TLAB               .h        08_00                         : TIME LOGGING ON BOTTOM
TLI                .M        5013.8                        : TOP LOGGED INTERVAL
X                  .M        683110.00000000               : X UTM Coordinate
Y                  .M        7157356.00000000              : Y UTM Coordinate
~Parameter Information Block
#_______________________________________________________________________________
#
#PARAMETER_NAME    .UNIT     VALUE                         : DESCRIPTION
#_______________________________________________________________________________
SET                .         BASE                          : 
TLFamily_BS        .         Bit Size                      : 
TLFamily_DT        .         Compressional Slowness        : 
TLFamily_DWAL      .         Aluminum Weight Fraction      : 
TLFamily_DWCA      .         Calcium Weight Fraction       : 
TLFamily_DWFE      .         Iron Weight Fraction          : 
TLFamily_DWGD      .         Gadolinium Weight Fraction    : 
TLFamily_DWK       .         Potassium Weight Fraction     : 
TLFamily_DWMG      .         Magnesium Weight Fraction     : 
TLFamily_DWMN      .         Manganese Weight Fraction     : 
TLFamily_DWS       .         Sulfur Weight Fraction        : 
TLFamily_DWSI      .         Silicon Weight Fraction       : 
TLFamily_DWTI      .         Titanium Weight Fraction      : 
TLFamily_GR        .         Gamma Ray                     : 
TLFamily_GRt       .         Gamma Ray                     : 
TLFamily_HCAL      .         Caliper                       : 
TLFamily_HDRA      .         Bulk Density Correction       : 
TLFamily_HFK       .         Potassium Concentration       : 
TLFamily_HTHO      .         Thorium Concentration         : 
TLFamily_HURA      .         Uranium Concentration         : 
TLFamily_MD        .         Measured Depth                : 
TLFamily_MPERM     .         NMR Permeability              : 
TLFamily_NMRE_Final .         NMR Bound Fluid Volume Fraction: 
TLFamily_NMRFL_Final .         NMR Free Fluids               : 
TLFamily_NMRT_Final .         NMR Porosity                  : 
TLFamily_NPHI      .         Neutron Porosity              : 
TLFamily_PE        .         Photoelectric Factor          : 
TLFamily_RD        .         Resistivity - Deep            : 
TLFamily_RHOB      .         Bulk Density                  : 
TLFamily_RM        .         Resistivity - Medium          : 
TLFamily_RS        .         Resistivity - Shallow         : 
TLFamily_T2LM      .         NMR T2 Logarithmic Mean       : 
TLFamily_TVDSS     .         True Vertical Depth Sub Sea   : 
~Curve Information
#_______________________________________________________________________________
#
#LOGNAME           .UNIT     LOG_ID                        : DESCRIPTION
#_______________________________________________________________________________
DEPTH              .M                                      :  
BS                 .in                                     : BS/Bit Size 
DT                 .us/ft                                  : DTC/MonoDeltaT 
DWAL               .kg/kg                                  : DAL/DryrockAlWF 
DWCA               .kg/kg                                  : DCA/DryrockCaWF 
DWFE               .kg/kg                                  : DFE/DryrockFeWF 
DWGD               .ppm                                    : DGD/DryrockGdWF 
DWK                .kg/kg                                  : DK/DryrockKWF 
DWMG               .kg/kg                                  : DMG/DryrockMgWF 
DWMN               .kg/kg                                  : DMN/DryrockMnWF 
DWS                .kg/kg                                  : DSUL/DryrockSuWF 
DWSI               .kg/kg                                  : DSI/DryrockSiWF 
DWTI               .kg/kg                                  : DTI/DryrockTiWF 
GR                 .gAPI                                   : GR/Gamma API 
GRt                .gAPI                                   : GKUT/GammaKUT 
HCAL               .in                                     : CALI/Caliper 
HDRA               .g/cm3                                  : Density Delta Rho Filtered 
HFK                .%                                      : POTA/Potassium 
HTHO               .ppm                                    : THOR/Thorium 
HURA               .ppm                                    : URAN/Uranium 
MPERM              .mD                                     : MPERMT2/MrilT2KCoat 
NMRE_Final         .m3/m3                                  : MPHIT2/TA-grp T2 Effective Por 
NMRFL_Final        .unitless                               : MFFIT2/TA-grp T2 FreeFluid Ind 
NMRT_Final         .frac                                   : MSIGT2/TA-grp T2 Total Por. 
NPHI               .frac                                   : POROSIDADE NEUTRONICA (COMPOSICAO DE CURVAS CABO E/OU LWD) 
PE                 .b/e                                    : Density PE Filtered 
RD                 .ohm.m                                  : RT90/90in Resistivity 2ft Res 
RHOB               .g/cm3                                  : DENSIDADE (COMPOSICAO DE CURVAS CABO E/OU LWD ) 
RM                 .ohm.m                                  : RT30/30in Resistivity 2ft Res 
RS                 .ohm.m                                  : RT10/10in Resistivity 2ft Res 
T2LM               .ms                                     : T2LM/T2 Log Mean 
TVDSS              .M                                      :  
~Ascii
# ...
5105.135   12.250     76.837     0.012      0.212      0.000      0.000      0.014      0.000      0.000      0.000      0.201      0.002      16.244     22.369     12.805     0.026      0.207      0.908      1.776      3038.569   0.188      0.177      0.188      0.223      5.949      1312.747   2.332      1355.604   1412.215   463.639    4986.211  
5105.288   12.250     76.797     0.013      0.265      0.000      0.000      0.016      0.000      0.000      0.000      0.138      0.002      16.714     23.406     12.860     0.024      0.271      0.859      1.795      4534.100   0.200      0.189      0.200      0.235      6.381      1341.207   2.324      1379.005   1429.176   468.602    4986.349  
5105.440   12.250     75.734     0.012      0.299      0.000      0.000      0.015      0.000      0.000      0.000      0.098      0.002      17.123     23.473     12.915     0.025      0.313      0.849      1.730      4193.597   0.207      0.195      0.208      0.247      6.713      1368.211   2.323      1400.433   1444.086   459.498    4986.486  
5105.593   12.250     74.271     0.011      0.340      0.000      0.000      0.014      0.000      0.000      0.001      0.051      0.002      17.833     22.351     12.991     0.026      0.374      1.092      1.401      6171.249   0.208      0.198      0.209      0.248      7.020      1439.184   2.325      1459.608   1488.793   457.057    4986.624  
5105.745   12.250     73.278     0.011      0.353      0.000      0.000      0.013      0.000      0.001      0.001      0.036      0.002      17.938     21.551     13.028     0.028      0.383      1.208      1.254      6388.918   0.204      0.195      0.205      0.241      7.214      1498.104   2.330      1510.176   1528.296   457.792    4986.762  
5105.897   12.250     72.146     0.011      0.358      0.000      0.000      0.013      0.000      0.000      0.002      0.030      0.002      17.944     20.953     13.062     0.031      0.354      1.202      1.241      5967.673   0.201      0.192      0.202      0.237      7.428      1557.016   2.335      1561.557   1569.101   454.774    4986.899  
5106.050   12.250     70.664     0.014      0.353      0.000      0.000      0.014      0.000      0.000      0.002      0.033      0.002      17.793     20.180     13.140     0.035      0.303      1.117      1.280      5061.455   0.196      0.186      0.196      0.234      7.506      1651.835   2.341      1646.580   1638.688   447.125    4987.037  
5106.202   12.250     69.879     0.016      0.352      0.000      0.000      0.016      0.000      0.000      0.002      0.033      0.002      17.778     20.312     13.192     0.040      0.257      0.926      1.449      3956.016   0.190      0.180      0.190      0.225      7.601      1703.814   2.348      1694.592   1679.379   432.820    4987.174  
5106.355   12.250     70.205     0.015      0.353      0.000      0.000      0.019      0.001      0.000      0.000      0.029      0.002      17.281     20.918     13.265     0.049      0.203      0.618      1.729      3062.349   0.186      0.175      0.186      0.216      7.743      1773.099   2.349      1760.534   1737.580   414.401    4987.312  
5106.507   12.250     70.511     0.015      0.353      0.000      0.000      0.018      0.004      0.000      0.000      0.025      0.002      16.977     21.407     13.303     0.062      0.210      0.535      1.802      2429.801   0.182      0.173      0.184      0.213      7.945      1807.401   2.342      1794.005   1768.314   398.171    4987.450  
5106.659   12.250     70.518     0.014      0.357      0.000      0.000      0.018      0.004      0.000      0.000      0.021      0.001      17.131     22.835     13.348     0.073      0.205      0.500      1.983      2201.425   0.180      0.172      0.184      0.215      8.089      1845.194   2.336      1831.667   1804.375   392.534    4987.587  
5106.812   12.250     69.842     0.014      0.362      0.000      0.000      0.018      0.002      0.000      0.001      0.018      0.001      17.404     23.568     13.366     0.087      0.205      0.524      2.055      2308.519   0.180      0.171      0.183      0.217      8.231      1860.704   2.342      1847.460   1820.367   394.955    4987.725  
5106.964   12.250     68.608     0.014      0.364      0.000      0.000      0.018      0.003      0.000      0.004      0.013      0.001      17.979     24.665     13.365     0.091      0.214      0.589      2.137      2133.004   0.179      0.168      0.180      0.216      8.152      1871.988   2.357      1859.302   1833.576   392.943    4987.863  
5107.117   12.250     67.565     0.012      0.364      0.000      0.000      0.015      0.003      0.000      0.007      0.015      0.001      18.382     25.288     13.325     0.092      0.195      0.618      2.230      935.631    0.172      0.157      0.172      0.209      7.948      1872.453   2.380      1860.141   1835.852   382.634    4988.000  
5107.269   12.250     66.761     0.012      0.359      0.000      0.000      0.014      0.002      0.000      0.008      0.023      0.000      18.731     25.200     13.253     0.090      0.189      0.716      2.194      537.234    0.163      0.146      0.163      0.195      7.781      1866.298   2.399      1854.431   1832.415   373.862    4988.138  
5107.421   12.250     66.241     0.013      0.356      0.000      0.000      0.016      0.000      0.000      0.008      0.028      0.000      19.211     24.856     13.227     0.089      0.187      0.738      2.151      349.046    0.154      0.137      0.154      0.181      7.769      1859.127   2.407      1847.479   1826.949   364.121    4988.275  
5107.574   12.250     66.216     0.015      0.351      0.000      0.000      0.019      0.001      0.000      0.007      0.030      0.001      19.692     24.079     13.213     0.090      0.204      0.704      2.048      179.326    0.148      0.127      0.148      0.173      7.858      1846.651   2.408      1835.177   1816.568   350.489    4988.413  
5107.726   12.250     66.857     0.015      0.346      0.000      0.000      0.019      0.002      0.000      0.006      0.034      0.001      19.186     23.231     13.199     0.088      0.228      0.630      1.937      125.339    0.146      0.123      0.146      0.174      7.962      1837.313   2.404      1825.822   1808.337   367.035    4988.551  
5107.879   12.250     67.803     0.013      0.343      0.000      0.000      0.017      0.002      0.000      0.005      0.040      0.001      17.706     22.135     13.206     0.083      0.239      0.500      1.843      236.520    0.143      0.126      0.143      0.177      8.117      1829.046   2.393      1817.126   1800.035   444.852    4988.689  
5108.031   12.250     68.610     0.013      0.344      0.000      0.000      0.017      0.002      0.000      0.003      0.040      0.001      16.753     20.944     13.219     0.083      0.255      0.489      1.687      936.480    0.141      0.132      0.141      0.177      8.258      1826.338   2.382      1813.781   1796.166   534.896    4988.826  
5108.183   12.250     68.823     0.015      0.344      0.001      0.000      0.019      0.005      0.000      0.001      0.032      0.002      15.559     19.114     13.200     0.086      0.277      0.578      1.408      1472.638   0.142      0.136      0.142      0.181      8.388      1829.433   2.378      1815.430   1795.515   594.654    4988.964  
5108.336   12.250     68.831     0.015      0.346      0.002      0.000      0.019      0.005      0.000      0.000      0.030      0.002      14.875     17.933     13.148     0.081      0.291      0.597      1.245      1685.744   0.147      0.140      0.147      0.187      8.261      1835.348   2.380      1819.978   1797.450   581.293    4989.102  
5108.488   12.250     68.706     0.014      0.351      0.002      0.000      0.017      0.003      0.000      0.001      0.029      0.002      14.170     16.710     13.077     0.069      0.298      0.684      1.063      1097.939   0.153      0.144      0.154      0.189      7.977      1847.766   2.382      1829.986   1802.314   529.530    4989.239  
