~Version
 VERS              .         2.0                           : CWLS LOG ASCII STANDARD - VERSION 2.0
 WRAP              .         NO                            : ONE LINE PER DEPTH STEP
 DLM               .         SPACE                         : DELIMITING CHARACTER(SPACE TAB OR COMMA)
~Well Information
#_______________________________________________________________________________
#
#PARAMETER_NAME    .UNIT     VALUE                         : DESCRIPTION
#_______________________________________________________________________________
STRT               .M        4949.000                      : First reference value
STOP               .M        5060.404                      : Last reference value
STEP               .M        0.152                         : Step increment
NULL               .         -9999                         : Missing value
COMP               .         PETROBRAS                     : Company
WELL               .         7-SPH-22-SPS                  : Well name
FLD                .         SAPINHOA                      : Field
LOC                .                                       : Location
CNTY               .                                       : County
STAT               .         SAO PAULO                     : State
CTRY               .         BR                            : Country
SRVC               .                                       : Service Company
DATE               .         25/07/2016                    : Date
API                .         863160046800                  : API number
APD                .M        26.0                          : ABOVE PERMANENT DATUM
BHT                .degF     140.0                         : BOTTOMHOLE TEMPERATURE
BLI                .M        5055.8                        : BOTTOM LOGGED INTERVAL
BS                 .in       8.5                           : BIT SIZE
CBDR               .M        4981                          : Casing Bottom (Driller)
CBLO               .M        4981                          : Casing Bottom of Logger
CSIZ               .in       10.75                         : Casing Outer Diameter
CWEI               .lb/ft    85.3                          : Casing Weight
DCS                .         23/07/2016                    : DATE CIRCULATION STOPPED
DFD                .lb/gal   9.7                           : DRILLING FLUID DENSITY
DFT                .         CATIONICO_SCOL (BASE AGUA)    : DRILLING FLUID TYPE
DLAB               .         25/07/2016                    : DATE LOGGING ON BOTTOM
EDF                .M        26.0                          : ELEVATION OF DRILLING FLOOR
EGL                .M        -2144.0                       : ELEVATION OF GROUND LEVEL
EKB                .M        -999.25                       : ELEVATION OF KELLY BUSHING
EPD                .M        0.0                           : ELEVATATION OF PERMANENT DATUM
GDAT               .                                       : Geodetic Datum
LMF                .         MR                            : LOG MEASURED FROM
LUL                .         MCE                           : LOGGING UNIT LOCATION
LUN                .         10898943                      : LOGGING UNIT NUMBER
LATI               .         -25_48_08.320                 : Latitude
LONG               .         -43_13_44,430                 : LONGITUDE
MCST               .degF     66.1                          : MUDCAKE SAMPLE TEMPERATURE
MFST               .degF     66.4                          : MUD FILTRATE SAMPLE TEMPERATURE
MRT                .degF     140.0                         : MAXIMUM RECORDED TEMPERATURE
MST                .degF     65.8                          : MUD SAMPLE TEMPERATURE
ORIGINALWELLNAME   .         7SPH 0022  SPS                : 
PDAT               .         NM                            : PERMANENT DATUM
PRODUCER-CODE      .         280                           : 
PRODUCER-NAME      .         Halliburton                   : 
RMB                .ohm.m    0.040                         : RESISTIVITY OF MUD - BHT
RMCS               .ohm.m    0.140                         : RESISTIVITY OF MUDCAKE SAMPLE
RMFS               .ohm.m    0.012                         : RESISTIVITY OF MUD FILTRATE SAMPLE
RMS                .ohm.m    0.080                         : RESISTIVITY OF MUD SAMPLE
RUN                .         01                            : RUN NUMBER 1
TCS                .h        19_00                         : TIME CIRCULATION STOPPED
TDD                .M        5058.0                        : DRILLERS DEPTH
TDL                .M        5057.1                        : LOGGERS DEPTH
TLAB               .h        07_15                         : TIME LOGGING ON BOTTOM
TLI                .M        4950.0                        : TOP LOGGED INTERVAL
X                  .M        677550.00000000               : X or East-West coordinate
Y                  .M        7145014.00000000              : Y or North South coordinate
~Parameter Information Block
#_______________________________________________________________________________
#
#PARAMETER_NAME    .UNIT     VALUE                         : DESCRIPTION
#_______________________________________________________________________________
SET                .         BASE                          : 
TLFamily_BS        .         Bit Size                      : 
TLFamily_DT        .         Compressional Slowness        : 
TLFamily_DWAL      .         Aluminum Weight Fraction      : 
TLFamily_DWCA      .         Calcium Weight Fraction       : 
TLFamily_DWFE      .         Iron Weight Fraction          : 
TLFamily_DWK       .         Potassium Weight Fraction     : 
TLFamily_DWMG      .         Magnesium Weight Fraction     : 
TLFamily_DWMN      .         Manganese Weight Fraction     : 
TLFamily_DWS       .         Sulfur Weight Fraction        : 
TLFamily_DWSI      .         Silicon Weight Fraction       : 
TLFamily_DWTI      .         Titanium Weight Fraction      : 
TLFamily_GR        .         Gamma Ray                     : 
TLFamily_GRt       .         Gamma Ray                     : 
TLFamily_HCAL      .         Caliper                       : 
TLFamily_HDRA      .         Bulk Density Correction       : 
TLFamily_HFK       .         Potassium Concentration       : 
TLFamily_HTHO      .         Thorium Concentration         : 
TLFamily_HURA      .         Uranium Concentration         : 
TLFamily_MD        .         Measured Depth                : 
TLFamily_MPERM     .         NMR Permeability              : 
TLFamily_NMRE_Final .         NMR Bound Fluid Volume Fraction: 
TLFamily_NMRFL_Final .         NMR Free Fluids               : 
TLFamily_NMRT_Final .         NMR Porosity                  : 
TLFamily_NPHI      .         Neutron Porosity              : 
TLFamily_PE        .         Photoelectric Factor          : 
TLFamily_RD        .         Resistivity - Deep            : 
TLFamily_RHOB      .         Bulk Density                  : 
TLFamily_RS        .         Resistivity - Shallow         : 
TLFamily_T2LM      .         NMR T2 Logarithmic Mean       : 
TLFamily_TVDSS     .         True Vertical Depth Sub Sea   : 
~Curve Information
#_______________________________________________________________________________
#
#LOGNAME           .UNIT     LOG_ID                        : DESCRIPTION
#_______________________________________________________________________________
DEPTH              .M                                      :  
BS                 .in                                     : BS/Bit Size 
DT                 .us/ft                                  : SONICO COMPRESSIONAL (COMPOSICAO DE CURVAS CABO E/OU LWD) 
DWAL               .kg/kg                                  : DAL/DryrockAlWF 
DWCA               .kg/kg                                  : DCA/DryrockCaWF 
DWFE               .kg/kg                                  : DFE/DryrockFeWF 
DWK                .kg/kg                                  : DK/DryrockKWF 
DWMG               .kg/kg                                  : DMG/DryrockMgWF 
DWMN               .kg/kg                                  : DMN/DryrockMnWF 
DWS                .kg/kg                                  : DSUL/DryrockSuWF 
DWSI               .kg/kg                                  : DSI/DryrockSiWF 
DWTI               .kg/kg                                  : DTI/DryrockTiWF 
GR                 .gAPI                                   : GR/Gamma API 
GRt                .gAPI                                   : GKUT/GammaKUT 
HCAL               .in                                     : CALI/Caliper 
HDRA               .g/cm3                                  : DRHO/DensityCorr 
HFK                .%                                      : POTA/Potassium 
HTHO               .ppm                                    : THOR/Thorium 
HURA               .ppm                                    : URAN/Uranium 
MPERM              .mD                                     : MPERMT2/MrilT2KCoat 
NMRE_Final         .m3/m3                                  : MPHIT2/TA-grp T2 Effective Por 
NMRFL_Final        .unitless                               : MFFIT2/TA-grp T2 FreeFluid Ind 
NMRT_Final         .frac                                   : MSIGT2/TA-grp T2 Total Por. 
NPHI               .frac                                   : NPHI/Neutron Porosity 
PE                 .b/e                                    : PE/Pe 
RD                 .ohm.m                                  : LLD/LLD 
RHOB               .g/cm3                                  : RHOB/Density 
RS                 .ohm.m                                  : LLS/LLS 
T2LM               .ms                                     : T2LM/T2 Log Mean 
TVDSS              .M                                      :  
~Ascii
# ...
5017.580   8.500      62.893     0.010      0.265      0.002      0.000      0.067      0.001      0.008      0.033      0.000      12.996     14.530     8.497      -0.019     0.082      1.647      0.873      5.358      0.100      0.074      0.118      0.088      4.365      340.555    2.557      262.893    132.443    4985.134  
5017.732   8.500      63.311     0.008      0.283      0.002      0.000      0.050      0.001      0.006      0.043      0.000      11.735     14.143     8.495      -0.018     0.041      1.658      0.899      5.609      0.109      0.075      0.120      0.087      4.325      349.203    2.531      268.279    152.450    4985.285  
5017.885   8.500      63.717     0.011      0.283      0.001      0.000      0.045      0.001      0.005      0.047      0.001      10.692     13.820     8.494      -0.018     0.032      1.764      0.840      7.245      0.118      0.078      0.121      0.088      4.361      349.514    2.524      268.425    193.064    4985.437  
5018.037   8.500      64.040     0.015      0.276      0.000      0.000      0.048      0.001      0.004      0.048      0.001      10.519     13.323     8.495      -0.017     0.029      1.827      0.768      10.836     0.124      0.085      0.124      0.113      4.430      1112.395   2.522      807.406    206.744    4985.588  
5018.190   8.500      64.494     0.014      0.258      0.000      0.000      0.064      0.001      0.004      0.045      0.000      10.655     12.898     8.495      -0.018     0.034      1.747      0.740      16.175     0.126      0.090      0.126      0.136      4.473      3843.347   2.510      2639.874   197.027    4985.739  
5018.342   8.500      65.097     0.017      0.265      0.000      0.000      0.052      0.001      0.004      0.051      0.000      10.730     12.317     8.499      -0.020     0.049      1.700      0.666      18.040     0.124      0.091      0.124      0.144      4.482      2790.223   2.484      1922.788   201.709    4985.890  
5018.494   8.500      65.752     0.017      0.264      0.000      0.000      0.050      0.001      0.004      0.055      0.000      10.592     12.027     8.502      -0.022     0.057      1.586      0.662      17.376     0.123      0.090      0.123      0.140      4.458      2419.992   2.461      1502.785   207.010    4986.042  
5018.647   8.500      66.298     0.017      0.275      0.000      0.000      0.039      0.001      0.006      0.060      0.001      10.849     12.177     8.502      -0.022     0.054      1.512      0.710      15.562     0.118      0.087      0.118      0.138      4.490      2115.551   2.450      1078.223   222.617    4986.193  
5018.799   8.500      66.716     0.018      0.286      0.000      0.000      0.028      0.001      0.008      0.062      0.001      11.443     12.555     8.509      -0.019     0.046      1.611      0.730      16.034     0.111      0.085      0.111      0.137      4.568      1955.604   2.450      859.604    241.340    4986.344  
5018.952   8.500      67.197     0.017      0.292      0.000      0.000      0.023      0.001      0.009      0.065      0.001      11.184     12.974     8.507      -0.015     0.039      1.666      0.770      15.848     0.102      0.081      0.102      0.118      4.641      1957.349   2.476      925.422    267.574    4986.495  
5019.104   8.500      67.748     0.015      0.297      0.000      0.000      0.018      0.001      0.008      0.069      0.001      10.455     13.169     8.502      -0.009     0.045      1.809      0.728      12.930     0.093      0.075      0.093      0.096      4.534      1993.206   2.530      974.101    296.087    4986.646  
5019.256   8.500      68.665     0.016      0.290      0.000      0.000      0.021      0.001      0.007      0.071      0.001      11.837     13.195     8.505      -0.008     0.060      1.955      0.652      9.284      0.086      0.069      0.086      0.088      3.773      2224.379   2.601      1191.161   316.965    4986.798  
5019.409   8.500      68.934     0.018      0.278      0.000      0.000      0.029      0.001      0.007      0.071      0.001      13.875     13.279     8.506      -0.009     0.065      1.914      0.667      7.244      0.081      0.065      0.081      0.085      2.893      5806.952   2.637      11176.971  333.312    4986.949  
5019.561   8.500      68.664     0.019      0.272      0.000      0.000      0.027      0.001      0.008      0.081      0.000      14.275     13.461     8.504      -0.003     0.071      1.817      0.713      7.275      0.081      0.065      0.081      0.078      2.366      2533.730   2.637      3711.240   350.507    4987.100  
5019.714   8.500      68.270     0.016      0.252      0.000      0.000      0.038      0.001      0.008      0.089      0.000      14.585     13.574     8.504      0.006      0.067      1.698      0.776      10.102     0.086      0.070      0.086      0.075      2.181      944.341    2.634      686.489    373.097    4987.251  
5019.866   8.500      67.962     0.015      0.235      0.000      0.000      0.048      0.001      0.008      0.092      0.001      15.417     13.537     8.503      0.009      0.059      1.535      0.844      17.382     0.096      0.079      0.096      0.090      2.145      936.731    2.623      662.116    394.025    4987.402  
5020.018   8.500      67.857     0.015      0.228      0.000      0.000      0.060      0.001      0.008      0.083      0.001      15.120     13.513     8.502      0.002      0.066      1.618      0.800      27.670     0.110      0.089      0.110      0.110      2.247      936.154    2.572      657.174    402.356    4987.554  
5020.171   8.500      67.606     0.013      0.257      0.000      0.001      0.045      0.001      0.008      0.075      0.000      14.425     13.189     8.500      -0.004     0.085      1.784      0.670      39.772     0.124      0.100      0.125      0.106      2.590      929.302    2.542      640.696    393.960    4987.705  
5020.323   8.500      67.188     0.012      0.271      0.000      0.001      0.041      0.001      0.007      0.067      0.000      14.298     13.035     8.501      -0.018     0.105      2.017      0.532      73.721     0.136      0.113      0.138      0.120      3.509      6801.973   2.501      9931.443   390.775    4987.856  
5020.476   8.500      66.827     0.013      0.279      0.000      0.001      0.041      0.001      0.007      0.055      0.001      13.911     12.800     8.503      -0.027     0.125      2.206      0.403      161.655    0.143      0.124      0.144      0.140      3.979      14077.119  2.459      27999.375  414.494    4988.007  
5020.628   8.500      66.286     0.013      0.296      0.000      0.001      0.044      0.001      0.008      0.030      0.001      12.949     12.643     8.505      -0.033     0.136      2.347      0.314      276.127    0.143      0.128      0.143      0.142      4.358      15040.104  2.396      37718.781  449.836    4988.159  
5020.780   8.500      65.612     0.013      0.297      0.000      0.002      0.047      0.001      0.009      0.023      0.001      13.056     12.862     8.503      -0.032     0.116      2.296      0.392      233.921    0.140      0.124      0.140      0.141      4.391      16118.124  2.383      39999.984  444.656    4988.310  
5020.933   8.500      64.847     0.011      0.273      0.000      0.002      0.060      0.001      0.009      0.033      0.001      12.788     13.570     8.504      -0.023     0.091      2.173      0.560      108.844    0.134      0.115      0.134      0.146      4.332      22170.141  2.391      39999.984  409.162    4988.461  
5021.085   8.500      64.319     0.010      0.254      0.000      0.002      0.068      0.001      0.008      0.044      0.001      12.430     14.307     8.505      -0.018     0.066      2.012      0.745      64.432     0.125      0.105      0.125      0.133      4.350      14032.291  2.402      29057.885  388.674    4988.612  
5021.238   8.500      64.681     0.009      0.239      0.001      0.002      0.064      0.001      0.008      0.068      0.001      13.526     15.844     8.497      -0.009     0.027      1.758      1.077      45.626     0.111      0.095      0.112      0.119      4.375      12532.445  2.468      20112.666  369.475    4988.763  
