~Version
 VERS              .         2.0                           : CWLS LOG ASCII STANDARD - VERSION 2.0
 WRAP              .         NO                            : ONE LINE PER DEPTH STEP
 DLM               .         SPACE                         : DELIMITING CHARACTER(SPACE TAB OR COMMA)
~Well Information
#_______________________________________________________________________________
#
#PARAMETER_NAME    .UNIT     VALUE                         : DESCRIPTION
#_______________________________________________________________________________
STRT               .M        4938.217                      : First reference value
STOP               .M        5227.625                      : Last reference value
STEP               .M        0.152                         : Step increment
NULL               .         -9999                         : Missing value
COMP               .         PETROBRAS                     : Company
WELL               .         7-SPH-17-SPS                  : Well name
FLD                .         SAPINHOA                      : Field
LOC                .                                       : Location
CNTY               .                                       : County
STAT               .         86316027948                   : State
CTRY               .         Brasil                        : Country
SRVC               .                                       : Service Company
DATE               .                                       : Date
API                .                                       : API number
APD                .M        25                            : Elevation of Depth Reference (LMF) Above Permanent Datum
BHS                .         OPEN                          : Borehole Status (Open or Cased Hole)
BHT                .degF     144                           : Bottom Hole Temperature
BLI                .M        5222.59                       : Bottom Log Interval
BS                 .in       12.25                         : Bit Size
CBDR               .M        5017                          : Casing Bottom (Driller)
CBLO               .M        5020.6                        : Casing Bottom (Logger)
CSIZ               .in       14                            : Casing Outer Diameter
CWEI               .lbm/ft   114                           : Casing Weight
DCS                .         04/01/2015                    : Date Circulation Stopped
DFD                .lb/gal   9.6                           : Drilling Fluid Density
DFT                .         BR-MUL                        : Drilling Fluid Type
DLAB               .         06/01/2015                    : Date Logging on Bottom
EDF                .M        25                            : Elevation of Drill Floor
EGL                .M        -2131                         : Elevation of Ground Level
EKB                .M        25                            : Elevation of Kelly Bushing
EPD                .M        0                             : Elevation of Permanent Datum (PDAT) above Mean Sea Level
LMF                .         MR                            : Logging Measured From (Name of Logging Elevation Reference)
LUL                .         BRMA                          : Logging Unit Location
LUN                .         7806                          : Logging Unit Number
LONG               .         -43_09_42,450                 : Longitude
MCST               .degF     -999.25                       : Mudcake Sample Temperature
MFST               .degF     -999.25                       : Mud Filtrate Sample Temperature
MRT                .degF     144                           : Maximum Recorded Temperature
MST                .degF     -999.25                       : Mud Sample Temperature
PDAT               .         NM                            : Permanent Datum
PRODUCER-CODE      .         440                           : 
PRODUCER-NAME      .         Schlumberger                  : 
RMB                .ohm.m    -999.25                       : Resistivity of Mud at Bottom Hole Temperature
RMCS               .ohm.m    -999.25                       : Resistivity of Mud Cake Sample
RMFS               .ohm.m    -999.25                       : Resistivity of Mud Filtrate Sample
RMS                .ohm.m    -999.25                       : Resistivity of Mud Sample
RUN                .         02                            : Run Number
TCS                .h        17_30                         : Time Circulation Stopped
TDD                .M        5221                          : Total Depth (Driller)
TDL                .M        5225                          : Logger Total Depth
TLAB               .h        09_25                         : Time Logging on Bottom
TLI                .M        5020.6                        : Top Log Interval
X                  .M        684517.00000000               : 
Y                  .M        7161201.00000000              : 
~Parameter Information Block
#_______________________________________________________________________________
#
#PARAMETER_NAME    .UNIT     VALUE                         : DESCRIPTION
#_______________________________________________________________________________
SET                .         BASE                          : 
TLFamily_BS        .         Bit Size                      : 
TLFamily_DT        .         Compressional Slowness        : 
TLFamily_DWAL      .         Aluminum Weight Fraction      : 
TLFamily_DWCA      .         Calcium Weight Fraction       : 
TLFamily_DWFE      .         Iron Weight Fraction          : 
TLFamily_DWGD      .         Gadolinium Weight Fraction    : 
TLFamily_DWS       .         Sulfur Weight Fraction        : 
TLFamily_DWSI      .         Silicon Weight Fraction       : 
TLFamily_DWTI      .         Titanium Weight Fraction      : 
TLFamily_GR        .         Gamma Ray                     : 
TLFamily_GRt       .         Gamma Ray                     : 
TLFamily_HCAL      .         Caliper                       : 
TLFamily_HDRA      .         Bulk Density Correction       : 
TLFamily_HFK       .         Potassium Concentration       : 
TLFamily_HTHO      .         Thorium Concentration         : 
TLFamily_HURA      .         Uranium Concentration         : 
TLFamily_KSDR      .         NMR Permeability              : 
TLFamily_KTIM      .         NMR Permeability              : 
TLFamily_MD        .         Measured Depth                : 
TLFamily_NMRE_Final .         NMR Bound Fluid Volume Fraction: 
TLFamily_NMRFL_Final .         NMR Free Fluids               : 
TLFamily_NMRT_Final .         NMR Porosity                  : 
TLFamily_NPHI      .         Neutron Porosity              : 
TLFamily_PE        .         Photoelectric Factor          : 
TLFamily_RD        .         Resistivity - Deep            : 
TLFamily_RHOB      .         Bulk Density                  : 
TLFamily_RM        .         Resistivity - Medium          : 
TLFamily_RS        .         Resistivity - Shallow         : 
TLFamily_T2LM      .         NMR T2 Logarithmic Mean       : 
TLFamily_TVDSS     .         True Vertical Depth Sub Sea   : 
~Curve Information
#_______________________________________________________________________________
#
#LOGNAME           .UNIT     LOG_ID                        : DESCRIPTION
#_______________________________________________________________________________
DEPTH              .M                                      :  
BS                 .in                                     : Bit Size 
DT                 .us/ft                                  : Delta-T Compressional 
DWAL               .kg/kg                                  : Dry Weight Fraction Pseudo Aluminum (SpectroLith WALK2 Model) 
DWCA               .kg/kg                                  : Dry Weight Fraction Calcium (SpectroLith WALK2 Model) 
DWFE               .kg/kg                                  : Dry Weight Fraction Iron + 0.14 Aluminum (SpectroLith WALK2 Model) 
DWGD               .ppm                                    : Dry Weight Fraction Gadolinium (SpectroLith WALK2 Model) 
DWS                .kg/kg                                  : Dry Weight Fraction Sulfur (SpectroLith WALK2 Model) 
DWSI               .kg/kg                                  : Dry Weight Fraction Silicon (SpectroLith WALK2 Model) 
DWTI               .kg/kg                                  : Dry Weight Fraction Titanium (SpectroLith WALK2 Model) 
GR                 .gAPI                                   : Gamma Ray 
GRt                .gAPI                                   : HNGS Standard Gamma-Ray 
HCAL               .in                                     : HRCC Caliper Calibrated 
HDRA               .g/cm3                                  : Density Standoff Correction 
HFK                .%                                      : HNGS Formation Potassium Concentration 
HTHO               .ppm                                    : HNGS Formation Thorium Concentration 
HURA               .ppm                                    : HNGS Formation Uranium Concentration 
KSDR               .mD                                     : SDR Permeability 
KTIM               .mD                                     : Timur/Coates Permeability 
NMRE_Final         .m3/m3                                  : CMR Porosity with T2 values greater than 3 ms 
NMRFL_Final        .unitless                               : CMR Free Fluid 
NMRT_Final         .frac                                   : Total CMR Porosity 
NPHI               .frac                                   : Enhanced Thermal Neutron Porosity in Selected Lithology 
PE                 .b/e                                    : Standard Resolution Formation Photoelectric Factor 
RD                 .ohm.m                                  : Array Induction Two Foot Resistivity A90 
RHOB               .g/cm3                                  : Standard Resolution Formation Density 
RM                 .ohm.m                                  : Array Induction Two Foot Resistivity A30 
RS                 .ohm.m                                  : Array Induction Two Foot Resistivity A10 
T2LM               .ms                                     : T2 Logarithmic Mean 
TVDSS              .M                                      :  
~Ascii
# ...
5109.667   12.250     72.311     0.007      0.373      0.004      2.244      0.000      0.019      0.000      29.212     34.538     12.291     -0.006     0.207      1.466      3.310      625.696    508.285    0.177      0.159      0.183      0.191      5.100      1842.243   2.331      1077.804   1782.553   374.838    5084.384  
5109.820   12.250     72.017     0.004      0.373      0.003      1.651      0.000      0.023      0.000      29.176     36.023     12.301     -0.006     0.196      1.491      3.525      600.313    552.054    0.181      0.162      0.186      0.185      5.140      1773.370   2.329      1067.282   1680.978   355.157    5084.537  
5109.972   12.250     71.611     0.003      0.367      0.002      0.582      0.000      0.033      0.000      29.262     35.204     12.312     -0.004     0.206      1.419      3.378      437.177    331.687    0.179      0.155      0.184      0.190      5.154      1797.200   2.341      1174.935   1729.243   308.358    5084.689  
5110.124   12.250     70.615     0.002      0.356      0.001      1.004      0.000      0.049      0.000      28.665     34.741     12.312     -0.001     0.190      1.499      3.329      269.459    153.931    0.163      0.136      0.165      0.214      5.164      1949.951   2.354      1226.304   1909.035   301.354    5084.841  
5110.277   12.250     70.165     0.003      0.352      0.002      3.261      0.000      0.052      0.000      28.204     31.546     12.291     0.002      0.176      1.414      3.002      188.084    94.009     0.153      0.124      0.154      0.210      5.120      1949.902   2.384      1192.938   1901.315   290.543    5084.994  
5110.429   12.250     69.601     0.001      0.351      0.000      5.221      0.000      0.056      0.000      28.489     29.213     12.291     0.007      0.176      1.356      2.744      175.579    74.374     0.152      0.120      0.153      0.182      4.986      1043.907   2.423      787.429    1147.317   282.588    5085.146  
5110.582   12.250     69.133     0.000      0.352      0.000      4.621      0.000      0.056      0.000      26.545     26.679     12.291     0.007      0.161      1.353      2.419      219.965    83.514     0.160      0.126      0.162      0.186      4.870      580.775    2.434      382.150    467.099    281.826    5085.299  
5110.734   12.250     67.894     0.000      0.354      0.000      3.678      0.001      0.054      0.000      25.778     26.130     12.291     0.002      0.182      1.413      2.262      315.024    161.720    0.170      0.141      0.175      0.178      4.827      335.441    2.421      208.451    285.668    291.037    5085.451  
5110.886   12.250     67.356     0.000      0.359      0.000      2.778      0.000      0.049      0.000      24.038     27.010     12.312     -0.002     0.199      1.341      2.342      275.321    148.328    0.169      0.139      0.174      0.183      4.795      311.006    2.413      228.461    293.609    274.897    5085.603  
5111.039   12.250     67.265     0.001      0.359      0.001      3.302      0.000      0.047      0.000      24.055     26.759     12.291     -0.002     0.198      1.484      2.270      200.096    133.978    0.158      0.131      0.160      0.180      4.719      366.428    2.435      251.474    315.832    278.919    5085.756  
5111.191   12.250     66.682     0.004      0.349      0.002      2.805      0.000      0.053      0.000      22.909     25.255     12.301     -0.001     0.178      1.448      2.183      110.188    84.163     0.145      0.119      0.147      0.162      4.603      353.387    2.463      302.554    430.449    243.951    5085.908  
5111.344   12.250     66.635     0.006      0.339      0.004      1.634      0.000      0.060      0.000      20.828     23.226     12.291     -0.002     0.146      1.330      2.069      59.801     45.316     0.136      0.109      0.141      0.175      4.550      284.716    2.476      234.269    269.204    193.776    5086.060  
5111.496   12.250     65.836     0.009      0.333      0.006      0.483      0.000      0.063      0.000      19.448     21.336     12.291     -0.003     0.158      1.327      1.782      59.801     45.316     0.136      0.109      0.141      0.164      4.552      234.171    2.479      195.227    220.295    193.776    5086.213  
5111.648   12.250     64.829     0.010      0.333      0.006      0.000      0.000      0.060      0.001      18.540     19.919     12.323     -0.004     0.164      1.268      1.626      31.077     24.910     0.126      0.100      0.137      0.195      4.573      212.390    2.482      174.233    167.000    147.628    5086.365  
5111.801   12.250     61.889     0.009      0.340      0.005      0.000      0.000      0.056      0.000      18.128     18.568     12.312     -0.004     0.170      1.055      1.524      16.334     15.625     0.112      0.091      0.130      0.210      4.528      227.946    2.502      168.883    221.652    120.119    5086.518  
5111.953   12.250     61.090     0.005      0.335      0.003      0.000      0.000      0.067      0.000      18.027     18.114     12.355     -0.001     0.211      1.132      1.345      7.171      7.309      0.095      0.077      0.113      0.214      4.373      239.824    2.548      191.920    290.931    107.151    5086.670  
5112.106   12.250     60.397     0.005      0.315      0.003      0.000      0.000      0.092      0.000      17.361     18.723     12.333     0.001      0.250      1.121      1.342      2.734      2.245      0.077      0.059      0.089      0.158      4.084      206.881    2.603      200.588    282.829    106.110    5086.822  
5112.258   12.250     60.605     0.005      0.271      0.003      0.000      0.000      0.141      0.000      18.948     19.237     12.313     0.005      0.265      1.179      1.377      1.188      0.541      0.065      0.042      0.068      0.107      3.769      188.452    2.652      143.947    171.275    116.556    5086.975  
5112.410   12.250     62.659     0.007      0.233      0.005      0.001      0.008      0.178      0.001      20.496     20.681     12.355     0.014      0.289      1.277      1.465      3.299      1.496      0.079      0.053      0.080      0.089      3.488      109.972    2.686      85.001     98.984     144.289    5087.127  
5112.563   12.250     64.497     0.010      0.237      0.007      0.367      0.015      0.165      0.001      25.152     24.276     12.376     0.018      0.318      1.588      1.758      25.558     12.130     0.109      0.083      0.109      0.071      3.377      73.210     2.689      60.109     69.563     221.992    5087.280  
5112.715   12.250     64.807     0.009      0.282      0.006      0.411      0.017      0.112      0.001      25.923     27.339     12.376     0.014      0.353      1.786      1.982      181.391    101.427    0.145      0.121      0.145      0.099      3.529      88.169     2.611      69.488     79.569     327.695    5087.432  
5112.868   12.250     68.005     0.006      0.330      0.004      0.837      0.010      0.066      0.000      25.690     27.398     12.397     0.005      0.369      1.817      1.893      624.114    415.324    0.175      0.152      0.175      0.242      4.013      130.464    2.489      109.012    116.673    406.407    5087.584  
5113.020   12.250     69.266     0.002      0.359      0.001      0.002      0.005      0.041      0.000      20.509     23.501     12.354     0.001      0.337      1.648      1.513      890.173    535.581    0.188      0.163      0.188      0.265      4.585      202.787    2.374      175.503    193.360    421.061    5087.737  
5113.172   12.250     72.681     0.003      0.365      0.002      0.000      0.001      0.036      0.000      17.968     20.502     12.334     0.001      0.291      1.345      1.365      730.480    422.084    0.188      0.160      0.188      0.227      5.003      198.178    2.333      208.279    253.125    382.118    5087.889  
5113.325   12.250     73.649     0.005      0.365      0.003      0.002      0.001      0.031      0.000      17.909     20.727     12.333     -0.003     0.285      1.387      1.385      617.613    451.723    0.188      0.161      0.188      0.209      5.208      220.215    2.323      225.601    318.719    350.177    5088.042  
