~Version
 VERS              .         2.0                           : CWLS LOG ASCII STANDARD - VERSION 2.0
 WRAP              .         NO                            : ONE LINE PER DEPTH STEP
 DLM               .         SPACE                         : DELIMITING CHARACTER(SPACE TAB OR COMMA)
~Well Information
#_______________________________________________________________________________
#
#PARAMETER_NAME    .UNIT     VALUE                         : DESCRIPTION
#_______________________________________________________________________________
STRT               .M        5082.700                      : First reference value
STOP               .M        5352.753                      : Last reference value
STEP               .M        0.152                         : Step increment
NULL               .         -9999                         : Missing value
COMP               .         PETROBRAS                     : Company
WELL               .         7-SPH-16D-SPS                 : Well name
FLD                .         SAPINHOA                      : Field
LOC                .                                       : Location
CNTY               .                                       : County
STAT               .         SP                            : State
CTRY               .                                       : Country
SRVC               .                                       : Service Company
DATE               .                                       : Date
API                .                                       : API number
APD                .M        24.0                          : ABOVE PERMANENT DATUM
BHT                .degF     144.0                         : BOTTOMHOLE TEMPERATURE
BLI                .M        5312.4                        : BOTTOM LOGGED INTERVAL
BS                 .in       12.25                         : BIT SIZE
DCS                .         04/09/2014                    : DATE CIRCULATION STOPPED
DFD                .lb/gal   9.5                           : DRILLING FLUID DENSITY
DFT                .         BR-MUL                        : DRILLING FLUID TYPE
DLAB               .         05/09/2014                    : DATE LOGGING ON BOTTOM
EDF                .M        24.0                          : ELEVATION OF DRILLING FLOOR
EGL                .M        -2125.0                       : ELEVATION OF GROUND LEVEL
EKB                .M        -999.25                       : ELEVATION OF KELLY BUSHING
EPD                .M        0.0                           : ELEVATATION OF PERMANENT DATUM
LMF                .         MR                            : LOG MEASURED FROM
LUL                .         MCE                           : LOGGING UNIT LOCATION
LUN                .         11202303                      : LOGGING UNIT NUMBER
LONG               .         -43_10_06.229                 : LONGITUDE
MCST               .degF     -999.25                       : MUDCAKE SAMPLE TEMPERATURE
MFST               .degF     -999.25                       : MUD FILTRATE SAMPLE TEMPERATURE
MRT                .degF     144.0                         : MAXIMUM RECORDED TEMPERATURE
MST                .degF     -999.25                       : MUD SAMPLE TEMPERATURE
PDAT               .         NM                            : PERMANENT DATUM
PRODUCER-CODE      .         280                           : 
PRODUCER-NAME      .         Halliburton                   : 
RMB                .ohm.m    -999.25                       : RESISTIVITY OF MUD - BHT
RMCS               .ohm.m    -999.25                       : RESISTIVITY OF MUDCAKE SAMPLE
RMFS               .ohm.m    -999.25                       : RESISTIVITY OF MUD FILTRATE SAMPLE
RMS                .ohm.m    -999.25                       : RESISTIVITY OF MUD SAMPLE
RUN                .         01                            : RUN NUMBER 1
TCS                .h        05_30                         : TIME CIRCULATION STOPPED
TDD                .M        5343.0                        : DRILLERS DEPTH
TDL                .M        5345.0                        : LOGGERS DEPTH
TLAB               .h        16_45                         : TIME LOGGING ON BOTTOM
TLI                .M        5135.0                        : TOP LOGGED INTERVAL
X                  .M        683789.99900000               : X UTM Coordinate
Y                  .M        7152001.99900000              : Y UTM Coordinate
~Parameter Information Block
#_______________________________________________________________________________
#
#PARAMETER_NAME    .UNIT     VALUE                         : DESCRIPTION
#_______________________________________________________________________________
SET                .         BASE                          : 
TLFamily_BS        .         Bit Size                      : 
TLFamily_DT        .         Compressional Slowness        : 
TLFamily_DWAL      .         Aluminum Weight Fraction      : 
TLFamily_DWCA      .         Calcium Weight Fraction       : 
TLFamily_DWFE      .         Iron Weight Fraction          : 
TLFamily_DWGD      .         Gadolinium Weight Fraction    : 
TLFamily_DWK       .         Potassium Weight Fraction     : 
TLFamily_DWMG      .         Magnesium Weight Fraction     : 
TLFamily_DWMN      .         Manganese Weight Fraction     : 
TLFamily_DWS       .         Sulfur Weight Fraction        : 
TLFamily_DWSI      .         Silicon Weight Fraction       : 
TLFamily_DWTI      .         Titanium Weight Fraction      : 
TLFamily_GR        .         Gamma Ray                     : 
TLFamily_GRt       .         Gamma Ray                     : 
TLFamily_HCAL      .         Caliper                       : 
TLFamily_HDRA      .         Bulk Density Correction       : 
TLFamily_HFK       .         Potassium Concentration       : 
TLFamily_HTHO      .         Thorium Concentration         : 
TLFamily_HURA      .         Uranium Concentration         : 
TLFamily_MD        .         Measured Depth                : 
TLFamily_MPERM     .         NMR Permeability              : 
TLFamily_NMRE_Final .         NMR Bound Fluid Volume Fraction: 
TLFamily_NMRFL_Final .         NMR Free Fluids               : 
TLFamily_NMRT_Final .         NMR Porosity                  : 
TLFamily_NPHI      .         Neutron Porosity              : 
TLFamily_PE        .         Photoelectric Factor          : 
TLFamily_RD        .         Resistivity - Deep            : 
TLFamily_RHOB      .         Bulk Density                  : 
TLFamily_RM        .         Resistivity - Medium          : 
TLFamily_RS        .         Resistivity - Shallow         : 
TLFamily_T2LM      .         NMR T2 Logarithmic Mean       : 
TLFamily_TVDSS     .         True Vertical Depth Sub Sea   : 
~Curve Information
#_______________________________________________________________________________
#
#LOGNAME           .UNIT     LOG_ID                        : DESCRIPTION
#_______________________________________________________________________________
DEPTH              .M                                      :  
BS                 .in                                     : BS/Bit Size 
DT                 .us/ft                                  : DT/DTC 
DWAL               .kg/kg                                  : DAL/DryrockAlWF 
DWCA               .kg/kg                                  : DCA/DryrockCaWF 
DWFE               .kg/kg                                  : DFE/DryrockFeWF 
DWGD               .ppm                                    : DGD/DryrockGdWF 
DWK                .kg/kg                                  : DK/DryrockKWF 
DWMG               .kg/kg                                  : DMG/DryrockMgWF 
DWMN               .kg/kg                                  : DMN/DryrockMnWF 
DWS                .kg/kg                                  : DSUL/DryrockSuWF 
DWSI               .kg/kg                                  : DSI/DryrockSiWF 
DWTI               .kg/kg                                  : DTI/DryrockTiWF 
GR                 .gAPI                                   : GR/Gamma API 
GRt                .gAPI                                   : GKUT/GKUT 
HCAL               .in                                     : CALI/Caliper 
HDRA               .g/cm3                                  : DRHO/DensityCorr 
HFK                .%                                      : POTA/Potassium 
HTHO               .ppm                                    : THOR/Thorium 
HURA               .ppm                                    : URAN/Uranium 
MPERM              .mD                                     : MPERMT2/MrilT2KCoat 
NMRE_Final         .m3/m3                                  : MPHIT2/TA-grp T2 Effective Por 
NMRFL_Final        .unitless                               : MFFIT2/TA-grp T2 FreeFluid Ind 
NMRT_Final         .frac                                   : MSIGT2/TA-grp T2 Total Por. 
NPHI               .frac                                   : NPHI/Neutron Porosity 
PE                 .b/e                                    : PE/Pe 
RD                 .ohm.m                                  : RT90/90in Resistivity 2ft Res 
RHOB               .g/cm3                                  : RHOB/Density 
RM                 .ohm.m                                  : RT30/30in Resistivity 2ft Res 
RS                 .ohm.m                                  : RT10/10in Resistivity 2ft Res 
T2LM               .ms                                     : T2LM/T2 Log Mean 
TVDSS              .M                                      :  
~Ascii
# ...
5324.559   12.250     69.349     -9999.000  -9999.000  -9999.000  -9999.000  -9999.000  -9999.000  -9999.000  -9999.000  -9999.000  -9999.000  21.005     -9999.000  12.496     0.028      -9999.000  -9999.000  -9999.000  19.540     0.116      0.092      0.123      0.164      3.991      5.392      2.479      6.427      8.961      213.008    5168.837  
5324.711   12.250     69.306     -9999.000  -9999.000  -9999.000  -9999.000  -9999.000  -9999.000  -9999.000  -9999.000  -9999.000  -9999.000  21.501     -9999.000  12.495     0.026      -9999.000  -9999.000  -9999.000  19.696     0.128      0.094      0.130      0.164      3.982      6.225      2.480      7.589      10.367     206.918    5168.978  
5324.864   12.250     68.400     -9999.000  -9999.000  -9999.000  -9999.000  -9999.000  -9999.000  -9999.000  -9999.000  -9999.000  -9999.000  22.413     -9999.000  12.494     0.024      -9999.000  -9999.000  -9999.000  29.955     0.133      0.101      0.134      0.165      3.978      7.746      2.479      9.850      13.230     219.762    5169.120  
5325.016   12.250     67.228     -9999.000  -9999.000  -9999.000  -9999.000  -9999.000  -9999.000  -9999.000  -9999.000  -9999.000  -9999.000  22.834     -9999.000  12.496     0.023      -9999.000  -9999.000  -9999.000  58.379     0.136      0.110      0.137      0.164      3.955      9.013      2.475      11.906     16.159     246.774    5169.262  
5325.169   12.250     65.845     -9999.000  -9999.000  -9999.000  -9999.000  -9999.000  -9999.000  -9999.000  -9999.000  -9999.000  -9999.000  22.683     -9999.000  12.496     0.022      -9999.000  -9999.000  -9999.000  123.424    0.142      0.121      0.143      0.162      3.962      10.660     2.470      14.834     20.523     281.871    5169.404  
5325.321   12.250     64.184     -9999.000  -9999.000  -9999.000  -9999.000  -9999.000  -9999.000  -9999.000  -9999.000  -9999.000  -9999.000  21.952     -9999.000  12.495     0.023      -9999.000  -9999.000  -9999.000  133.540    0.146      0.123      0.146      0.166      4.007      11.370     2.466      16.224     22.469     301.763    5169.545  
5325.473   12.250     62.681     -9999.000  -9999.000  -9999.000  -9999.000  -9999.000  -9999.000  -9999.000  -9999.000  -9999.000  -9999.000  20.685     -9999.000  12.494     0.024      -9999.000  -9999.000  -9999.000  74.963     0.145      0.117      0.145      0.169      4.000      11.362     2.465      16.274     21.981     328.907    5169.687  
5325.626   12.250     61.693     -9999.000  -9999.000  -9999.000  -9999.000  -9999.000  -9999.000  -9999.000  -9999.000  -9999.000  -9999.000  19.924     -9999.000  12.495     0.024      -9999.000  -9999.000  -9999.000  43.815     0.141      0.109      0.143      0.165      3.958      11.017     2.463      15.692     21.058     346.465    5169.829  
5325.778   12.250     61.244     -9999.000  -9999.000  -9999.000  -9999.000  -9999.000  -9999.000  -9999.000  -9999.000  -9999.000  -9999.000  19.144     -9999.000  12.496     0.025      -9999.000  -9999.000  -9999.000  32.805     0.134      0.104      0.140      -9999.000  3.940      11.068     2.465      16.002     22.421     292.008    5169.970  
5325.931   12.250     61.128     -9999.000  -9999.000  -9999.000  -9999.000  -9999.000  -9999.000  -9999.000  -9999.000  -9999.000  -9999.000  18.825     -9999.000  12.494     0.026      -9999.000  -9999.000  -9999.000  39.165     0.124      0.104      0.134      -9999.000  3.924      11.029     2.471      16.132     23.972     246.322    5170.112  
5326.083   12.250     61.027     -9999.000  -9999.000  -9999.000  -9999.000  -9999.000  -9999.000  -9999.000  -9999.000  -9999.000  -9999.000  18.953     -9999.000  12.496     0.027      -9999.000  -9999.000  -9999.000  57.686     0.116      0.103      0.123      -9999.000  3.903      10.105     2.473      14.468     21.865     270.293    5170.254  
5326.235   12.250     60.986     -9999.000  -9999.000  -9999.000  -9999.000  -9999.000  -9999.000  -9999.000  -9999.000  -9999.000  -9999.000  18.813     -9999.000  12.495     0.028      -9999.000  -9999.000  -9999.000  90.026     0.110      0.099      0.113      -9999.000  3.919      9.071      2.471      12.571     18.410     407.262    5170.395  
5326.388   12.250     61.318     -9999.000  -9999.000  -9999.000  -9999.000  -9999.000  -9999.000  -9999.000  -9999.000  -9999.000  -9999.000  18.450     -9999.000  12.496     0.031      -9999.000  -9999.000  -9999.000  181.020    0.108      0.100      0.109      -9999.000  3.968      8.319      2.471      11.326     16.427     542.478    5170.537  
5326.540   12.250     61.823     -9999.000  -9999.000  -9999.000  -9999.000  -9999.000  -9999.000  -9999.000  -9999.000  -9999.000  -9999.000  18.238     -9999.000  12.496     0.032      -9999.000  -9999.000  -9999.000  222.249    0.108      0.100      0.109      -9999.000  3.997      8.409      2.478      11.589     17.223     592.613    5170.679  
5326.693   12.250     62.355     -9999.000  -9999.000  -9999.000  -9999.000  -9999.000  -9999.000  -9999.000  -9999.000  -9999.000  -9999.000  18.182     -9999.000  12.495     0.032      -9999.000  -9999.000  -9999.000  79.337     0.110      0.097      0.111      -9999.000  3.959      8.035      2.480      11.003     16.183     551.431    5170.820  
5326.845   12.250     62.967     -9999.000  -9999.000  -9999.000  -9999.000  -9999.000  -9999.000  -9999.000  -9999.000  -9999.000  -9999.000  18.407     -9999.000  12.494     0.030      -9999.000  -9999.000  -9999.000  31.740     0.110      0.092      0.114      -9999.000  3.888      7.724      2.476      10.485     15.159     437.657    5170.962  
5326.997   12.250     63.225     -9999.000  -9999.000  -9999.000  -9999.000  -9999.000  -9999.000  -9999.000  -9999.000  -9999.000  -9999.000  18.673     -9999.000  12.494     0.026      -9999.000  -9999.000  -9999.000  21.356     0.107      0.089      0.115      -9999.000  3.843      7.567      2.475      10.266     14.604     321.343    5171.104  
5327.150   12.250     63.364     -9999.000  -9999.000  -9999.000  -9999.000  -9999.000  -9999.000  -9999.000  -9999.000  -9999.000  -9999.000  18.779     -9999.000  12.494     0.024      -9999.000  -9999.000  -9999.000  18.200     0.104      0.086      0.111      -9999.000  3.901      7.555      2.479      10.279     14.471     279.919    5171.245  
5327.302   12.250     63.936     -9999.000  -9999.000  -9999.000  -9999.000  -9999.000  -9999.000  -9999.000  -9999.000  -9999.000  -9999.000  18.792     -9999.000  12.494     0.020      -9999.000  -9999.000  -9999.000  12.849     0.103      0.080      0.104      -9999.000  3.988      7.608      2.482      10.440     14.595     296.995    5171.387  
5327.455   12.250     64.515     -9999.000  -9999.000  -9999.000  -9999.000  -9999.000  -9999.000  -9999.000  -9999.000  -9999.000  -9999.000  18.366     -9999.000  12.495     0.018      -9999.000  -9999.000  -9999.000  12.927     0.100      0.079      0.102      -9999.000  3.973      7.661      2.482      10.583     14.794     295.379    5171.529  
5327.607   12.250     64.738     -9999.000  -9999.000  -9999.000  -9999.000  -9999.000  -9999.000  -9999.000  -9999.000  -9999.000  -9999.000  17.936     -9999.000  12.495     0.016      -9999.000  -9999.000  -9999.000  14.812     0.098      0.081      0.104      -9999.000  3.922      7.544      2.478      10.446     14.483     248.857    5171.671  
5327.759   12.250     64.764     -9999.000  -9999.000  -9999.000  -9999.000  -9999.000  -9999.000  -9999.000  -9999.000  -9999.000  -9999.000  17.658     -9999.000  12.495     0.015      -9999.000  -9999.000  -9999.000  16.851     0.099      0.084      0.107      -9999.000  3.910      6.909      2.469      9.322      12.552     216.410    5171.812  
5327.912   12.250     64.479     -9999.000  -9999.000  -9999.000  -9999.000  -9999.000  -9999.000  -9999.000  -9999.000  -9999.000  -9999.000  17.912     -9999.000  12.495     0.015      -9999.000  -9999.000  -9999.000  15.066     0.103      0.083      0.107      -9999.000  3.892      6.138      2.463      8.019      10.484     240.050    5171.954  
