~Version
 VERS              .         2.0                           : CWLS LOG ASCII STANDARD - VERSION 2.0
 WRAP              .         NO                            : ONE LINE PER DEPTH STEP
 DLM               .         SPACE                         : DELIMITING CHARACTER(SPACE TAB OR COMMA)
~Well Information
#_______________________________________________________________________________
#
#PARAMETER_NAME    .UNIT     VALUE                         : DESCRIPTION
#_______________________________________________________________________________
STRT               .M        5082.700                      : First reference value
STOP               .M        5352.753                      : Last reference value
STEP               .M        0.152                         : Step increment
NULL               .         -9999                         : Missing value
COMP               .         PETROBRAS                     : Company
WELL               .         7-SPH-16D-SPS                 : Well name
FLD                .         SAPINHOA                      : Field
LOC                .                                       : Location
CNTY               .                                       : County
STAT               .         SP                            : State
CTRY               .                                       : Country
SRVC               .                                       : Service Company
DATE               .                                       : Date
API                .                                       : API number
APD                .M        24.0                          : ABOVE PERMANENT DATUM
BHT                .degF     144.0                         : BOTTOMHOLE TEMPERATURE
BLI                .M        5312.4                        : BOTTOM LOGGED INTERVAL
BS                 .in       12.25                         : BIT SIZE
DCS                .         04/09/2014                    : DATE CIRCULATION STOPPED
DFD                .lb/gal   9.5                           : DRILLING FLUID DENSITY
DFT                .         BR-MUL                        : DRILLING FLUID TYPE
DLAB               .         05/09/2014                    : DATE LOGGING ON BOTTOM
EDF                .M        24.0                          : ELEVATION OF DRILLING FLOOR
EGL                .M        -2125.0                       : ELEVATION OF GROUND LEVEL
EKB                .M        -999.25                       : ELEVATION OF KELLY BUSHING
EPD                .M        0.0                           : ELEVATATION OF PERMANENT DATUM
LMF                .         MR                            : LOG MEASURED FROM
LUL                .         MCE                           : LOGGING UNIT LOCATION
LUN                .         11202303                      : LOGGING UNIT NUMBER
LONG               .         -43_10_06.229                 : LONGITUDE
MCST               .degF     -999.25                       : MUDCAKE SAMPLE TEMPERATURE
MFST               .degF     -999.25                       : MUD FILTRATE SAMPLE TEMPERATURE
MRT                .degF     144.0                         : MAXIMUM RECORDED TEMPERATURE
MST                .degF     -999.25                       : MUD SAMPLE TEMPERATURE
PDAT               .         NM                            : PERMANENT DATUM
PRODUCER-CODE      .         280                           : 
PRODUCER-NAME      .         Halliburton                   : 
RMB                .ohm.m    -999.25                       : RESISTIVITY OF MUD - BHT
RMCS               .ohm.m    -999.25                       : RESISTIVITY OF MUDCAKE SAMPLE
RMFS               .ohm.m    -999.25                       : RESISTIVITY OF MUD FILTRATE SAMPLE
RMS                .ohm.m    -999.25                       : RESISTIVITY OF MUD SAMPLE
RUN                .         01                            : RUN NUMBER 1
TCS                .h        05_30                         : TIME CIRCULATION STOPPED
TDD                .M        5343.0                        : DRILLERS DEPTH
TDL                .M        5345.0                        : LOGGERS DEPTH
TLAB               .h        16_45                         : TIME LOGGING ON BOTTOM
TLI                .M        5135.0                        : TOP LOGGED INTERVAL
X                  .M        683789.99900000               : X UTM Coordinate
Y                  .M        7152001.99900000              : Y UTM Coordinate
~Parameter Information Block
#_______________________________________________________________________________
#
#PARAMETER_NAME    .UNIT     VALUE                         : DESCRIPTION
#_______________________________________________________________________________
SET                .         BASE                          : 
TLFamily_BS        .         Bit Size                      : 
TLFamily_DT        .         Compressional Slowness        : 
TLFamily_DWAL      .         Aluminum Weight Fraction      : 
TLFamily_DWCA      .         Calcium Weight Fraction       : 
TLFamily_DWFE      .         Iron Weight Fraction          : 
TLFamily_DWGD      .         Gadolinium Weight Fraction    : 
TLFamily_DWK       .         Potassium Weight Fraction     : 
TLFamily_DWMG      .         Magnesium Weight Fraction     : 
TLFamily_DWMN      .         Manganese Weight Fraction     : 
TLFamily_DWS       .         Sulfur Weight Fraction        : 
TLFamily_DWSI      .         Silicon Weight Fraction       : 
TLFamily_DWTI      .         Titanium Weight Fraction      : 
TLFamily_GR        .         Gamma Ray                     : 
TLFamily_GRt       .         Gamma Ray                     : 
TLFamily_HCAL      .         Caliper                       : 
TLFamily_HDRA      .         Bulk Density Correction       : 
TLFamily_HFK       .         Potassium Concentration       : 
TLFamily_HTHO      .         Thorium Concentration         : 
TLFamily_HURA      .         Uranium Concentration         : 
TLFamily_MD        .         Measured Depth                : 
TLFamily_MPERM     .         NMR Permeability              : 
TLFamily_NMRE_Final .         NMR Bound Fluid Volume Fraction: 
TLFamily_NMRFL_Final .         NMR Free Fluids               : 
TLFamily_NMRT_Final .         NMR Porosity                  : 
TLFamily_NPHI      .         Neutron Porosity              : 
TLFamily_PE        .         Photoelectric Factor          : 
TLFamily_RD        .         Resistivity - Deep            : 
TLFamily_RHOB      .         Bulk Density                  : 
TLFamily_RM        .         Resistivity - Medium          : 
TLFamily_RS        .         Resistivity - Shallow         : 
TLFamily_T2LM      .         NMR T2 Logarithmic Mean       : 
TLFamily_TVDSS     .         True Vertical Depth Sub Sea   : 
~Curve Information
#_______________________________________________________________________________
#
#LOGNAME           .UNIT     LOG_ID                        : DESCRIPTION
#_______________________________________________________________________________
DEPTH              .M                                      :  
BS                 .in                                     : BS/Bit Size 
DT                 .us/ft                                  : DT/DTC 
DWAL               .kg/kg                                  : DAL/DryrockAlWF 
DWCA               .kg/kg                                  : DCA/DryrockCaWF 
DWFE               .kg/kg                                  : DFE/DryrockFeWF 
DWGD               .ppm                                    : DGD/DryrockGdWF 
DWK                .kg/kg                                  : DK/DryrockKWF 
DWMG               .kg/kg                                  : DMG/DryrockMgWF 
DWMN               .kg/kg                                  : DMN/DryrockMnWF 
DWS                .kg/kg                                  : DSUL/DryrockSuWF 
DWSI               .kg/kg                                  : DSI/DryrockSiWF 
DWTI               .kg/kg                                  : DTI/DryrockTiWF 
GR                 .gAPI                                   : GR/Gamma API 
GRt                .gAPI                                   : GKUT/GKUT 
HCAL               .in                                     : CALI/Caliper 
HDRA               .g/cm3                                  : DRHO/DensityCorr 
HFK                .%                                      : POTA/Potassium 
HTHO               .ppm                                    : THOR/Thorium 
HURA               .ppm                                    : URAN/Uranium 
MPERM              .mD                                     : MPERMT2/MrilT2KCoat 
NMRE_Final         .m3/m3                                  : MPHIT2/TA-grp T2 Effective Por 
NMRFL_Final        .unitless                               : MFFIT2/TA-grp T2 FreeFluid Ind 
NMRT_Final         .frac                                   : MSIGT2/TA-grp T2 Total Por. 
NPHI               .frac                                   : NPHI/Neutron Porosity 
PE                 .b/e                                    : PE/Pe 
RD                 .ohm.m                                  : RT90/90in Resistivity 2ft Res 
RHOB               .g/cm3                                  : RHOB/Density 
RM                 .ohm.m                                  : RT30/30in Resistivity 2ft Res 
RS                 .ohm.m                                  : RT10/10in Resistivity 2ft Res 
T2LM               .ms                                     : T2LM/T2 Log Mean 
TVDSS              .M                                      :  
~Ascii
# ...
5205.382   12.250     58.839     0.023      0.253      0.000      0.333      0.001      0.046      0.001      0.006      0.067      0.001      13.700     19.125     12.328     -0.003     0.131      0.484      1.523      7.723      0.089      0.073      0.099      0.087      4.518      514.414    2.556      615.266    832.546    165.003    5058.361  
5205.535   12.250     58.765     0.023      0.253      0.000      0.333      0.001      0.044      0.001      0.006      0.070      0.001      13.245     18.224     12.331     -0.003     0.139      0.400      1.376      8.058      0.088      0.075      0.103      0.085      4.500      528.900    2.551      629.173    844.676    138.455    5058.502  
5205.687   12.250     58.563     0.021      0.261      0.000      0.295      0.001      0.039      0.001      0.007      0.071      0.001      13.161     17.617     12.334     -0.005     0.154      0.419      1.249      6.304      0.093      0.073      0.105      0.082      4.488      558.649    2.553      655.226    865.218    147.707    5058.642  
5205.839   12.250     58.469     0.019      0.266      0.000      0.273      0.002      0.036      0.001      0.007      0.072      0.001      13.137     16.889     12.329     -0.008     0.167      0.472      1.140      5.077      0.094      0.070      0.103      0.076      4.480      583.906    2.568      676.042    880.508    174.105    5058.783  
5205.992   12.250     58.133     0.016      0.262      0.000      0.222      0.002      0.042      0.001      0.008      0.070      0.001      13.526     16.647     12.336     -0.015     0.178      0.490      1.107      6.150      0.090      0.070      0.095      0.075      4.448      629.703    2.596      712.376    906.044    206.946    5058.924  
5206.144   12.250     57.896     0.019      0.253      0.001      0.258      0.002      0.048      0.001      0.008      0.067      0.001      14.209     17.275     12.341     -0.018     0.202      0.480      1.251      7.118      0.085      0.068      0.087      0.076      4.422      665.008    2.613      739.643    924.653    240.815    5059.064  
5206.297   12.250     57.517     0.021      0.245      0.001      0.296      0.002      0.053      0.001      0.009      0.064      0.001      15.178     18.086     12.351     -0.016     0.233      0.463      1.400      5.740      0.080      0.063      0.080      0.073      4.348      724.742    2.609      784.094    953.672    257.613    5059.205  
5206.449   12.250     56.815     0.026      0.245      0.001      0.359      0.002      0.049      0.001      0.010      0.065      0.001      15.842     19.110     12.356     -0.012     0.236      0.489      1.535      4.039      0.078      0.060      0.078      0.068      4.319      762.816    2.597      811.101    970.198    232.013    5059.346  
5206.601   12.250     56.382     0.031      0.251      0.002      0.438      0.002      0.041      0.001      0.012      0.065      0.001      16.794     19.784     12.346     -0.009     0.235      0.582      1.629      3.214      0.079      0.059      0.079      0.053      4.384      823.462    2.588      852.404    993.867    204.499    5059.487  
5206.754   12.250     55.999     0.033      0.266      0.002      0.472      0.002      0.025      0.001      0.013      0.069      0.001      16.640     20.260     12.351     -0.005     0.228      0.783      1.680      3.061      0.079      0.058      0.079      0.049      4.481      859.133    2.595      876.334    1006.891   207.803    5059.627  
5206.906   12.250     55.830     0.032      0.289      0.002      0.448      0.002      0.006      0.001      0.015      0.073      0.001      16.309     20.664     12.340     -0.004     0.213      1.107      1.711      3.399      0.077      0.058      0.077      0.051      4.648      917.282    2.617      915.505    1027.343   225.948    5059.768  
5207.059   12.250     55.429     0.029      0.296      0.001      0.410      0.002      0.001      0.001      0.016      0.078      0.001      16.530     21.356     12.332     -0.008     0.221      1.380      1.805      3.521      0.072      0.057      0.073      0.052      4.694      951.014    2.635      938.485    1038.225   204.082    5059.909  
5207.211   12.250     55.148     0.024      0.299      0.001      0.329      0.002      0.000      0.001      0.016      0.081      0.001      17.159     21.878     12.328     -0.008     0.233      1.523      1.850      2.353      0.066      0.052      0.067      0.053      4.650      985.698    2.641      961.752    1043.385   155.707    5060.049  
5207.363   12.250     54.801     0.017      0.295      0.001      0.218      0.003      0.000      0.001      0.017      0.093      0.001      17.953     22.162     12.332     -0.004     0.249      1.429      1.871      1.000      0.060      0.045      0.062      0.061      4.489      1031.817   2.644      991.047    999.174    122.513    5060.190  
5207.516   12.250     54.759     0.017      0.287      0.001      0.213      0.003      0.000      0.001      0.017      0.101      0.001      18.687     22.227     12.332     -0.005     0.267      1.084      1.813      0.419      0.057      0.039      0.064      0.064      4.407      1056.689   2.645      1005.000   1003.320   95.468     5060.331  
5207.668   12.250     54.868     0.022      0.274      0.001      0.296      0.003      0.002      0.001      0.015      0.109      0.001      18.461     22.546     12.338     -0.009     0.281      0.671      1.716      0.368      0.057      0.039      0.072      0.064      4.374      1083.102   2.632      1017.436   1069.459   63.246     5060.472  
5207.821   12.250     55.420     0.025      0.261      0.001      0.340      0.003      0.011      0.000      0.013      0.107      0.001      18.508     23.424     12.343     -0.011     0.312      0.490      1.613      0.473      0.058      0.041      0.080      0.066      4.394      1097.781   2.608      1023.757   1072.281   49.344     5060.612  
5207.973   12.250     56.039     0.028      0.255      0.001      0.384      0.004      0.017      0.000      0.011      0.101      0.001      21.077     24.631     12.330     -0.014     0.334      0.503      1.611      0.923      0.063      0.048      0.080      0.069      4.378      1114.912   2.574      1032.008   1074.635   74.997     5060.753  
5208.125   12.250     56.395     0.032      0.263      0.000      0.443      0.004      0.013      0.000      0.010      0.096      0.001      22.919     25.818     12.328     -0.015     0.348      0.550      1.673      2.319      0.068      0.055      0.075      0.071      4.339      1124.207   2.565      1036.691   1075.751   161.514    5060.894  
5208.278   12.250     56.592     0.034      0.274      0.000      0.473      0.004      0.007      0.000      0.009      0.090      0.002      22.729     25.725     12.334     -0.015     0.352      0.553      1.738      2.523      0.073      0.055      0.075      0.074      4.382      1129.823   2.580      1038.091   1074.345   255.146    5061.034  
5208.430   12.250     56.906     0.031      0.272      0.000      0.424      0.003      0.013      0.001      0.008      0.086      0.002      21.528     24.599     12.343     -0.014     0.347      0.531      1.748      1.161      0.075      0.050      0.083      0.074      4.503      1126.323   2.590      1032.392   1068.403   196.963    5061.175  
5208.583   12.250     57.388     0.029      0.274      0.000      0.408      0.003      0.015      0.001      0.008      0.082      0.002      19.365     23.045     12.341     -0.012     0.323      0.480      1.723      1.160      0.080      0.052      0.095      0.075      4.536      1116.019   2.582      1020.426   1057.282   119.659    5061.316  
5208.735   12.250     57.626     0.033      0.278      0.000      0.465      0.002      0.009      0.001      0.009      0.084      0.001      17.581     21.522     12.340     -0.011     0.279      0.439      1.703      2.090      0.087      0.059      0.103      0.077      4.379      1105.010   2.567      1009.574   1047.349   109.730    5061.457  
