~Version
 VERS              .         2.0                           : CWLS LOG ASCII STANDARD - VERSION 2.0
 WRAP              .         NO                            : ONE LINE PER DEPTH STEP
 DLM               .         SPACE                         : DELIMITING CHARACTER(SPACE TAB OR COMMA)
~Well Information
#_______________________________________________________________________________
#
#PARAMETER_NAME    .UNIT     VALUE                         : DESCRIPTION
#_______________________________________________________________________________
STRT               .M        4949.000                      : First reference value
STOP               .M        5060.404                      : Last reference value
STEP               .M        0.152                         : Step increment
NULL               .         -9999                         : Missing value
COMP               .         PETROBRAS                     : Company
WELL               .         7-SPH-22-SPS                  : Well name
FLD                .         SAPINHOA                      : Field
LOC                .                                       : Location
CNTY               .                                       : County
STAT               .         SAO PAULO                     : State
CTRY               .         BR                            : Country
SRVC               .                                       : Service Company
DATE               .         25/07/2016                    : Date
API                .         863160046800                  : API number
APD                .M        26.0                          : ABOVE PERMANENT DATUM
BHT                .degF     140.0                         : BOTTOMHOLE TEMPERATURE
BLI                .M        5055.8                        : BOTTOM LOGGED INTERVAL
BS                 .in       8.5                           : BIT SIZE
CBDR               .M        4981                          : Casing Bottom (Driller)
CBLO               .M        4981                          : Casing Bottom of Logger
CSIZ               .in       10.75                         : Casing Outer Diameter
CWEI               .lb/ft    85.3                          : Casing Weight
DCS                .         23/07/2016                    : DATE CIRCULATION STOPPED
DFD                .lb/gal   9.7                           : DRILLING FLUID DENSITY
DFT                .         CATIONICO_SCOL (BASE AGUA)    : DRILLING FLUID TYPE
DLAB               .         25/07/2016                    : DATE LOGGING ON BOTTOM
EDF                .M        26.0                          : ELEVATION OF DRILLING FLOOR
EGL                .M        -2144.0                       : ELEVATION OF GROUND LEVEL
EKB                .M        -999.25                       : ELEVATION OF KELLY BUSHING
EPD                .M        0.0                           : ELEVATATION OF PERMANENT DATUM
GDAT               .                                       : Geodetic Datum
LMF                .         MR                            : LOG MEASURED FROM
LUL                .         MCE                           : LOGGING UNIT LOCATION
LUN                .         10898943                      : LOGGING UNIT NUMBER
LATI               .         -25_48_08.320                 : Latitude
LONG               .         -43_13_44,430                 : LONGITUDE
MCST               .degF     66.1                          : MUDCAKE SAMPLE TEMPERATURE
MFST               .degF     66.4                          : MUD FILTRATE SAMPLE TEMPERATURE
MRT                .degF     140.0                         : MAXIMUM RECORDED TEMPERATURE
MST                .degF     65.8                          : MUD SAMPLE TEMPERATURE
ORIGINALWELLNAME   .         7SPH 0022  SPS                : 
PDAT               .         NM                            : PERMANENT DATUM
PRODUCER-CODE      .         280                           : 
PRODUCER-NAME      .         Halliburton                   : 
RMB                .ohm.m    0.040                         : RESISTIVITY OF MUD - BHT
RMCS               .ohm.m    0.140                         : RESISTIVITY OF MUDCAKE SAMPLE
RMFS               .ohm.m    0.012                         : RESISTIVITY OF MUD FILTRATE SAMPLE
RMS                .ohm.m    0.080                         : RESISTIVITY OF MUD SAMPLE
RUN                .         01                            : RUN NUMBER 1
TCS                .h        19_00                         : TIME CIRCULATION STOPPED
TDD                .M        5058.0                        : DRILLERS DEPTH
TDL                .M        5057.1                        : LOGGERS DEPTH
TLAB               .h        07_15                         : TIME LOGGING ON BOTTOM
TLI                .M        4950.0                        : TOP LOGGED INTERVAL
X                  .M        677550.00000000               : X or East-West coordinate
Y                  .M        7145014.00000000              : Y or North South coordinate
~Parameter Information Block
#_______________________________________________________________________________
#
#PARAMETER_NAME    .UNIT     VALUE                         : DESCRIPTION
#_______________________________________________________________________________
SET                .         BASE                          : 
TLFamily_BS        .         Bit Size                      : 
TLFamily_DT        .         Compressional Slowness        : 
TLFamily_DWAL      .         Aluminum Weight Fraction      : 
TLFamily_DWCA      .         Calcium Weight Fraction       : 
TLFamily_DWFE      .         Iron Weight Fraction          : 
TLFamily_DWK       .         Potassium Weight Fraction     : 
TLFamily_DWMG      .         Magnesium Weight Fraction     : 
TLFamily_DWMN      .         Manganese Weight Fraction     : 
TLFamily_DWS       .         Sulfur Weight Fraction        : 
TLFamily_DWSI      .         Silicon Weight Fraction       : 
TLFamily_DWTI      .         Titanium Weight Fraction      : 
TLFamily_GR        .         Gamma Ray                     : 
TLFamily_GRt       .         Gamma Ray                     : 
TLFamily_HCAL      .         Caliper                       : 
TLFamily_HDRA      .         Bulk Density Correction       : 
TLFamily_HFK       .         Potassium Concentration       : 
TLFamily_HTHO      .         Thorium Concentration         : 
TLFamily_HURA      .         Uranium Concentration         : 
TLFamily_MD        .         Measured Depth                : 
TLFamily_MPERM     .         NMR Permeability              : 
TLFamily_NMRE_Final .         NMR Bound Fluid Volume Fraction: 
TLFamily_NMRFL_Final .         NMR Free Fluids               : 
TLFamily_NMRT_Final .         NMR Porosity                  : 
TLFamily_NPHI      .         Neutron Porosity              : 
TLFamily_PE        .         Photoelectric Factor          : 
TLFamily_RD        .         Resistivity - Deep            : 
TLFamily_RHOB      .         Bulk Density                  : 
TLFamily_RS        .         Resistivity - Shallow         : 
TLFamily_T2LM      .         NMR T2 Logarithmic Mean       : 
TLFamily_TVDSS     .         True Vertical Depth Sub Sea   : 
~Curve Information
#_______________________________________________________________________________
#
#LOGNAME           .UNIT     LOG_ID                        : DESCRIPTION
#_______________________________________________________________________________
DEPTH              .M                                      :  
BS                 .in                                     : BS/Bit Size 
DT                 .us/ft                                  : SONICO COMPRESSIONAL (COMPOSICAO DE CURVAS CABO E/OU LWD) 
DWAL               .kg/kg                                  : DAL/DryrockAlWF 
DWCA               .kg/kg                                  : DCA/DryrockCaWF 
DWFE               .kg/kg                                  : DFE/DryrockFeWF 
DWK                .kg/kg                                  : DK/DryrockKWF 
DWMG               .kg/kg                                  : DMG/DryrockMgWF 
DWMN               .kg/kg                                  : DMN/DryrockMnWF 
DWS                .kg/kg                                  : DSUL/DryrockSuWF 
DWSI               .kg/kg                                  : DSI/DryrockSiWF 
DWTI               .kg/kg                                  : DTI/DryrockTiWF 
GR                 .gAPI                                   : GR/Gamma API 
GRt                .gAPI                                   : GKUT/GammaKUT 
HCAL               .in                                     : CALI/Caliper 
HDRA               .g/cm3                                  : DRHO/DensityCorr 
HFK                .%                                      : POTA/Potassium 
HTHO               .ppm                                    : THOR/Thorium 
HURA               .ppm                                    : URAN/Uranium 
MPERM              .mD                                     : MPERMT2/MrilT2KCoat 
NMRE_Final         .m3/m3                                  : MPHIT2/TA-grp T2 Effective Por 
NMRFL_Final        .unitless                               : MFFIT2/TA-grp T2 FreeFluid Ind 
NMRT_Final         .frac                                   : MSIGT2/TA-grp T2 Total Por. 
NPHI               .frac                                   : NPHI/Neutron Porosity 
PE                 .b/e                                    : PE/Pe 
RD                 .ohm.m                                  : LLD/LLD 
RHOB               .g/cm3                                  : RHOB/Density 
RS                 .ohm.m                                  : LLS/LLS 
T2LM               .ms                                     : T2LM/T2 Log Mean 
TVDSS              .M                                      :  
~Ascii
# ...
4998.530   8.500      72.666     0.028      0.332      0.000      0.001      0.000      0.001      0.012      0.041      0.001      11.778     12.380     8.500      -0.025     0.080      0.154      1.182      170.888    0.187      0.148      0.187      0.180      4.407      14332.832  2.353      35997.156  264.684    4966.231  
4998.682   8.500      72.552     0.021      0.331      0.000      0.001      0.004      0.001      0.012      0.043      0.001      11.416     12.443     8.499      -0.025     0.073      0.093      1.223      174.540    0.187      0.148      0.187      0.183      4.418      13757.010  2.362      37600.523  250.298    4966.382  
4998.835   8.500      72.029     0.009      0.330      0.000      0.000      0.014      0.000      0.009      0.044      0.000      11.135     12.509     8.499      -0.025     0.060      0.118      1.245      134.316    0.185      0.143      0.186      0.181      4.454      13707.360  2.368      39999.984  247.395    4966.533  
4998.987   8.500      71.582     0.006      0.326      0.000      0.000      0.021      0.000      0.007      0.043      0.000      10.950     12.318     8.499      -0.025     0.053      0.183      1.212      98.776     0.179      0.136      0.180      0.177      4.478      13381.327  2.362      39999.984  267.933    4966.685  
4999.140   8.500      71.082     0.007      0.295      0.000      0.000      0.046      0.000      0.005      0.038      0.000      10.424     11.956     8.500      -0.024     0.043      0.251      1.163      81.177     0.172      0.130      0.172      0.182      4.472      11051.174  2.358      22928.990  302.220    4966.836  
4999.292   8.500      69.124     0.006      0.285      0.000      0.001      0.052      0.000      0.003      0.041      0.000      9.807      11.221     8.498      -0.023     0.034      0.260      1.095      75.765     0.166      0.126      0.167      0.182      4.387      7198.869   2.365      7238.427   326.298    4966.987  
4999.444   8.500      67.488     0.005      0.272      0.000      0.001      0.062      0.000      0.003      0.041      0.000      9.747      10.593     8.506      -0.019     0.020      0.237      1.059      72.809     0.163      0.125      0.164      0.180      4.264      6580.855   2.372      5985.075   338.949    4967.138  
4999.597   8.500      68.263     0.004      0.287      0.000      0.001      0.049      0.001      0.002      0.047      0.000      10.056     10.161     8.515      -0.014     0.010      0.287      1.008      68.024     0.160      0.122      0.160      0.173      4.209      6553.535   2.375      5811.480   359.331    4967.290  
4999.749   8.500      69.783     0.002      0.301      0.000      0.001      0.033      0.001      0.002      0.059      0.000      10.537     9.971      8.514      -0.009     0.007      0.549      0.898      67.852     0.154      0.120      0.155      0.166      4.283      8123.850   2.384      9306.257   399.060    4967.441  
4999.902   8.500      70.339     0.000      0.313      0.000      0.001      0.019      0.001      0.002      0.069      0.000      10.795     9.799      8.509      -0.004     0.015      0.895      0.738      75.452     0.148      0.118      0.148      0.152      4.405      12679.321  2.398      31145.398  428.495    4967.592  
5000.054   8.500      70.188     0.001      0.313      0.001      0.001      0.018      0.001      0.002      0.070      0.000      9.509      9.766      8.509      0.001      0.026      1.322      0.561      65.541     0.147      0.117      0.148      0.151      4.465      13919.414  2.431      39999.984  387.755    4967.743  
5000.206   8.500      68.997     0.001      0.314      0.001      0.001      0.017      0.001      0.002      0.069      0.000      8.574      9.639      8.510      0.000      0.050      1.605      0.401      41.747     0.148      0.113      0.155      0.153      4.471      14190.512  2.465      39999.984  293.973    4967.894  
5000.359   8.500      67.178     0.002      0.311      0.001      0.001      0.022      0.001      0.004      0.063      0.000      9.574      9.701      8.509      -0.013     0.092      1.588      0.340      36.326     0.146      0.112      0.158      0.137      4.674      14322.639  2.473      39999.984  238.927    4968.046  
5000.511   8.500      66.184     0.004      0.300      0.001      0.000      0.033      0.001      0.005      0.055      0.000      10.028     9.895      8.510      -0.022     0.131      1.429      0.351      44.793     0.141      0.113      0.151      0.124      4.931      14733.143  2.469      17807.686  255.503    4968.197  
5000.664   8.500      65.235     0.009      0.297      0.001      0.000      0.038      0.001      0.008      0.044      0.001      9.575      10.037     8.514      -0.024     0.162      1.269      0.370      50.714     0.135      0.109      0.139      0.127      5.020      20478.105  2.470      10585.331  297.964    4968.348  
5000.816   8.500      64.492     0.015      0.292      0.000      0.000      0.043      0.000      0.010      0.034      0.001      8.843      10.209     8.513      -0.027     0.184      1.030      0.437      33.915     0.130      0.101      0.131      0.127      4.994      15887.202  2.473      25190.098  291.541    4968.499  
5000.968   8.500      64.856     0.018      0.297      0.000      0.000      0.044      0.000      0.012      0.021      0.002      9.113      10.228     8.517      -0.026     0.182      0.979      0.461      15.549     0.127      0.091      0.130      0.127      4.984      14995.799  2.474      29612.926  228.195    4968.651  
5001.121   8.500      64.976     0.021      0.305      0.000      0.001      0.040      0.000      0.014      0.014      0.002      9.172      10.150     8.521      -0.022     0.177      1.092      0.421      10.010     0.126      0.085      0.133      0.149      5.035      14028.394  2.470      27384.947  183.699    4968.802  
5001.273   8.500      65.884     0.021      0.305      0.000      0.001      0.043      0.001      0.013      0.009      0.002      8.686      10.075     8.518      -0.020     0.171      1.216      0.379      10.737     0.132      0.087      0.136      0.147      5.084      12356.056  2.465      17276.219  178.572    4968.953  
5001.426   8.500      67.737     0.020      0.303      0.000      0.001      0.048      0.001      0.013      0.005      0.001      9.262      10.222     8.512      -0.017     0.164      1.464      0.316      17.355     0.142      0.096      0.143      0.144      5.083      7423.041   2.451      5730.506   193.857    4969.104  
5001.578   8.500      69.092     0.015      0.300      0.000      0.001      0.055      0.001      0.012      0.004      0.001      10.328     10.423     8.505      -0.019     0.152      1.674      0.284      31.920     0.154      0.109      0.154      0.145      4.994      6779.043   2.437      4764.417   212.202    4969.256  
5001.730   8.500      68.894     0.009      0.297      0.000      0.001      0.058      0.001      0.011      0.009      0.001      11.764     10.640     8.505      -0.024     0.105      1.834      0.332      60.481     0.169      0.124      0.169      0.158      4.849      1139.872   2.407      994.784    232.522    4969.407  
5001.883   8.500      68.878     0.011      0.314      0.000      0.001      0.041      0.001      0.011      0.016      0.000      11.926     10.659     8.503      -0.016     0.079      1.898      0.356      120.489    0.180      0.140      0.182      0.156      4.819      995.865    2.392      817.952    262.412    4969.558  
5002.035   8.500      68.783     0.016      0.333      0.000      0.001      0.011      0.001      0.012      0.036      0.000      10.713     10.515     8.502      -0.005     0.042      1.938      0.392      184.767    0.180      0.149      0.188      0.161      4.728      961.784    2.390      809.322    299.657    4969.709  
5002.188   8.500      69.154     0.015      0.333      0.000      0.001      0.001      0.001      0.013      0.053      0.000      9.854      10.267     8.502      -0.007     0.025      1.821      0.437      234.895    0.177      0.153      0.188      0.160      4.539      891.666    2.399      787.710    382.528    4969.861  
