~Version
 VERS              .         2.0                           : CWLS LOG ASCII STANDARD - VERSION 2.0
 WRAP              .         NO                            : ONE LINE PER DEPTH STEP
 DLM               .         SPACE                         : DELIMITING CHARACTER(SPACE TAB OR COMMA)
~Well Information
#_______________________________________________________________________________
#
#PARAMETER_NAME    .UNIT     VALUE                         : DESCRIPTION
#_______________________________________________________________________________
STRT               .M        4938.217                      : First reference value
STOP               .M        5227.625                      : Last reference value
STEP               .M        0.152                         : Step increment
NULL               .         -9999                         : Missing value
COMP               .         PETROBRAS                     : Company
WELL               .         7-SPH-17-SPS                  : Well name
FLD                .         SAPINHOA                      : Field
LOC                .                                       : Location
CNTY               .                                       : County
STAT               .         86316027948                   : State
CTRY               .         Brasil                        : Country
SRVC               .                                       : Service Company
DATE               .                                       : Date
API                .                                       : API number
APD                .M        25                            : Elevation of Depth Reference (LMF) Above Permanent Datum
BHS                .         OPEN                          : Borehole Status (Open or Cased Hole)
BHT                .degF     144                           : Bottom Hole Temperature
BLI                .M        5222.59                       : Bottom Log Interval
BS                 .in       12.25                         : Bit Size
CBDR               .M        5017                          : Casing Bottom (Driller)
CBLO               .M        5020.6                        : Casing Bottom (Logger)
CSIZ               .in       14                            : Casing Outer Diameter
CWEI               .lbm/ft   114                           : Casing Weight
DCS                .         04/01/2015                    : Date Circulation Stopped
DFD                .lb/gal   9.6                           : Drilling Fluid Density
DFT                .         BR-MUL                        : Drilling Fluid Type
DLAB               .         06/01/2015                    : Date Logging on Bottom
EDF                .M        25                            : Elevation of Drill Floor
EGL                .M        -2131                         : Elevation of Ground Level
EKB                .M        25                            : Elevation of Kelly Bushing
EPD                .M        0                             : Elevation of Permanent Datum (PDAT) above Mean Sea Level
LMF                .         MR                            : Logging Measured From (Name of Logging Elevation Reference)
LUL                .         BRMA                          : Logging Unit Location
LUN                .         7806                          : Logging Unit Number
LONG               .         -43_09_42,450                 : Longitude
MCST               .degF     -999.25                       : Mudcake Sample Temperature
MFST               .degF     -999.25                       : Mud Filtrate Sample Temperature
MRT                .degF     144                           : Maximum Recorded Temperature
MST                .degF     -999.25                       : Mud Sample Temperature
PDAT               .         NM                            : Permanent Datum
PRODUCER-CODE      .         440                           : 
PRODUCER-NAME      .         Schlumberger                  : 
RMB                .ohm.m    -999.25                       : Resistivity of Mud at Bottom Hole Temperature
RMCS               .ohm.m    -999.25                       : Resistivity of Mud Cake Sample
RMFS               .ohm.m    -999.25                       : Resistivity of Mud Filtrate Sample
RMS                .ohm.m    -999.25                       : Resistivity of Mud Sample
RUN                .         02                            : Run Number
TCS                .h        17_30                         : Time Circulation Stopped
TDD                .M        5221                          : Total Depth (Driller)
TDL                .M        5225                          : Logger Total Depth
TLAB               .h        09_25                         : Time Logging on Bottom
TLI                .M        5020.6                        : Top Log Interval
X                  .M        684517.00000000               : 
Y                  .M        7161201.00000000              : 
~Parameter Information Block
#_______________________________________________________________________________
#
#PARAMETER_NAME    .UNIT     VALUE                         : DESCRIPTION
#_______________________________________________________________________________
SET                .         BASE                          : 
TLFamily_BS        .         Bit Size                      : 
TLFamily_DT        .         Compressional Slowness        : 
TLFamily_DWAL      .         Aluminum Weight Fraction      : 
TLFamily_DWCA      .         Calcium Weight Fraction       : 
TLFamily_DWFE      .         Iron Weight Fraction          : 
TLFamily_DWGD      .         Gadolinium Weight Fraction    : 
TLFamily_DWS       .         Sulfur Weight Fraction        : 
TLFamily_DWSI      .         Silicon Weight Fraction       : 
TLFamily_DWTI      .         Titanium Weight Fraction      : 
TLFamily_GR        .         Gamma Ray                     : 
TLFamily_GRt       .         Gamma Ray                     : 
TLFamily_HCAL      .         Caliper                       : 
TLFamily_HDRA      .         Bulk Density Correction       : 
TLFamily_HFK       .         Potassium Concentration       : 
TLFamily_HTHO      .         Thorium Concentration         : 
TLFamily_HURA      .         Uranium Concentration         : 
TLFamily_KSDR      .         NMR Permeability              : 
TLFamily_KTIM      .         NMR Permeability              : 
TLFamily_MD        .         Measured Depth                : 
TLFamily_NMRE_Final .         NMR Bound Fluid Volume Fraction: 
TLFamily_NMRFL_Final .         NMR Free Fluids               : 
TLFamily_NMRT_Final .         NMR Porosity                  : 
TLFamily_NPHI      .         Neutron Porosity              : 
TLFamily_PE        .         Photoelectric Factor          : 
TLFamily_RD        .         Resistivity - Deep            : 
TLFamily_RHOB      .         Bulk Density                  : 
TLFamily_RM        .         Resistivity - Medium          : 
TLFamily_RS        .         Resistivity - Shallow         : 
TLFamily_T2LM      .         NMR T2 Logarithmic Mean       : 
TLFamily_TVDSS     .         True Vertical Depth Sub Sea   : 
~Curve Information
#_______________________________________________________________________________
#
#LOGNAME           .UNIT     LOG_ID                        : DESCRIPTION
#_______________________________________________________________________________
DEPTH              .M                                      :  
BS                 .in                                     : Bit Size 
DT                 .us/ft                                  : Delta-T Compressional 
DWAL               .kg/kg                                  : Dry Weight Fraction Pseudo Aluminum (SpectroLith WALK2 Model) 
DWCA               .kg/kg                                  : Dry Weight Fraction Calcium (SpectroLith WALK2 Model) 
DWFE               .kg/kg                                  : Dry Weight Fraction Iron + 0.14 Aluminum (SpectroLith WALK2 Model) 
DWGD               .ppm                                    : Dry Weight Fraction Gadolinium (SpectroLith WALK2 Model) 
DWS                .kg/kg                                  : Dry Weight Fraction Sulfur (SpectroLith WALK2 Model) 
DWSI               .kg/kg                                  : Dry Weight Fraction Silicon (SpectroLith WALK2 Model) 
DWTI               .kg/kg                                  : Dry Weight Fraction Titanium (SpectroLith WALK2 Model) 
GR                 .gAPI                                   : Gamma Ray 
GRt                .gAPI                                   : HNGS Standard Gamma-Ray 
HCAL               .in                                     : HRCC Caliper Calibrated 
HDRA               .g/cm3                                  : Density Standoff Correction 
HFK                .%                                      : HNGS Formation Potassium Concentration 
HTHO               .ppm                                    : HNGS Formation Thorium Concentration 
HURA               .ppm                                    : HNGS Formation Uranium Concentration 
KSDR               .mD                                     : SDR Permeability 
KTIM               .mD                                     : Timur/Coates Permeability 
NMRE_Final         .m3/m3                                  : CMR Porosity with T2 values greater than 3 ms 
NMRFL_Final        .unitless                               : CMR Free Fluid 
NMRT_Final         .frac                                   : Total CMR Porosity 
NPHI               .frac                                   : Enhanced Thermal Neutron Porosity in Selected Lithology 
PE                 .b/e                                    : Standard Resolution Formation Photoelectric Factor 
RD                 .ohm.m                                  : Array Induction Two Foot Resistivity A90 
RHOB               .g/cm3                                  : Standard Resolution Formation Density 
RM                 .ohm.m                                  : Array Induction Two Foot Resistivity A30 
RS                 .ohm.m                                  : Array Induction Two Foot Resistivity A10 
T2LM               .ms                                     : T2 Logarithmic Mean 
TVDSS              .M                                      :  
~Ascii
# ...
5010.607   17.500     67.649     0.058      0.055      0.278      37.325     0.000      0.065      0.000      6.938      9.234      12.472     1.325      0.193      0.829      0.472      572.506    0.920      -9999.000  -9999.000  -9999.000  -0.013     6.851      637.319    4.629      1950.000   1950.000   2816.571   4985.326  
5010.760   17.500     67.689     0.000      0.125      0.251      61.242     0.000      0.000      0.000      7.212      8.822      12.462     1.312      0.190      0.947      0.373      573.166    0.922      -9999.000  -9999.000  -9999.000  -0.016     6.874      825.341    4.629      1950.000   1950.000   2816.571   4985.478  
5010.912   17.500     67.589     0.009      0.111      0.262      62.291     0.000      0.010      0.000      7.038      9.464      12.462     1.273      0.197      1.076      0.379      574.287    0.925      -9999.000  -9999.000  -9999.000  -0.025     6.869      990.882    4.629      1950.000   1950.000   2816.571   4985.631  
5011.064   17.500     67.474     0.000      0.136      0.225      55.282     0.000      0.000      0.000      7.680      9.013      12.483     1.247      0.184      1.069      0.351      573.960    0.924      -9999.000  -9999.000  -9999.000  -0.018     6.835      1175.193   4.629      1950.000   1950.000   2816.571   4985.783  
5011.217   17.500     67.286     0.003      0.127      0.238      37.858     0.000      0.004      0.000      7.031      9.497      12.451     1.229      0.183      1.142      0.386      574.743    0.927      -9999.000  -9999.000  -9999.000  -0.023     6.799      1357.874   4.629      1950.000   1950.000   2816.571   4985.936  
5011.369   17.500     66.758     0.006      0.140      0.199      32.489     0.000      0.006      0.000      7.130      8.928      12.462     1.259      0.180      1.073      0.355      575.672    0.929      -9999.000  -9999.000  -9999.000  -0.025     6.749      1416.335   4.629      1950.000   1950.000   2816.571   4986.088  
5011.522   17.500     66.836     0.013      0.103      0.271      38.281     0.000      0.015      0.000      6.841      9.454      12.462     1.287      0.188      1.200      0.352      576.386    0.931      -9999.000  -9999.000  -9999.000  -0.023     6.772      1273.223   4.629      1950.000   1950.000   2816.571   4986.240  
5011.674   17.500     67.108     0.015      0.103      0.267      53.580     0.000      0.016      0.000      7.264      9.173      12.462     1.278      0.178      1.156      0.340      577.121    0.933      -9999.000  -9999.000  -9999.000  -0.017     6.869      930.658    4.629      1950.000   1950.000   2816.571   4986.393  
5011.826   17.500     66.185     0.000      0.110      0.282      69.038     0.000      0.000      0.000      7.382      9.331      12.462     1.296      0.170      1.136      0.384      577.122    0.933      -9999.000  -9999.000  -9999.000  -0.026     6.993      604.852    4.629      1950.000   1950.000   2816.571   4986.545  
5011.979   17.500     66.225     0.000      0.136      0.224      57.509     0.000      0.000      0.000      6.981      8.953      12.462     1.296      0.171      0.859      0.425      577.022    0.933      -9999.000  -9999.000  -9999.000  -0.025     7.076      394.033    4.629      1950.000   1950.000   2816.571   4986.698  
5012.131   17.500     66.128     0.000      0.144      0.204      54.621     0.000      0.000      0.000      6.421      9.791      12.462     1.305      0.183      0.892      0.508      577.113    0.933      -9999.000  -9999.000  -9999.000  -0.018     7.061      272.073    4.629      1950.000   1950.000   2816.571   4986.850  
5012.284   17.500     66.264     0.000      0.144      0.202      57.163     0.000      0.000      0.000      6.779      9.789      12.462     1.282      0.190      0.920      0.463      577.585    0.935      -9999.000  -9999.000  -9999.000  -0.033     6.980      206.039    4.629      1950.000   1950.000   2816.571   4987.002  
5012.436   17.500     67.458     0.000      0.162      0.158      52.969     0.000      0.000      0.000      6.869      10.282     12.462     1.276      0.189      0.804      0.570      578.519    0.937      -9999.000  -9999.000  -9999.000  -0.027     6.883      166.249    4.629      1950.000   1950.000   2816.571   4987.155  
5012.588   17.500     67.839     0.000      0.168      0.144      48.011     0.000      0.000      0.000      7.429      9.775      12.472     1.262      0.191      0.761      0.508      579.230    0.939      -9999.000  -9999.000  -9999.000  -0.020     6.820      135.589    4.629      1950.000   1950.000   2816.571   4987.307  
5012.741   17.500     67.831     0.000      0.160      0.162      42.062     0.000      0.000      0.000      7.876      9.453      12.462     1.272      0.175      0.700      0.543      579.963    0.941      -9999.000  -9999.000  -9999.000  -0.024     6.799      109.096    4.629      1950.000   1950.000   2816.571   4987.460  
5012.893   17.500     67.635     0.000      0.136      0.228      43.927     0.000      0.000      0.001      8.176      9.258      12.483     1.266      0.178      0.661      0.529      580.167    0.942      -9999.000  -9999.000  -9999.000  -0.024     6.811      89.058     4.629      1950.000   1950.000   2816.571   4987.612  
5013.046   17.500     67.408     0.000      0.135      0.244      29.730     0.000      0.000      0.005      7.555      9.263      12.483     1.266      0.172      0.740      0.488      580.155    0.942      -9999.000  -9999.000  -9999.000  -0.023     6.864      77.884     4.629      1950.000   1950.000   2816.571   4987.764  
5013.198   17.500     66.403     0.000      0.192      0.134      16.328     0.096      0.000      0.003      7.958      10.105     12.462     1.265      0.197      0.789      0.495      581.092    0.944      -9999.000  -9999.000  -9999.000  -0.029     6.910      76.212     4.629      1950.000   1950.000   2816.571   4987.917  
5013.350   17.500     64.807     0.000      0.233      0.070      5.954      0.119      0.001      0.000      7.915      10.205     12.462     1.278      0.203      0.805      0.479      582.033    0.947      -9999.000  -9999.000  -9999.000  -0.015     6.938      85.367     4.629      1950.000   1950.000   2816.571   4988.069  
5013.503   17.500     60.760     0.000      0.251      0.056      4.566      0.093      0.000      0.000      8.606      10.141     12.483     1.276      0.198      0.830      0.459      582.657    0.949      -9999.000  -9999.000  -9999.000  -0.022     6.936      109.603    4.629      1950.000   1950.000   2816.571   4988.222  
5013.655   17.500     55.816     0.000      0.246      0.059      1.256      0.099      0.000      0.000      8.243      9.424      12.483     1.267      0.189      0.798      0.392      582.962    0.950      -9999.000  -9999.000  -9999.000  -0.001     6.910      156.720    4.629      1950.000   1950.000   2816.571   4988.374  
5013.808   17.500     53.718     0.000      0.233      0.072      0.000      0.099      0.000      0.000      8.821      10.169     12.483     1.244      0.208      0.899      0.367      583.375    0.951      -9999.000  -9999.000  -9999.000  0.042      6.922      233.117    4.629      1950.000   1950.000   2816.571   4988.526  
5013.960   17.500     53.520     0.000      0.227      0.078      0.002      0.111      0.000      0.000      8.906      9.848      12.462     1.217      0.203      0.790      0.384      584.744    0.955      -9999.000  -9999.000  -9999.000  0.094      6.934      326.683    4.629      1950.000   1950.000   2816.571   4988.679  
5014.112   17.500     53.211     0.000      0.212      0.093      1.904      0.072      0.000      0.000      8.999      10.362     12.482     1.196      0.231      0.786      0.386      584.183    0.953      -9999.000  -9999.000  -9999.000  0.107      6.929      410.628    4.629      1950.000   1950.000   2816.571   4988.831  
5014.265   17.500     51.756     0.000      0.218      0.085      6.402      0.059      0.000      0.000      9.138      9.974      12.462     1.178      0.225      0.790      0.363      584.606    0.954      -9999.000  -9999.000  -9999.000  0.116      6.861      495.468    4.629      1950.000   1950.000   2816.571   4988.984  
