~Version
 VERS              .         2.0                           : CWLS LOG ASCII STANDARD - VERSION 2.0
 WRAP              .         NO                            : ONE LINE PER DEPTH STEP
 DLM               .         SPACE                         : DELIMITING CHARACTER(SPACE TAB OR COMMA)
~Well Information
#_______________________________________________________________________________
#
#PARAMETER_NAME    .UNIT     VALUE                         : DESCRIPTION
#_______________________________________________________________________________
STRT               .M        4938.217                      : First reference value
STOP               .M        5227.625                      : Last reference value
STEP               .M        0.152                         : Step increment
NULL               .         -9999                         : Missing value
COMP               .         PETROBRAS                     : Company
WELL               .         7-SPH-17-SPS                  : Well name
FLD                .         SAPINHOA                      : Field
LOC                .                                       : Location
CNTY               .                                       : County
STAT               .         86316027948                   : State
CTRY               .         Brasil                        : Country
SRVC               .                                       : Service Company
DATE               .                                       : Date
API                .                                       : API number
APD                .M        25                            : Elevation of Depth Reference (LMF) Above Permanent Datum
BHS                .         OPEN                          : Borehole Status (Open or Cased Hole)
BHT                .degF     144                           : Bottom Hole Temperature
BLI                .M        5222.59                       : Bottom Log Interval
BS                 .in       12.25                         : Bit Size
CBDR               .M        5017                          : Casing Bottom (Driller)
CBLO               .M        5020.6                        : Casing Bottom (Logger)
CSIZ               .in       14                            : Casing Outer Diameter
CWEI               .lbm/ft   114                           : Casing Weight
DCS                .         04/01/2015                    : Date Circulation Stopped
DFD                .lb/gal   9.6                           : Drilling Fluid Density
DFT                .         BR-MUL                        : Drilling Fluid Type
DLAB               .         06/01/2015                    : Date Logging on Bottom
EDF                .M        25                            : Elevation of Drill Floor
EGL                .M        -2131                         : Elevation of Ground Level
EKB                .M        25                            : Elevation of Kelly Bushing
EPD                .M        0                             : Elevation of Permanent Datum (PDAT) above Mean Sea Level
LMF                .         MR                            : Logging Measured From (Name of Logging Elevation Reference)
LUL                .         BRMA                          : Logging Unit Location
LUN                .         7806                          : Logging Unit Number
LONG               .         -43_09_42,450                 : Longitude
MCST               .degF     -999.25                       : Mudcake Sample Temperature
MFST               .degF     -999.25                       : Mud Filtrate Sample Temperature
MRT                .degF     144                           : Maximum Recorded Temperature
MST                .degF     -999.25                       : Mud Sample Temperature
PDAT               .         NM                            : Permanent Datum
PRODUCER-CODE      .         440                           : 
PRODUCER-NAME      .         Schlumberger                  : 
RMB                .ohm.m    -999.25                       : Resistivity of Mud at Bottom Hole Temperature
RMCS               .ohm.m    -999.25                       : Resistivity of Mud Cake Sample
RMFS               .ohm.m    -999.25                       : Resistivity of Mud Filtrate Sample
RMS                .ohm.m    -999.25                       : Resistivity of Mud Sample
RUN                .         02                            : Run Number
TCS                .h        17_30                         : Time Circulation Stopped
TDD                .M        5221                          : Total Depth (Driller)
TDL                .M        5225                          : Logger Total Depth
TLAB               .h        09_25                         : Time Logging on Bottom
TLI                .M        5020.6                        : Top Log Interval
X                  .M        684517.00000000               : 
Y                  .M        7161201.00000000              : 
~Parameter Information Block
#_______________________________________________________________________________
#
#PARAMETER_NAME    .UNIT     VALUE                         : DESCRIPTION
#_______________________________________________________________________________
SET                .         BASE                          : 
TLFamily_BS        .         Bit Size                      : 
TLFamily_DT        .         Compressional Slowness        : 
TLFamily_DWAL      .         Aluminum Weight Fraction      : 
TLFamily_DWCA      .         Calcium Weight Fraction       : 
TLFamily_DWFE      .         Iron Weight Fraction          : 
TLFamily_DWGD      .         Gadolinium Weight Fraction    : 
TLFamily_DWS       .         Sulfur Weight Fraction        : 
TLFamily_DWSI      .         Silicon Weight Fraction       : 
TLFamily_DWTI      .         Titanium Weight Fraction      : 
TLFamily_GR        .         Gamma Ray                     : 
TLFamily_GRt       .         Gamma Ray                     : 
TLFamily_HCAL      .         Caliper                       : 
TLFamily_HDRA      .         Bulk Density Correction       : 
TLFamily_HFK       .         Potassium Concentration       : 
TLFamily_HTHO      .         Thorium Concentration         : 
TLFamily_HURA      .         Uranium Concentration         : 
TLFamily_KSDR      .         NMR Permeability              : 
TLFamily_KTIM      .         NMR Permeability              : 
TLFamily_MD        .         Measured Depth                : 
TLFamily_NMRE_Final .         NMR Bound Fluid Volume Fraction: 
TLFamily_NMRFL_Final .         NMR Free Fluids               : 
TLFamily_NMRT_Final .         NMR Porosity                  : 
TLFamily_NPHI      .         Neutron Porosity              : 
TLFamily_PE        .         Photoelectric Factor          : 
TLFamily_RD        .         Resistivity - Deep            : 
TLFamily_RHOB      .         Bulk Density                  : 
TLFamily_RM        .         Resistivity - Medium          : 
TLFamily_RS        .         Resistivity - Shallow         : 
TLFamily_T2LM      .         NMR T2 Logarithmic Mean       : 
TLFamily_TVDSS     .         True Vertical Depth Sub Sea   : 
~Curve Information
#_______________________________________________________________________________
#
#LOGNAME           .UNIT     LOG_ID                        : DESCRIPTION
#_______________________________________________________________________________
DEPTH              .M                                      :  
BS                 .in                                     : Bit Size 
DT                 .us/ft                                  : Delta-T Compressional 
DWAL               .kg/kg                                  : Dry Weight Fraction Pseudo Aluminum (SpectroLith WALK2 Model) 
DWCA               .kg/kg                                  : Dry Weight Fraction Calcium (SpectroLith WALK2 Model) 
DWFE               .kg/kg                                  : Dry Weight Fraction Iron + 0.14 Aluminum (SpectroLith WALK2 Model) 
DWGD               .ppm                                    : Dry Weight Fraction Gadolinium (SpectroLith WALK2 Model) 
DWS                .kg/kg                                  : Dry Weight Fraction Sulfur (SpectroLith WALK2 Model) 
DWSI               .kg/kg                                  : Dry Weight Fraction Silicon (SpectroLith WALK2 Model) 
DWTI               .kg/kg                                  : Dry Weight Fraction Titanium (SpectroLith WALK2 Model) 
GR                 .gAPI                                   : Gamma Ray 
GRt                .gAPI                                   : HNGS Standard Gamma-Ray 
HCAL               .in                                     : HRCC Caliper Calibrated 
HDRA               .g/cm3                                  : Density Standoff Correction 
HFK                .%                                      : HNGS Formation Potassium Concentration 
HTHO               .ppm                                    : HNGS Formation Thorium Concentration 
HURA               .ppm                                    : HNGS Formation Uranium Concentration 
KSDR               .mD                                     : SDR Permeability 
KTIM               .mD                                     : Timur/Coates Permeability 
NMRE_Final         .m3/m3                                  : CMR Porosity with T2 values greater than 3 ms 
NMRFL_Final        .unitless                               : CMR Free Fluid 
NMRT_Final         .frac                                   : Total CMR Porosity 
NPHI               .frac                                   : Enhanced Thermal Neutron Porosity in Selected Lithology 
PE                 .b/e                                    : Standard Resolution Formation Photoelectric Factor 
RD                 .ohm.m                                  : Array Induction Two Foot Resistivity A90 
RHOB               .g/cm3                                  : Standard Resolution Formation Density 
RM                 .ohm.m                                  : Array Induction Two Foot Resistivity A30 
RS                 .ohm.m                                  : Array Induction Two Foot Resistivity A10 
T2LM               .ms                                     : T2 Logarithmic Mean 
TVDSS              .M                                      :  
~Ascii
# ...
5037.277   12.250     70.042     0.012      0.311      0.007      0.000      0.001      0.082      0.000      18.944     19.376     12.269     0.001      0.103      0.426      2.079      226.810    295.693    0.183      0.157      0.190      0.211      4.575      859.979    2.468      867.210    1949.992   209.454    5011.996  
5037.430   12.250     70.475     0.009      0.310      0.006      0.000      0.000      0.090      0.000      15.724     17.619     12.291     -0.003     0.092      0.471      1.876      222.972    350.984    0.184      0.164      0.198      0.252      4.811      1012.940   2.418      895.748    1818.439   190.537    5012.148  
5037.582   12.250     70.909     0.005      0.308      0.003      0.000      0.000      0.099      0.000      14.874     17.499     12.269     -0.004     0.083      0.453      1.887      219.352    423.129    0.184      0.168      0.201      0.268      4.808      1167.430   2.393      919.628    1794.516   184.166    5012.301  
5037.734   12.250     71.422     0.007      0.304      0.004      0.000      0.000      0.100      0.000      15.161     17.460     12.269     -0.004     0.107      0.570      1.752      309.744    713.674    0.185      0.166      0.189      0.263      4.675      1318.782   2.387      947.064    1725.746   247.738    5012.453  
5037.887   12.250     71.397     0.009      0.302      0.006      0.000      0.000      0.098      0.000      18.151     19.615     12.270     -0.003     0.126      0.817      1.875      223.236    386.896    0.175      0.152      0.176      0.280      4.583      1468.707   2.397      970.759    1871.658   242.931    5012.606  
5038.039   12.250     71.404     0.011      0.280      0.008      0.000      0.010      0.114      0.000      25.652     26.719     12.280     -0.004     0.172      1.119      2.570      111.499    120.312    0.156      0.128      0.157      0.257      4.558      1612.732   2.408      961.821    1873.146   216.592    5012.758  
5038.192   12.250     71.402     0.012      0.269      0.009      0.000      0.011      0.125      0.001      31.909     34.471     12.290     -0.004     0.234      1.491      3.260      60.914     47.576     0.139      0.109      0.139      0.264      4.525      1748.547   2.423      959.923    1535.910   201.092    5012.910  
5038.344   12.250     71.223     0.014      0.265      0.009      0.000      0.004      0.130      0.000      31.291     33.937     12.269     -0.004     0.245      1.530      3.184      66.400     65.262     0.141      0.113      0.141      0.206      4.565      1286.751   2.419      718.151    1015.780   204.611    5013.063  
5038.496   12.250     71.029     0.014      0.283      0.009      0.000      0.000      0.112      0.000      23.301     25.928     12.269     -0.005     0.172      1.106      2.502      153.287    230.959    0.166      0.141      0.167      0.199      4.721      1559.927   2.400      801.360    978.434    224.309    5013.215  
5038.649   12.250     70.707     0.013      0.300      0.008      0.313      0.000      0.094      0.000      15.733     16.109     12.291     -0.004     0.105      0.702      1.550      216.360    396.262    0.185      0.164      0.195      0.227      4.910      1949.911   2.384      829.805    1169.317   195.550    5013.368  
5038.801   12.250     70.523     0.011      0.317      0.007      1.886      0.000      0.079      0.000      12.778     12.520     12.291     0.000      0.081      0.486      1.234      215.727    407.639    0.192      0.171      0.207      0.213      5.045      1683.753   2.390      802.181    1354.605   171.621    5013.520  
5038.954   12.250     70.498     0.009      0.320      0.005      1.282      0.000      0.079      0.000      12.763     12.345     12.291     0.006      0.071      0.427      1.256      173.288    297.212    0.185      0.162      0.200      0.236      5.111      1747.848   2.407      855.809    1482.888   164.459    5013.672  
5039.106   12.250     70.233     0.009      0.317      0.005      0.003      0.001      0.081      0.001      13.591     14.997     12.270     0.007      0.076      0.404      1.582      125.923    173.045    0.173      0.148      0.187      0.253      5.080      1718.398   2.422      819.172    1593.259   159.750    5013.825  
5039.258   12.250     68.416     0.010      0.307      0.006      0.000      0.005      0.089      0.001      16.735     19.155     12.290     0.003      0.120      0.554      1.969      72.616     86.570     0.154      0.130      0.170      0.269      4.939      1745.390   2.427      872.499    1612.654   148.408    5013.977  
5039.411   12.250     67.809     0.014      0.293      0.009      0.000      0.005      0.099      0.001      21.732     25.491     12.270     -0.001     0.162      0.671      2.644      25.012     26.762     0.129      0.103      0.142      0.258      4.697      1949.819   2.441      916.090    1577.346   126.060    5014.130  
5039.563   12.250     68.138     0.017      0.264      0.010      0.000      0.000      0.129      0.000      28.500     32.748     12.311     -0.007     0.202      0.600      3.490      7.074      8.562      0.108      0.081      0.120      0.169      4.518      1845.591   2.447      848.169    1376.058   93.256     5014.282  
5039.716   12.250     67.982     0.017      0.240      0.010      0.000      0.000      0.157      0.000      35.698     41.898     12.269     -0.007     0.255      0.816      4.396      3.576      5.728      0.103      0.075      0.116      0.109      4.304      1651.023   2.470      764.479    953.111    71.270     5014.434  
5039.868   12.250     68.504     0.015      0.236      0.009      0.000      0.000      0.164      0.000      40.929     47.090     12.291     -0.005     0.295      0.898      4.887      11.287     19.855     0.129      0.098      0.142      0.095      4.047      955.122    2.504      532.268    628.254    83.173     5014.587  
5040.020   12.250     68.831     0.011      0.272      0.006      0.773      0.000      0.131      0.000      41.770     46.518     12.291     -0.001     0.308      0.843      4.786      75.214     137.990    0.175      0.143      0.183      0.164      3.877      478.484    2.522      344.396    430.917    131.244    5014.739  
5040.173   12.250     69.289     0.004      0.324      0.002      0.769      0.000      0.083      0.000      34.479     38.025     12.291     0.007      0.256      0.884      3.822      208.584    443.795    0.200      0.170      0.203      0.240      4.122      381.957    2.482      265.365    397.531    175.558    5014.891  
5040.325   12.250     68.788     0.000      0.359      0.000      0.000      0.000      0.048      0.000      25.971     28.850     12.269     0.004      0.197      0.721      2.889      299.868    825.294    0.202      0.178      0.203      0.294      4.758      455.084    2.398      324.222    496.963    210.304    5015.044  
5040.478   12.250     69.586     0.000      0.372      0.000      0.000      0.000      0.033      0.000      19.921     22.605     12.291     0.005      0.155      0.622      2.242      276.378    893.037    0.189      0.172      0.189      0.305      5.287      1300.854   2.354      674.644    860.044    234.169    5015.196  
5040.630   12.250     69.641     0.005      0.359      0.003      0.000      0.000      0.039      0.000      21.096     21.973     12.312     -0.001     0.166      0.659      2.122      200.147    456.411    0.169      0.161      0.169      0.265      5.521      1511.047   2.362      987.666    1609.425   247.033    5015.349  
5040.782   12.250     68.847     0.006      0.350      0.004      0.000      0.000      0.048      0.000      24.278     24.357     12.269     0.001      0.196      0.850      2.276      124.471    236.371    0.153      0.148      0.153      0.222      5.469      1262.335   2.397      1236.657   1233.357   240.154    5015.501  
5040.935   12.250     66.715     0.007      0.332      0.004      0.000      0.000      0.068      0.000      29.029     28.716     12.290     0.002      0.239      0.908      2.657      48.925     78.049     0.129      0.122      0.129      0.233      5.463      794.721    2.426      769.829    835.774    213.443    5015.653  
