~Version
 VERS              .         2.0                           : CWLS LOG ASCII STANDARD - VERSION 2.0
 WRAP              .         NO                            : ONE LINE PER DEPTH STEP
 DLM               .         SPACE                         : DELIMITING CHARACTER(SPACE TAB OR COMMA)
~Well Information
#_______________________________________________________________________________
#
#PARAMETER_NAME    .UNIT     VALUE                         : DESCRIPTION
#_______________________________________________________________________________
STRT               .M        4938.217                      : First reference value
STOP               .M        5227.625                      : Last reference value
STEP               .M        0.152                         : Step increment
NULL               .         -9999                         : Missing value
COMP               .         PETROBRAS                     : Company
WELL               .         7-SPH-17-SPS                  : Well name
FLD                .         SAPINHOA                      : Field
LOC                .                                       : Location
CNTY               .                                       : County
STAT               .         86316027948                   : State
CTRY               .         Brasil                        : Country
SRVC               .                                       : Service Company
DATE               .                                       : Date
API                .                                       : API number
APD                .M        25                            : Elevation of Depth Reference (LMF) Above Permanent Datum
BHS                .         OPEN                          : Borehole Status (Open or Cased Hole)
BHT                .degF     144                           : Bottom Hole Temperature
BLI                .M        5222.59                       : Bottom Log Interval
BS                 .in       12.25                         : Bit Size
CBDR               .M        5017                          : Casing Bottom (Driller)
CBLO               .M        5020.6                        : Casing Bottom (Logger)
CSIZ               .in       14                            : Casing Outer Diameter
CWEI               .lbm/ft   114                           : Casing Weight
DCS                .         04/01/2015                    : Date Circulation Stopped
DFD                .lb/gal   9.6                           : Drilling Fluid Density
DFT                .         BR-MUL                        : Drilling Fluid Type
DLAB               .         06/01/2015                    : Date Logging on Bottom
EDF                .M        25                            : Elevation of Drill Floor
EGL                .M        -2131                         : Elevation of Ground Level
EKB                .M        25                            : Elevation of Kelly Bushing
EPD                .M        0                             : Elevation of Permanent Datum (PDAT) above Mean Sea Level
LMF                .         MR                            : Logging Measured From (Name of Logging Elevation Reference)
LUL                .         BRMA                          : Logging Unit Location
LUN                .         7806                          : Logging Unit Number
LONG               .         -43_09_42,450                 : Longitude
MCST               .degF     -999.25                       : Mudcake Sample Temperature
MFST               .degF     -999.25                       : Mud Filtrate Sample Temperature
MRT                .degF     144                           : Maximum Recorded Temperature
MST                .degF     -999.25                       : Mud Sample Temperature
PDAT               .         NM                            : Permanent Datum
PRODUCER-CODE      .         440                           : 
PRODUCER-NAME      .         Schlumberger                  : 
RMB                .ohm.m    -999.25                       : Resistivity of Mud at Bottom Hole Temperature
RMCS               .ohm.m    -999.25                       : Resistivity of Mud Cake Sample
RMFS               .ohm.m    -999.25                       : Resistivity of Mud Filtrate Sample
RMS                .ohm.m    -999.25                       : Resistivity of Mud Sample
RUN                .         02                            : Run Number
TCS                .h        17_30                         : Time Circulation Stopped
TDD                .M        5221                          : Total Depth (Driller)
TDL                .M        5225                          : Logger Total Depth
TLAB               .h        09_25                         : Time Logging on Bottom
TLI                .M        5020.6                        : Top Log Interval
X                  .M        684517.00000000               : 
Y                  .M        7161201.00000000              : 
~Parameter Information Block
#_______________________________________________________________________________
#
#PARAMETER_NAME    .UNIT     VALUE                         : DESCRIPTION
#_______________________________________________________________________________
SET                .         BASE                          : 
TLFamily_BS        .         Bit Size                      : 
TLFamily_DT        .         Compressional Slowness        : 
TLFamily_DWAL      .         Aluminum Weight Fraction      : 
TLFamily_DWCA      .         Calcium Weight Fraction       : 
TLFamily_DWFE      .         Iron Weight Fraction          : 
TLFamily_DWGD      .         Gadolinium Weight Fraction    : 
TLFamily_DWS       .         Sulfur Weight Fraction        : 
TLFamily_DWSI      .         Silicon Weight Fraction       : 
TLFamily_DWTI      .         Titanium Weight Fraction      : 
TLFamily_GR        .         Gamma Ray                     : 
TLFamily_GRt       .         Gamma Ray                     : 
TLFamily_HCAL      .         Caliper                       : 
TLFamily_HDRA      .         Bulk Density Correction       : 
TLFamily_HFK       .         Potassium Concentration       : 
TLFamily_HTHO      .         Thorium Concentration         : 
TLFamily_HURA      .         Uranium Concentration         : 
TLFamily_KSDR      .         NMR Permeability              : 
TLFamily_KTIM      .         NMR Permeability              : 
TLFamily_MD        .         Measured Depth                : 
TLFamily_NMRE_Final .         NMR Bound Fluid Volume Fraction: 
TLFamily_NMRFL_Final .         NMR Free Fluids               : 
TLFamily_NMRT_Final .         NMR Porosity                  : 
TLFamily_NPHI      .         Neutron Porosity              : 
TLFamily_PE        .         Photoelectric Factor          : 
TLFamily_RD        .         Resistivity - Deep            : 
TLFamily_RHOB      .         Bulk Density                  : 
TLFamily_RM        .         Resistivity - Medium          : 
TLFamily_RS        .         Resistivity - Shallow         : 
TLFamily_T2LM      .         NMR T2 Logarithmic Mean       : 
TLFamily_TVDSS     .         True Vertical Depth Sub Sea   : 
~Curve Information
#_______________________________________________________________________________
#
#LOGNAME           .UNIT     LOG_ID                        : DESCRIPTION
#_______________________________________________________________________________
DEPTH              .M                                      :  
BS                 .in                                     : Bit Size 
DT                 .us/ft                                  : Delta-T Compressional 
DWAL               .kg/kg                                  : Dry Weight Fraction Pseudo Aluminum (SpectroLith WALK2 Model) 
DWCA               .kg/kg                                  : Dry Weight Fraction Calcium (SpectroLith WALK2 Model) 
DWFE               .kg/kg                                  : Dry Weight Fraction Iron + 0.14 Aluminum (SpectroLith WALK2 Model) 
DWGD               .ppm                                    : Dry Weight Fraction Gadolinium (SpectroLith WALK2 Model) 
DWS                .kg/kg                                  : Dry Weight Fraction Sulfur (SpectroLith WALK2 Model) 
DWSI               .kg/kg                                  : Dry Weight Fraction Silicon (SpectroLith WALK2 Model) 
DWTI               .kg/kg                                  : Dry Weight Fraction Titanium (SpectroLith WALK2 Model) 
GR                 .gAPI                                   : Gamma Ray 
GRt                .gAPI                                   : HNGS Standard Gamma-Ray 
HCAL               .in                                     : HRCC Caliper Calibrated 
HDRA               .g/cm3                                  : Density Standoff Correction 
HFK                .%                                      : HNGS Formation Potassium Concentration 
HTHO               .ppm                                    : HNGS Formation Thorium Concentration 
HURA               .ppm                                    : HNGS Formation Uranium Concentration 
KSDR               .mD                                     : SDR Permeability 
KTIM               .mD                                     : Timur/Coates Permeability 
NMRE_Final         .m3/m3                                  : CMR Porosity with T2 values greater than 3 ms 
NMRFL_Final        .unitless                               : CMR Free Fluid 
NMRT_Final         .frac                                   : Total CMR Porosity 
NPHI               .frac                                   : Enhanced Thermal Neutron Porosity in Selected Lithology 
PE                 .b/e                                    : Standard Resolution Formation Photoelectric Factor 
RD                 .ohm.m                                  : Array Induction Two Foot Resistivity A90 
RHOB               .g/cm3                                  : Standard Resolution Formation Density 
RM                 .ohm.m                                  : Array Induction Two Foot Resistivity A30 
RS                 .ohm.m                                  : Array Induction Two Foot Resistivity A10 
T2LM               .ms                                     : T2 Logarithmic Mean 
TVDSS              .M                                      :  
~Ascii
# ...
5025.847   12.250     54.697     0.000      0.226      0.000      0.000      0.131      0.026      0.000      8.452      8.803      17.570     0.041      0.106      0.484      0.647      0.000      0.000      -9999.000  -9999.000  -9999.000  0.018      7.816      205.535    3.038      241.868    752.937    1.068      5000.566  
5026.000   12.250     55.498     0.000      0.196      0.000      0.000      0.125      0.064      0.000      12.115     12.005     17.569     -0.002     0.121      0.542      1.011      0.000      0.000      -9999.000  -9999.000  -9999.000  0.036      8.334      290.074    3.090      251.385    675.348    3.533      5000.718  
5026.152   12.250     55.388     0.000      0.214      0.000      0.000      0.078      0.071      0.000      16.967     17.285     17.592     -0.067     0.145      0.605      1.588      0.000      0.000      -9999.000  -9999.000  -9999.000  0.084      8.491      381.480    3.110      231.037    383.889    302.319    5000.871  
5026.304   12.250     57.566     0.000      0.207      0.000      0.007      0.047      0.094      0.000      22.151     24.971     17.464     -0.048     0.169      0.870      2.384      0.000      0.000      -9999.000  -9999.000  -9999.000  0.154      7.885      435.280    3.021      209.192    259.306    5.809      5001.023  
5026.457   12.250     63.928     0.003      0.278      0.002      2.337      0.010      0.132      0.000      27.770     33.355     17.495     -0.030     0.219      1.320      3.165      0.000      0.000      -9999.000  -9999.000  -9999.000  0.142      6.383      456.380    2.815      195.009    270.378    0.970      5001.176  
5026.609   12.250     63.754     0.011      0.235      0.006      6.482      0.000      0.174      0.000      35.680     42.922     17.549     0.017      0.267      1.661      4.115      0.000      0.000      -9999.000  -9999.000  -9999.000  0.117      4.856      529.747    2.624      204.770    311.879    0.790      5001.328  
5026.762   12.250     63.797     0.012      0.233      0.007      10.760     0.000      0.175      0.000      43.651     48.027     17.527     0.008      0.276      1.741      4.688      0.000      0.000      -9999.000  -9999.000  -9999.000  0.150      3.864      682.515    2.540      221.219    352.240    2.065      5001.480  
5026.914   12.250     63.379     0.007      0.245      0.004      10.180     0.000      0.169      0.000      43.089     45.144     17.581     0.012      0.234      1.582      4.520      0.000      0.000      -9999.000  -9999.000  -9999.000  0.168      3.662      865.336    2.499      235.212    356.101    13.236     5001.633  
5027.066   12.250     63.818     0.010      0.270      0.006      8.353      0.000      0.134      0.000      37.156     37.954     17.570     0.012      0.200      1.375      3.791      0.000      0.000      -9999.000  -9999.000  -9999.000  0.163      3.958      1137.541   2.470      243.102    365.362    1.130      5001.785  
5027.219   12.250     64.439     0.010      0.281      0.006      3.329      0.000      0.122      0.000      31.066     32.953     17.591     0.006      0.178      1.117      3.306      0.000      0.000      -9999.000  -9999.000  -9999.000  0.202      4.378      1439.273   2.472      289.030    398.694    0.941      5001.938  
5027.371   12.250     65.420     0.013      0.265      0.008      0.006      0.000      0.136      0.000      29.958     33.709     17.495     -0.001     0.194      1.070      3.412      0.000      0.000      -9999.000  -9999.000  -9999.000  0.269      4.612      1541.000   2.500      336.764    464.780    2.599      5002.090  
5027.524   12.250     65.973     0.008      0.237      0.006      0.000      0.007      0.171      0.000      31.084     36.563     17.421     0.002      0.231      1.293      3.619      0.000      0.000      -9999.000  -9999.000  -9999.000  0.251      4.451      1262.699   2.549      396.400    567.581    5.413      5002.242  
5027.676   12.250     67.625     0.005      0.218      0.003      0.001      0.007      0.201      0.000      30.481     36.427     17.421     0.002      0.251      1.467      3.480      0.000      0.000      -9999.000  -9999.000  -9999.000  0.239      4.151      839.555    2.580      390.145    1150.894   1.329      5002.395  
5027.828   12.250     63.650     0.000      0.242      0.000      0.191      0.000      0.185      0.000      26.683     31.994     17.485     0.005      0.252      1.509      2.879      0.000      0.000      -9999.000  -9999.000  -9999.000  0.224      3.922      493.479    2.588      308.561    1900.549   1.728      5002.547  
5027.981   12.250     65.886     0.000      0.278      0.000      4.451      0.000      0.143      0.000      19.063     23.524     17.570     0.000      0.223      1.175      1.986      0.000      0.000      -9999.000  -9999.000  -9999.000  0.175      4.053      292.862    2.548      242.017    1372.291   28.016     5002.700  
5028.133   12.250     66.877     0.000      0.307      0.000      5.741      0.000      0.109      0.000      13.430     16.168     17.538     0.001      0.168      0.821      1.316      0.000      0.000      -9999.000  -9999.000  -9999.000  0.233      4.465      188.769    2.482      189.092    913.181    44.002     5002.852  
5028.286   12.250     73.102     0.000      0.327      0.000      2.189      0.000      0.086      0.000      9.874      12.418     17.570     0.004      0.133      0.666      1.003      0.000      0.000      -9999.000  -9999.000  -9999.000  0.328      4.971      177.122    2.414      116.694    780.759    6.058      5003.004  
5028.438   12.250     86.143     0.000      0.334      0.000      0.000      0.000      0.078      0.000      9.747      11.407     17.570     0.008      0.139      0.699      0.863      0.000      0.000      -9999.000  -9999.000  -9999.000  0.274      5.324      82.664     2.380      90.371     674.837    7.841      5003.157  
5028.590   12.250     81.843     0.000      0.334      0.000      0.000      0.016      0.069      0.000      8.823      10.608     17.602     0.002      0.161      0.754      0.670      0.000      0.000      -9999.000  -9999.000  -9999.000  0.329      5.586      82.739     2.356      111.421    432.750    6.661      5003.309  
5028.743   12.250     81.719     0.000      0.335      0.000      0.000      0.004      0.074      0.000      8.999      10.045     17.656     -0.004     0.162      0.775      0.587      0.000      0.000      -9999.000  -9999.000  -9999.000  0.304      5.854      103.888    2.321      154.313    1042.484   50.688     5003.462  
5028.895   12.250     69.516     0.000      0.347      0.000      0.000      0.000      0.062      0.000      9.559      9.554      17.527     0.003      0.160      0.828      0.495      0.000      0.000      -9999.000  -9999.000  -9999.000  0.288      6.028      153.781    2.312      439.176    1209.262   223.521    5003.614  
5029.048   12.250     68.459     0.000      0.350      0.000      0.000      0.000      0.058      0.000      8.777      9.734      17.164     0.014      0.171      0.845      0.478      0.000      0.000      -9999.000  -9999.000  -9999.000  0.317      5.992      113.760    2.334      408.118    744.397    82.413     5003.766  
5029.200   12.250     69.520     0.003      0.352      0.002      0.000      0.011      0.046      0.000      9.233      9.740      12.576     0.016      0.175      0.824      0.481      0.000      0.000      -9999.000  -9999.000  -9999.000  0.276      5.648      72.405     2.369      257.793    350.019    0.820      5003.919  
5029.352   12.250     68.859     0.000      0.353      0.000      0.000      0.006      0.052      0.000      8.193      9.981      12.419     0.006      0.162      0.776      0.567      0.000      0.000      -9999.000  -9999.000  -9999.000  0.260      5.318      43.689     2.383      56.488     91.336     23.735     5004.071  
5029.505   12.250     69.191     0.000      0.354      0.000      1.564      0.001      0.054      0.000      9.156      10.289     12.397     -0.004     0.152      0.717      0.654      0.000      0.000      -9999.000  -9999.000  -9999.000  0.242      5.120      88.752     2.375      84.642     116.757    14.924     5004.224  
