~Version
 VERS              .         2.0                           : CWLS LOG ASCII STANDARD - VERSION 2.0
 WRAP              .         NO                            : ONE LINE PER DEPTH STEP
 DLM               .         SPACE                         : DELIMITING CHARACTER(SPACE TAB OR COMMA)
~Well Information
#_______________________________________________________________________________
#
#PARAMETER_NAME    .UNIT     VALUE                         : DESCRIPTION
#_______________________________________________________________________________
STRT               .M        5014.000                      : First reference value
STOP               .M        5322.763                      : Last reference value
STEP               .M        0.152                         : Step increment
NULL               .         -9999                         : Missing value
COMP               .         PETROBRAS                     : Company
WELL               .         7-SPH-20D-SPS                 : Well name
FLD                .         SAPINHOA                      : Field
LOC                .                                       : Location
CNTY               .                                       : County
STAT               .         SAO PAULO                     : State
CTRY               .         BRASIL                        : Country
SRVC               .                                       : Service Company
DATE               .                                       : Date
API                .         863160046300                  : API number
APD                .M        26.0                          : ABOVE PERMANENT DATUM
BHT                .degF     140.0                         : BOTTOMHOLE TEMPERATURE
BLI                .M        5313.7                        : BOTTOM LOGGED INTERVAL
BS                 .in       12.25                         : BIT SIZE
DCS                .         31/01/2016                    : DATE CIRCULATION STOPPED
DFD                .lb/gal   9.7                           : DRILLING FLUID DENSITY
DFT                .         OLEDRILL(BASE OLEFINA)        : DRILLING FLUID TYPE
DLAB               .         01/02/2016                    : DATE LOGGING ON BOTTOM
EDF                .M        26.0                          : ELEVATION OF DRILLING FLOOR
EGL                .M        -2129.0                       : ELEVATION OF GROUND LEVEL
EKB                .M        26.0                          : ELEVATION OF KELLY BUSHING
EPD                .M        0                             : ELEVATATION OF PERMANENT DATUM
GDAT               .         SIRGAS2000                    : Geodetic Datum
LMF                .         MR                            : LOG MEASURED FROM
LUL                .         MCE                           : LOGGING UNIT LOCATION
LUN                .         11792307                      : LOGGING UNIT NUMBER
LATI               .         -25_41_36.136                 : Latitude
LONG               .         -43_10_30,988                 : LONGITUDE
MCST               .degF     -999.25                       : MUDCAKE SAMPLE TEMPERATURE
MFST               .degF     -999.25                       : MUD FILTRATE SAMPLE TEMPERATURE
MRT                .degF     140.0                         : MAXIMUM RECORDED TEMPERATURE
MST                .degF     -999.25                       : MUD SAMPLE TEMPERATURE
ORIGINALWELLNAME   .         7SPH 0020D SPS                : 
PDAT               .         NM                            : PERMANENT DATUM
PRODUCER-CODE      .         280                           : 
PRODUCER-NAME      .         Halliburton                   : 
RMB                .ohm.m    -999.25                       : RESISTIVITY OF MUD - BHT
RMCS               .ohm.m    -999.25                       : RESISTIVITY OF MUDCAKE SAMPLE
RMFS               .ohm.m    -999.25                       : RESISTIVITY OF MUD FILTRATE SAMPLE
RMS                .ohm.m    -999.25                       : RESISTIVITY OF MUD SAMPLE
RUN                .         01                            : RUN NUMBER 1
TCS                .h        09_00                         : TIME CIRCULATION STOPPED
TDD                .M        5315.0                        : DRILLERS DEPTH
TDL                .M        5316.9                        : LOGGERS DEPTH
TLAB               .h        08_00                         : TIME LOGGING ON BOTTOM
TLI                .M        5013.8                        : TOP LOGGED INTERVAL
X                  .M        683110.00000000               : X UTM Coordinate
Y                  .M        7157356.00000000              : Y UTM Coordinate
~Parameter Information Block
#_______________________________________________________________________________
#
#PARAMETER_NAME    .UNIT     VALUE                         : DESCRIPTION
#_______________________________________________________________________________
SET                .         BASE                          : 
TLFamily_BS        .         Bit Size                      : 
TLFamily_DT        .         Compressional Slowness        : 
TLFamily_DWAL      .         Aluminum Weight Fraction      : 
TLFamily_DWCA      .         Calcium Weight Fraction       : 
TLFamily_DWFE      .         Iron Weight Fraction          : 
TLFamily_DWGD      .         Gadolinium Weight Fraction    : 
TLFamily_DWK       .         Potassium Weight Fraction     : 
TLFamily_DWMG      .         Magnesium Weight Fraction     : 
TLFamily_DWMN      .         Manganese Weight Fraction     : 
TLFamily_DWS       .         Sulfur Weight Fraction        : 
TLFamily_DWSI      .         Silicon Weight Fraction       : 
TLFamily_DWTI      .         Titanium Weight Fraction      : 
TLFamily_GR        .         Gamma Ray                     : 
TLFamily_GRt       .         Gamma Ray                     : 
TLFamily_HCAL      .         Caliper                       : 
TLFamily_HDRA      .         Bulk Density Correction       : 
TLFamily_HFK       .         Potassium Concentration       : 
TLFamily_HTHO      .         Thorium Concentration         : 
TLFamily_HURA      .         Uranium Concentration         : 
TLFamily_MD        .         Measured Depth                : 
TLFamily_MPERM     .         NMR Permeability              : 
TLFamily_NMRE_Final .         NMR Bound Fluid Volume Fraction: 
TLFamily_NMRFL_Final .         NMR Free Fluids               : 
TLFamily_NMRT_Final .         NMR Porosity                  : 
TLFamily_NPHI      .         Neutron Porosity              : 
TLFamily_PE        .         Photoelectric Factor          : 
TLFamily_RD        .         Resistivity - Deep            : 
TLFamily_RHOB      .         Bulk Density                  : 
TLFamily_RM        .         Resistivity - Medium          : 
TLFamily_RS        .         Resistivity - Shallow         : 
TLFamily_T2LM      .         NMR T2 Logarithmic Mean       : 
TLFamily_TVDSS     .         True Vertical Depth Sub Sea   : 
~Curve Information
#_______________________________________________________________________________
#
#LOGNAME           .UNIT     LOG_ID                        : DESCRIPTION
#_______________________________________________________________________________
DEPTH              .M                                      :  
BS                 .in                                     : BS/Bit Size 
DT                 .us/ft                                  : DTC/MonoDeltaT 
DWAL               .kg/kg                                  : DAL/DryrockAlWF 
DWCA               .kg/kg                                  : DCA/DryrockCaWF 
DWFE               .kg/kg                                  : DFE/DryrockFeWF 
DWGD               .ppm                                    : DGD/DryrockGdWF 
DWK                .kg/kg                                  : DK/DryrockKWF 
DWMG               .kg/kg                                  : DMG/DryrockMgWF 
DWMN               .kg/kg                                  : DMN/DryrockMnWF 
DWS                .kg/kg                                  : DSUL/DryrockSuWF 
DWSI               .kg/kg                                  : DSI/DryrockSiWF 
DWTI               .kg/kg                                  : DTI/DryrockTiWF 
GR                 .gAPI                                   : GR/Gamma API 
GRt                .gAPI                                   : GKUT/GammaKUT 
HCAL               .in                                     : CALI/Caliper 
HDRA               .g/cm3                                  : Density Delta Rho Filtered 
HFK                .%                                      : POTA/Potassium 
HTHO               .ppm                                    : THOR/Thorium 
HURA               .ppm                                    : URAN/Uranium 
MPERM              .mD                                     : MPERMT2/MrilT2KCoat 
NMRE_Final         .m3/m3                                  : MPHIT2/TA-grp T2 Effective Por 
NMRFL_Final        .unitless                               : MFFIT2/TA-grp T2 FreeFluid Ind 
NMRT_Final         .frac                                   : MSIGT2/TA-grp T2 Total Por. 
NPHI               .frac                                   : POROSIDADE NEUTRONICA (COMPOSICAO DE CURVAS CABO E/OU LWD) 
PE                 .b/e                                    : Density PE Filtered 
RD                 .ohm.m                                  : RT90/90in Resistivity 2ft Res 
RHOB               .g/cm3                                  : DENSIDADE (COMPOSICAO DE CURVAS CABO E/OU LWD ) 
RM                 .ohm.m                                  : RT30/30in Resistivity 2ft Res 
RS                 .ohm.m                                  : RT10/10in Resistivity 2ft Res 
T2LM               .ms                                     : T2LM/T2 Log Mean 
TVDSS              .M                                      :  
~Ascii
# ...
5052.557   12.250     57.372     0.019      0.193      0.002      0.000      0.023      0.018      0.001      0.000      0.182      0.003      37.227     43.181     13.238     0.083      0.311      1.300      3.757      3.299      0.083      0.060      0.084      0.099      6.725      102.921    2.598      106.754    125.878    224.823    4939.271  
5052.710   12.250     59.216     0.019      0.195      0.002      0.000      0.024      0.016      0.001      0.000      0.182      0.003      36.554     41.845     13.212     0.080      0.330      1.020      3.677      6.872      0.094      0.070      0.094      0.100      6.997      96.407     2.580      99.447     115.791    247.188    4939.406  
5052.862   12.250     61.972     0.019      0.208      0.001      0.000      0.023      0.021      0.001      0.000      0.158      0.002      35.017     36.768     13.203     0.077      0.326      0.625      3.268      12.175     0.102      0.079      0.102      0.115      7.190      107.507    2.541      110.471    127.159    252.665    4939.541  
5053.015   12.250     64.891     0.018      0.221      0.001      0.000      0.021      0.025      0.001      0.000      0.140      0.002      31.229     32.119     13.210     0.069      0.281      0.492      2.882      48.800     0.112      0.095      0.112      0.138      7.379      142.704    2.495      146.825    168.395    274.314    4939.675  
5053.167   12.250     67.448     0.017      0.255      0.001      0.000      0.021      0.014      0.001      0.000      0.120      0.002      22.894     25.612     13.246     0.066      0.201      0.658      2.240      170.225    0.121      0.110      0.123      0.161      7.666      259.779    2.457      270.623    288.667    310.528    4939.810  
5053.319   12.250     70.087     0.019      0.281      0.000      0.000      0.023      0.007      0.000      0.000      0.098      0.002      16.301     22.267     13.296     0.071      0.140      0.913      1.884      225.039    0.132      0.120      0.134      0.185      8.160      419.509    2.430      430.803    434.645    357.087    4939.945  
5053.472   12.250     71.811     0.020      0.314      0.000      0.000      0.025      0.000      0.000      0.000      0.069      0.002      12.763     19.353     13.351     0.078      0.077      1.286      1.533      127.664    0.144      0.122      0.145      0.211      8.439      556.354    2.401      545.414    577.560    388.070    4940.080  
5053.624   12.250     72.640     0.020      0.328      0.000      0.000      0.025      0.000      0.000      0.000      0.052      0.002      11.904     18.604     13.368     0.089      0.058      1.421      1.433      70.261     0.152      0.119      0.152      0.235      8.673      594.913    2.372      567.688    634.574    352.559    4940.214  
5053.777   12.250     72.353     0.021      0.339      0.000      0.000      0.026      0.000      0.000      0.000      0.038      0.002      12.487     18.858     13.376     0.100      0.067      1.611      1.374      37.881     0.156      0.112      0.156      0.247      8.533      616.550    2.359      571.059    655.544    280.321    4940.349  
5053.929   12.250     71.677     0.022      0.342      0.000      0.000      0.027      0.000      0.001      0.000      0.033      0.001      13.554     19.884     13.389     0.114      0.095      1.850      1.347      25.414     0.152      0.104      0.152      0.237      8.205      619.257    2.373      565.131    647.966    231.744    4940.484  
5054.081   12.250     70.671     0.021      0.327      0.000      0.000      0.026      0.004      0.001      0.000      0.046      0.001      15.345     22.237     13.435     0.116      0.137      2.232      1.391      18.207     0.141      0.096      0.141      0.201      8.000      591.142    2.415      536.805    594.806    204.032    4940.618  
5054.234   12.250     68.990     0.020      0.312      0.000      0.000      0.024      0.007      0.001      0.000      0.061      0.001      19.185     23.820     13.444     0.107      0.156      2.404      1.468      14.744     0.129      0.090      0.129      0.171      7.906      539.801    2.469      492.631    524.795    203.518    4940.753  
5054.386   12.250     67.318     0.016      0.286      0.001      0.000      0.020      0.016      0.001      0.000      0.081      0.001      21.482     24.936     13.391     0.094      0.170      2.255      1.623      13.805     0.116      0.085      0.116      0.147      7.804      495.699    2.521      459.889    458.048    217.027    4940.888  
5054.539   12.250     65.756     0.015      0.262      0.002      0.000      0.018      0.027      0.001      0.000      0.093      0.001      23.569     24.691     13.345     0.089      0.174      1.862      1.735      14.538     0.106      0.082      0.106      0.134      7.587      502.372    2.540      472.908    471.045    240.903    4941.023  
5054.691   12.250     63.974     0.013      0.236      0.002      0.000      0.017      0.032      0.001      0.000      0.117      0.001      21.837     22.717     13.315     0.080      0.165      1.059      1.833      18.666     0.097      0.080      0.097      0.131      7.206      484.770    2.533      469.758    500.027    290.705    4941.157  
5054.843   12.250     62.386     0.014      0.232      0.002      0.000      0.017      0.027      0.000      0.000      0.130      0.001      16.069     21.231     13.311     0.075      0.158      0.569      1.864      30.393     0.090      0.078      0.090      0.131      7.166      442.116    2.529      438.336    538.291    356.863    4941.292  
5054.996   12.250     61.432     0.014      0.229      0.001      0.000      0.018      0.023      0.000      0.000      0.138      0.001      13.746     19.519     13.311     0.081      0.135      0.186      1.858      23.398     0.086      0.075      0.087      0.131      7.327      437.716    2.537      449.029    618.410    343.078    4941.427  
5055.148   12.250     60.841     0.015      0.226      0.001      0.000      0.018      0.026      0.000      0.000      0.137      0.001      12.541     19.449     13.325     0.090      0.120      0.166      1.885      8.169      0.084      0.069      0.088      0.133      7.482      466.456    2.544      487.983    685.026    248.245    4941.562  
5055.301   12.250     60.263     0.015      0.216      0.001      0.000      0.018      0.035      0.000      0.000      0.134      0.001      12.675     20.417     13.344     0.097      0.095      0.218      2.019      4.684      0.083      0.066      0.093      0.136      7.566      484.513    2.546      515.697    731.107    174.484    4941.696  
5055.453   12.250     60.249     0.015      0.211      0.001      0.000      0.018      0.037      0.000      0.000      0.138      0.002      14.127     24.032     13.366     0.103      0.081      0.248      2.435      4.607      0.085      0.068      0.101      0.139      7.541      481.613    2.547      523.567    751.530    124.787    4941.831  
5055.605   12.250     60.272     0.014      0.204      0.000      0.000      0.018      0.044      0.000      0.000      0.135      0.002      16.167     27.511     13.378     0.099      0.063      0.240      2.859      4.806      0.087      0.070      0.107      0.139      7.367      482.164    2.549      527.973    758.902    102.886    4941.966  
5055.758   12.250     59.601     0.014      0.201      0.001      0.000      0.017      0.039      0.000      0.001      0.146      0.002      21.915     34.508     13.427     0.074      0.050      0.187      3.681      3.278      0.088      0.065      0.105      0.135      7.100      501.480    2.558      549.062    778.861    107.713    4942.101  
5055.910   12.250     58.650     0.015      0.197      0.001      0.000      0.018      0.034      0.000      0.002      0.158      0.002      26.544     39.584     13.480     0.050      0.059      0.239      4.210      1.894      0.088      0.058      0.097      0.124      7.222      526.808    2.577      572.258    796.816    133.795    4942.236  
