~Version
 VERS              .         2.0                           : CWLS LOG ASCII STANDARD - VERSION 2.0
 WRAP              .         NO                            : ONE LINE PER DEPTH STEP
 DLM               .         SPACE                         : DELIMITING CHARACTER(SPACE TAB OR COMMA)
~Well Information
#_______________________________________________________________________________
#
#PARAMETER_NAME    .UNIT     VALUE                         : DESCRIPTION
#_______________________________________________________________________________
STRT               .M        5014.000                      : First reference value
STOP               .M        5322.763                      : Last reference value
STEP               .M        0.152                         : Step increment
NULL               .         -9999                         : Missing value
COMP               .         PETROBRAS                     : Company
WELL               .         7-SPH-20D-SPS                 : Well name
FLD                .         SAPINHOA                      : Field
LOC                .                                       : Location
CNTY               .                                       : County
STAT               .         SAO PAULO                     : State
CTRY               .         BRASIL                        : Country
SRVC               .                                       : Service Company
DATE               .                                       : Date
API                .         863160046300                  : API number
APD                .M        26.0                          : ABOVE PERMANENT DATUM
BHT                .degF     140.0                         : BOTTOMHOLE TEMPERATURE
BLI                .M        5313.7                        : BOTTOM LOGGED INTERVAL
BS                 .in       12.25                         : BIT SIZE
DCS                .         31/01/2016                    : DATE CIRCULATION STOPPED
DFD                .lb/gal   9.7                           : DRILLING FLUID DENSITY
DFT                .         OLEDRILL(BASE OLEFINA)        : DRILLING FLUID TYPE
DLAB               .         01/02/2016                    : DATE LOGGING ON BOTTOM
EDF                .M        26.0                          : ELEVATION OF DRILLING FLOOR
EGL                .M        -2129.0                       : ELEVATION OF GROUND LEVEL
EKB                .M        26.0                          : ELEVATION OF KELLY BUSHING
EPD                .M        0                             : ELEVATATION OF PERMANENT DATUM
GDAT               .         SIRGAS2000                    : Geodetic Datum
LMF                .         MR                            : LOG MEASURED FROM
LUL                .         MCE                           : LOGGING UNIT LOCATION
LUN                .         11792307                      : LOGGING UNIT NUMBER
LATI               .         -25_41_36.136                 : Latitude
LONG               .         -43_10_30,988                 : LONGITUDE
MCST               .degF     -999.25                       : MUDCAKE SAMPLE TEMPERATURE
MFST               .degF     -999.25                       : MUD FILTRATE SAMPLE TEMPERATURE
MRT                .degF     140.0                         : MAXIMUM RECORDED TEMPERATURE
MST                .degF     -999.25                       : MUD SAMPLE TEMPERATURE
ORIGINALWELLNAME   .         7SPH 0020D SPS                : 
PDAT               .         NM                            : PERMANENT DATUM
PRODUCER-CODE      .         280                           : 
PRODUCER-NAME      .         Halliburton                   : 
RMB                .ohm.m    -999.25                       : RESISTIVITY OF MUD - BHT
RMCS               .ohm.m    -999.25                       : RESISTIVITY OF MUDCAKE SAMPLE
RMFS               .ohm.m    -999.25                       : RESISTIVITY OF MUD FILTRATE SAMPLE
RMS                .ohm.m    -999.25                       : RESISTIVITY OF MUD SAMPLE
RUN                .         01                            : RUN NUMBER 1
TCS                .h        09_00                         : TIME CIRCULATION STOPPED
TDD                .M        5315.0                        : DRILLERS DEPTH
TDL                .M        5316.9                        : LOGGERS DEPTH
TLAB               .h        08_00                         : TIME LOGGING ON BOTTOM
TLI                .M        5013.8                        : TOP LOGGED INTERVAL
X                  .M        683110.00000000               : X UTM Coordinate
Y                  .M        7157356.00000000              : Y UTM Coordinate
~Parameter Information Block
#_______________________________________________________________________________
#
#PARAMETER_NAME    .UNIT     VALUE                         : DESCRIPTION
#_______________________________________________________________________________
SET                .         BASE                          : 
TLFamily_BS        .         Bit Size                      : 
TLFamily_DT        .         Compressional Slowness        : 
TLFamily_DWAL      .         Aluminum Weight Fraction      : 
TLFamily_DWCA      .         Calcium Weight Fraction       : 
TLFamily_DWFE      .         Iron Weight Fraction          : 
TLFamily_DWGD      .         Gadolinium Weight Fraction    : 
TLFamily_DWK       .         Potassium Weight Fraction     : 
TLFamily_DWMG      .         Magnesium Weight Fraction     : 
TLFamily_DWMN      .         Manganese Weight Fraction     : 
TLFamily_DWS       .         Sulfur Weight Fraction        : 
TLFamily_DWSI      .         Silicon Weight Fraction       : 
TLFamily_DWTI      .         Titanium Weight Fraction      : 
TLFamily_GR        .         Gamma Ray                     : 
TLFamily_GRt       .         Gamma Ray                     : 
TLFamily_HCAL      .         Caliper                       : 
TLFamily_HDRA      .         Bulk Density Correction       : 
TLFamily_HFK       .         Potassium Concentration       : 
TLFamily_HTHO      .         Thorium Concentration         : 
TLFamily_HURA      .         Uranium Concentration         : 
TLFamily_MD        .         Measured Depth                : 
TLFamily_MPERM     .         NMR Permeability              : 
TLFamily_NMRE_Final .         NMR Bound Fluid Volume Fraction: 
TLFamily_NMRFL_Final .         NMR Free Fluids               : 
TLFamily_NMRT_Final .         NMR Porosity                  : 
TLFamily_NPHI      .         Neutron Porosity              : 
TLFamily_PE        .         Photoelectric Factor          : 
TLFamily_RD        .         Resistivity - Deep            : 
TLFamily_RHOB      .         Bulk Density                  : 
TLFamily_RM        .         Resistivity - Medium          : 
TLFamily_RS        .         Resistivity - Shallow         : 
TLFamily_T2LM      .         NMR T2 Logarithmic Mean       : 
TLFamily_TVDSS     .         True Vertical Depth Sub Sea   : 
~Curve Information
#_______________________________________________________________________________
#
#LOGNAME           .UNIT     LOG_ID                        : DESCRIPTION
#_______________________________________________________________________________
DEPTH              .M                                      :  
BS                 .in                                     : BS/Bit Size 
DT                 .us/ft                                  : DTC/MonoDeltaT 
DWAL               .kg/kg                                  : DAL/DryrockAlWF 
DWCA               .kg/kg                                  : DCA/DryrockCaWF 
DWFE               .kg/kg                                  : DFE/DryrockFeWF 
DWGD               .ppm                                    : DGD/DryrockGdWF 
DWK                .kg/kg                                  : DK/DryrockKWF 
DWMG               .kg/kg                                  : DMG/DryrockMgWF 
DWMN               .kg/kg                                  : DMN/DryrockMnWF 
DWS                .kg/kg                                  : DSUL/DryrockSuWF 
DWSI               .kg/kg                                  : DSI/DryrockSiWF 
DWTI               .kg/kg                                  : DTI/DryrockTiWF 
GR                 .gAPI                                   : GR/Gamma API 
GRt                .gAPI                                   : GKUT/GammaKUT 
HCAL               .in                                     : CALI/Caliper 
HDRA               .g/cm3                                  : Density Delta Rho Filtered 
HFK                .%                                      : POTA/Potassium 
HTHO               .ppm                                    : THOR/Thorium 
HURA               .ppm                                    : URAN/Uranium 
MPERM              .mD                                     : MPERMT2/MrilT2KCoat 
NMRE_Final         .m3/m3                                  : MPHIT2/TA-grp T2 Effective Por 
NMRFL_Final        .unitless                               : MFFIT2/TA-grp T2 FreeFluid Ind 
NMRT_Final         .frac                                   : MSIGT2/TA-grp T2 Total Por. 
NPHI               .frac                                   : POROSIDADE NEUTRONICA (COMPOSICAO DE CURVAS CABO E/OU LWD) 
PE                 .b/e                                    : Density PE Filtered 
RD                 .ohm.m                                  : RT90/90in Resistivity 2ft Res 
RHOB               .g/cm3                                  : DENSIDADE (COMPOSICAO DE CURVAS CABO E/OU LWD ) 
RM                 .ohm.m                                  : RT30/30in Resistivity 2ft Res 
RS                 .ohm.m                                  : RT10/10in Resistivity 2ft Res 
T2LM               .ms                                     : T2LM/T2 Log Mean 
TVDSS              .M                                      :  
~Ascii
# ...
5273.385   12.250     64.420     0.021      0.265      0.006      0.000      0.026      0.002      0.000      0.003      0.115      0.002      31.777     42.546     13.151     0.092      0.100      2.300      3.695      20.805     0.108      0.086      0.108      0.151      7.420      9.250      2.453      12.319     20.002     192.365    5141.213  
5273.537   12.250     65.180     0.020      0.253      0.007      0.000      0.025      0.001      0.000      0.001      0.133      0.001      31.857     42.319     13.143     0.091      0.145      2.361      3.565      5.996      0.102      0.071      0.102      0.151      7.337      10.487     2.437      14.083     22.461     186.809    5141.355  
5273.690   12.250     66.318     0.018      0.225      0.007      0.000      0.023      0.002      0.000      0.001      0.168      0.001      32.534     41.268     13.032     0.084      0.216      2.216      3.373      1.775      0.097      0.057      0.098      0.151      7.166      11.890     2.418      15.856     24.399     184.166    5141.497  
5273.842   12.250     67.491     0.016      0.207      0.007      0.000      0.021      0.003      0.000      0.002      0.189      0.001      33.514     40.604     12.942     0.066      0.233      2.045      3.334      1.365      0.094      0.054      0.095      0.149      6.778      12.556     2.407      16.534     25.168     180.095    5141.639  
5273.995   12.250     68.762     0.016      0.185      0.006      0.000      0.019      0.003      0.000      0.002      0.216      0.001      33.167     39.570     12.909     0.049      0.199      1.649      3.428      1.665      0.092      0.056      0.092      0.148      6.507      13.280     2.402      17.110     27.044     169.416    5141.781  
5274.147   12.250     70.315     0.015      0.172      0.005      0.000      0.019      0.000      0.000      0.002      0.236      0.001      30.422     39.244     12.942     0.047      0.143      1.489      3.554      1.983      0.094      0.058      0.094      0.153      6.651      13.735     2.405      17.520     29.023     152.429    5141.924  
5274.299   12.250     71.408     0.016      0.160      0.005      0.000      0.019      0.000      0.000      0.002      0.252      0.001      28.477     39.223     13.017     0.056      0.082      1.388      3.700      2.102      0.100      0.059      0.100      0.158      6.888      14.858     2.414      19.057     31.954     132.807    5142.066  
5274.452   12.250     71.211     0.016      0.149      0.004      0.000      0.020      0.000      0.000      0.002      0.264      0.001      28.353     38.891     13.248     0.067      0.040      1.365      3.747      2.914      0.105      0.064      0.105      0.165      6.987      15.624     2.419      19.897     28.710     126.571    5142.208  
5274.604   12.250     70.311     0.017      0.145      0.005      0.000      0.021      0.000      0.000      0.003      0.266      0.001      30.433     38.693     13.298     0.071      0.041      1.375      3.719      5.014      0.108      0.071      0.108      0.172      6.915      15.017     2.421      18.739     25.620     132.534    5142.350  
5274.757   12.250     69.030     0.017      0.141      0.006      0.000      0.021      0.000      0.000      0.006      0.269      0.002      35.000     39.480     13.087     0.060      0.050      1.393      3.784      6.649      0.110      0.075      0.110      0.181      6.638      12.505     2.425      14.899     19.228     147.775    5142.492  
5274.909   12.250     67.919     0.017      0.143      0.006      0.000      0.021      0.000      0.000      0.008      0.265      0.002      36.636     40.254     12.953     0.050      0.061      1.393      3.849      5.580      0.110      0.073      0.110      0.189      6.463      10.630     2.429      12.306     15.195     150.707    5142.634  
5275.061   12.250     67.469     0.019      0.151      0.007      0.000      0.024      0.000      0.000      0.011      0.250      0.002      37.129     42.140     12.963     0.050      0.081      1.434      4.009      3.204      0.113      0.066      0.113      0.199      6.592      10.032     2.430      11.543     13.983     142.076    5142.776  
5275.214   12.250     67.389     0.020      0.156      0.007      0.000      0.025      0.000      0.000      0.011      0.243      0.003      38.012     43.788     12.966     0.051      0.079      1.383      4.215      2.246      0.120      0.061      0.120      0.206      6.777      10.387     2.429      12.066     14.705     132.243    5142.918  
5275.366   12.250     67.913     0.019      0.164      0.006      0.000      0.024      0.000      0.000      0.009      0.236      0.003      39.309     46.346     12.930     0.047      0.096      1.202      4.536      2.729      0.127      0.064      0.127      0.208      6.952      10.879     2.427      12.876     16.047     124.759    5143.060  
5275.519   12.250     68.146     0.018      0.171      0.005      0.000      0.022      0.000      0.000      0.008      0.231      0.003      40.073     48.635     12.914     0.041      0.122      1.045      4.803      4.784      0.128      0.073      0.129      0.205      7.016      10.810     2.426      12.941     16.473     135.877    5143.202  
5275.671   12.250     68.892     0.016      0.182      0.005      0.000      0.020      0.000      0.000      0.007      0.222      0.003      40.766     52.278     12.931     0.036      0.146      1.008      5.178      9.772      0.127      0.084      0.127      0.197      7.018      10.291     2.422      12.484     16.429     180.404    5143.344  
5275.823   12.250     69.475     0.016      0.189      0.004      0.000      0.020      0.000      0.000      0.006      0.213      0.003      40.792     54.655     12.923     0.034      0.180      1.125      5.339      17.493     0.129      0.092      0.129      0.187      6.997      9.721      2.415      11.871     15.985     223.199    5143.486  
5275.976   12.250     69.270     0.016      0.206      0.004      0.000      0.020      0.001      0.000      0.006      0.193      0.003      41.168     57.214     12.916     0.035      0.206      1.334      5.498      29.653     0.136      0.101      0.136      0.180      7.021      8.626      2.410      10.593     14.687     238.786    5143.629  
5276.128   12.250     69.012     0.015      0.218      0.004      0.000      0.018      0.009      0.000      0.008      0.165      0.004      41.867     58.532     12.913     0.036      0.255      1.593      5.459      43.265     0.142      0.109      0.142      0.172      7.098      7.764      2.409      9.555      13.490     246.069    5143.771  
5276.281   12.250     69.016     0.016      0.244      0.005      0.000      0.019      0.013      0.000      0.010      0.126      0.004      42.351     58.623     12.931     0.038      0.318      1.896      5.241      52.110     0.146      0.113      0.146      0.164      7.214      6.792      2.410      8.392      12.105     257.796    5143.913  
5276.433   12.250     69.433     0.017      0.261      0.005      0.000      0.022      0.014      0.000      0.010      0.103      0.004      42.875     58.218     12.955     0.042      0.362      2.062      5.054      65.989     0.143      0.114      0.143      0.161      7.326      6.233      2.411      7.737      11.346     279.557    5144.055  
5276.585   12.250     69.573     0.020      0.277      0.006      0.000      0.024      0.012      0.000      0.009      0.083      0.004      43.520     57.237     13.005     0.048      0.385      2.205      4.849      121.837    0.136      0.116      0.136      0.161      7.432      5.680      2.417      7.119      10.695     301.718    5144.197  
5276.738   12.250     69.559     0.021      0.280      0.006      0.000      0.026      0.011      0.000      0.010      0.079      0.004      42.589     56.552     13.035     0.054      0.362      2.259      4.796      255.223    0.127      0.116      0.127      0.162      7.499      5.418      2.429      6.853      10.497     314.243    5144.339  
