~Version
 VERS              .         2.0                           : CWLS LOG ASCII STANDARD - VERSION 2.0
 WRAP              .         NO                            : ONE LINE PER DEPTH STEP
 DLM               .         SPACE                         : DELIMITING CHARACTER(SPACE TAB OR COMMA)
~Well Information
#_______________________________________________________________________________
#
#PARAMETER_NAME    .UNIT     VALUE                         : DESCRIPTION
#_______________________________________________________________________________
STRT               .M        4949.000                      : First reference value
STOP               .M        5060.404                      : Last reference value
STEP               .M        0.152                         : Step increment
NULL               .         -9999                         : Missing value
COMP               .         PETROBRAS                     : Company
WELL               .         7-SPH-22-SPS                  : Well name
FLD                .         SAPINHOA                      : Field
LOC                .                                       : Location
CNTY               .                                       : County
STAT               .         SAO PAULO                     : State
CTRY               .         BR                            : Country
SRVC               .                                       : Service Company
DATE               .         25/07/2016                    : Date
API                .         863160046800                  : API number
APD                .M        26.0                          : ABOVE PERMANENT DATUM
BHT                .degF     140.0                         : BOTTOMHOLE TEMPERATURE
BLI                .M        5055.8                        : BOTTOM LOGGED INTERVAL
BS                 .in       8.5                           : BIT SIZE
CBDR               .M        4981                          : Casing Bottom (Driller)
CBLO               .M        4981                          : Casing Bottom of Logger
CSIZ               .in       10.75                         : Casing Outer Diameter
CWEI               .lb/ft    85.3                          : Casing Weight
DCS                .         23/07/2016                    : DATE CIRCULATION STOPPED
DFD                .lb/gal   9.7                           : DRILLING FLUID DENSITY
DFT                .         CATIONICO_SCOL (BASE AGUA)    : DRILLING FLUID TYPE
DLAB               .         25/07/2016                    : DATE LOGGING ON BOTTOM
EDF                .M        26.0                          : ELEVATION OF DRILLING FLOOR
EGL                .M        -2144.0                       : ELEVATION OF GROUND LEVEL
EKB                .M        -999.25                       : ELEVATION OF KELLY BUSHING
EPD                .M        0.0                           : ELEVATATION OF PERMANENT DATUM
GDAT               .                                       : Geodetic Datum
LMF                .         MR                            : LOG MEASURED FROM
LUL                .         MCE                           : LOGGING UNIT LOCATION
LUN                .         10898943                      : LOGGING UNIT NUMBER
LATI               .         -25_48_08.320                 : Latitude
LONG               .         -43_13_44,430                 : LONGITUDE
MCST               .degF     66.1                          : MUDCAKE SAMPLE TEMPERATURE
MFST               .degF     66.4                          : MUD FILTRATE SAMPLE TEMPERATURE
MRT                .degF     140.0                         : MAXIMUM RECORDED TEMPERATURE
MST                .degF     65.8                          : MUD SAMPLE TEMPERATURE
ORIGINALWELLNAME   .         7SPH 0022  SPS                : 
PDAT               .         NM                            : PERMANENT DATUM
PRODUCER-CODE      .         280                           : 
PRODUCER-NAME      .         Halliburton                   : 
RMB                .ohm.m    0.040                         : RESISTIVITY OF MUD - BHT
RMCS               .ohm.m    0.140                         : RESISTIVITY OF MUDCAKE SAMPLE
RMFS               .ohm.m    0.012                         : RESISTIVITY OF MUD FILTRATE SAMPLE
RMS                .ohm.m    0.080                         : RESISTIVITY OF MUD SAMPLE
RUN                .         01                            : RUN NUMBER 1
TCS                .h        19_00                         : TIME CIRCULATION STOPPED
TDD                .M        5058.0                        : DRILLERS DEPTH
TDL                .M        5057.1                        : LOGGERS DEPTH
TLAB               .h        07_15                         : TIME LOGGING ON BOTTOM
TLI                .M        4950.0                        : TOP LOGGED INTERVAL
X                  .M        677550.00000000               : X or East-West coordinate
Y                  .M        7145014.00000000              : Y or North South coordinate
~Parameter Information Block
#_______________________________________________________________________________
#
#PARAMETER_NAME    .UNIT     VALUE                         : DESCRIPTION
#_______________________________________________________________________________
SET                .         BASE                          : 
TLFamily_BS        .         Bit Size                      : 
TLFamily_DT        .         Compressional Slowness        : 
TLFamily_DWAL      .         Aluminum Weight Fraction      : 
TLFamily_DWCA      .         Calcium Weight Fraction       : 
TLFamily_DWFE      .         Iron Weight Fraction          : 
TLFamily_DWK       .         Potassium Weight Fraction     : 
TLFamily_DWMG      .         Magnesium Weight Fraction     : 
TLFamily_DWMN      .         Manganese Weight Fraction     : 
TLFamily_DWS       .         Sulfur Weight Fraction        : 
TLFamily_DWSI      .         Silicon Weight Fraction       : 
TLFamily_DWTI      .         Titanium Weight Fraction      : 
TLFamily_GR        .         Gamma Ray                     : 
TLFamily_GRt       .         Gamma Ray                     : 
TLFamily_HCAL      .         Caliper                       : 
TLFamily_HDRA      .         Bulk Density Correction       : 
TLFamily_HFK       .         Potassium Concentration       : 
TLFamily_HTHO      .         Thorium Concentration         : 
TLFamily_HURA      .         Uranium Concentration         : 
TLFamily_MD        .         Measured Depth                : 
TLFamily_MPERM     .         NMR Permeability              : 
TLFamily_NMRE_Final .         NMR Bound Fluid Volume Fraction: 
TLFamily_NMRFL_Final .         NMR Free Fluids               : 
TLFamily_NMRT_Final .         NMR Porosity                  : 
TLFamily_NPHI      .         Neutron Porosity              : 
TLFamily_PE        .         Photoelectric Factor          : 
TLFamily_RD        .         Resistivity - Deep            : 
TLFamily_RHOB      .         Bulk Density                  : 
TLFamily_RS        .         Resistivity - Shallow         : 
TLFamily_T2LM      .         NMR T2 Logarithmic Mean       : 
TLFamily_TVDSS     .         True Vertical Depth Sub Sea   : 
~Curve Information
#_______________________________________________________________________________
#
#LOGNAME           .UNIT     LOG_ID                        : DESCRIPTION
#_______________________________________________________________________________
DEPTH              .M                                      :  
BS                 .in                                     : BS/Bit Size 
DT                 .us/ft                                  : SONICO COMPRESSIONAL (COMPOSICAO DE CURVAS CABO E/OU LWD) 
DWAL               .kg/kg                                  : DAL/DryrockAlWF 
DWCA               .kg/kg                                  : DCA/DryrockCaWF 
DWFE               .kg/kg                                  : DFE/DryrockFeWF 
DWK                .kg/kg                                  : DK/DryrockKWF 
DWMG               .kg/kg                                  : DMG/DryrockMgWF 
DWMN               .kg/kg                                  : DMN/DryrockMnWF 
DWS                .kg/kg                                  : DSUL/DryrockSuWF 
DWSI               .kg/kg                                  : DSI/DryrockSiWF 
DWTI               .kg/kg                                  : DTI/DryrockTiWF 
GR                 .gAPI                                   : GR/Gamma API 
GRt                .gAPI                                   : GKUT/GammaKUT 
HCAL               .in                                     : CALI/Caliper 
HDRA               .g/cm3                                  : DRHO/DensityCorr 
HFK                .%                                      : POTA/Potassium 
HTHO               .ppm                                    : THOR/Thorium 
HURA               .ppm                                    : URAN/Uranium 
MPERM              .mD                                     : MPERMT2/MrilT2KCoat 
NMRE_Final         .m3/m3                                  : MPHIT2/TA-grp T2 Effective Por 
NMRFL_Final        .unitless                               : MFFIT2/TA-grp T2 FreeFluid Ind 
NMRT_Final         .frac                                   : MSIGT2/TA-grp T2 Total Por. 
NPHI               .frac                                   : NPHI/Neutron Porosity 
PE                 .b/e                                    : PE/Pe 
RD                 .ohm.m                                  : LLD/LLD 
RHOB               .g/cm3                                  : RHOB/Density 
RS                 .ohm.m                                  : LLS/LLS 
T2LM               .ms                                     : T2LM/T2 Log Mean 
TVDSS              .M                                      :  
~Ascii
# ...
5036.630   8.500      -9999.000  0.007      0.300      0.000      0.008      0.041      0.000      0.006      0.036      0.002      -9999.000  -9999.000  8.517      -0.018     -9999.000  -9999.000  -9999.000  4.937      0.104      0.071      0.107      0.116      3.708      3191.902   2.503      4132.931   197.082    5004.035  
5036.782   8.500      -9999.000  0.005      0.280      0.000      0.006      0.062      0.000      0.006      0.027      0.002      -9999.000  -9999.000  8.515      -0.013     -9999.000  -9999.000  -9999.000  6.836      0.116      0.079      0.128      0.118      3.897      5472.252   2.508      5393.511   139.373    5004.186  
5036.935   8.500      -9999.000  0.004      0.269      0.000      0.005      0.075      0.000      0.007      0.020      0.002      -9999.000  -9999.000  8.518      -0.014     -9999.000  -9999.000  -9999.000  9.070      0.120      0.085      0.140      0.119      4.239      6187.791   2.490      6249.366   118.375    5004.337  
5037.087   8.500      -9999.000  0.005      0.261      0.000      0.005      0.081      0.000      0.006      0.020      0.002      -9999.000  -9999.000  8.521      -0.015     -9999.000  -9999.000  -9999.000  13.160     0.120      0.091      0.140      0.124      4.322      6196.836   2.475      6274.650   144.581    5004.488  
5037.240   8.500      -9999.000  0.005      0.257      0.000      0.004      0.083      0.000      0.007      0.022      0.002      -9999.000  -9999.000  8.511      -0.018     -9999.000  -9999.000  -9999.000  23.004     0.119      0.095      0.129      0.123      4.319      6768.557   2.461      6268.178   244.492    5004.639  
5037.392   8.500      -9999.000  0.004      0.255      0.000      0.005      0.083      0.000      0.007      0.023      0.001      -9999.000  -9999.000  8.509      -0.022     -9999.000  -9999.000  -9999.000  44.352     0.117      0.098      0.119      0.118      4.262      8376.978   2.453      6873.731   394.387    5004.791  
5037.544   8.500      -9999.000  0.004      0.252      0.000      0.006      0.081      0.000      0.009      0.029      0.001      -9999.000  -9999.000  8.509      -0.023     -9999.000  -9999.000  -9999.000  54.700     0.116      0.098      0.116      0.115      4.164      8778.873   2.460      7857.475   432.368    5004.942  
5037.697   8.500      -9999.000  0.005      0.255      0.000      0.007      0.076      0.000      0.009      0.033      0.001      -9999.000  -9999.000  8.513      -0.020     -9999.000  -9999.000  -9999.000  46.261     0.117      0.097      0.117      0.113      4.096      8820.699   2.473      8103.085   387.841    5005.093  
5037.849   8.500      -9999.000  0.006      0.260      0.000      0.008      0.070      0.000      0.008      0.035      0.001      -9999.000  -9999.000  8.519      -0.016     -9999.000  -9999.000  -9999.000  55.789     0.120      0.101      0.120      0.113      4.194      13300.457  2.469      18369.395  339.584    5005.244  
5038.002   8.500      -9999.000  0.006      0.261      0.000      0.008      0.068      0.001      0.006      0.040      0.001      -9999.000  -9999.000  8.522      -0.013     -9999.000  -9999.000  -9999.000  92.205     0.125      0.107      0.125      0.113      4.351      26562.254  2.458      39999.984  317.470    5005.395  
5038.154   8.500      -9999.000  -9999.000  -9999.000  -9999.000  -9999.000  -9999.000  -9999.000  -9999.000  -9999.000  -9999.000  -9999.000  -9999.000  8.517      -0.012     -9999.000  -9999.000  -9999.000  184.927    0.130      0.116      0.130      0.113      4.440      21038.684  2.455      39999.984  318.658    5005.546  
5038.306   8.500      -9999.000  -9999.000  -9999.000  -9999.000  -9999.000  -9999.000  -9999.000  -9999.000  -9999.000  -9999.000  -9999.000  -9999.000  8.518      -0.013     -9999.000  -9999.000  -9999.000  242.552    0.134      0.120      0.134      0.110      4.494      20473.047  2.451      39999.984  317.377    5005.698  
5038.459   8.500      -9999.000  -9999.000  -9999.000  -9999.000  -9999.000  -9999.000  -9999.000  -9999.000  -9999.000  -9999.000  -9999.000  -9999.000  8.521      -0.014     -9999.000  -9999.000  -9999.000  163.508    0.135      0.118      0.135      0.112      4.590      18371.734  2.446      39999.984  307.928    5005.849  
5038.611   8.500      -9999.000  -9999.000  -9999.000  -9999.000  -9999.000  -9999.000  -9999.000  -9999.000  -9999.000  -9999.000  -9999.000  -9999.000  8.524      -0.014     -9999.000  -9999.000  -9999.000  83.352     0.136      0.113      0.136      0.112      4.676      17577.090  2.451      39999.984  303.017    5006.000  
5038.764   8.500      -9999.000  -9999.000  -9999.000  -9999.000  -9999.000  -9999.000  -9999.000  -9999.000  -9999.000  -9999.000  -9999.000  -9999.000  8.522      -0.013     -9999.000  -9999.000  -9999.000  42.419     0.135      0.105      0.135      0.114      4.696      17511.941  2.459      39999.984  308.272    5006.151  
5038.916   8.500      -9999.000  -9999.000  -9999.000  -9999.000  -9999.000  -9999.000  -9999.000  -9999.000  -9999.000  -9999.000  -9999.000  -9999.000  8.527      -0.015     -9999.000  -9999.000  -9999.000  27.753     0.132      0.100      0.133      0.114      4.659      5983.560   2.470      6552.262   315.677    5006.302  
5039.068   8.500      -9999.000  -9999.000  -9999.000  -9999.000  -9999.000  -9999.000  -9999.000  -9999.000  -9999.000  -9999.000  -9999.000  -9999.000  8.529      -0.022     -9999.000  -9999.000  -9999.000  19.282     0.127      0.093      0.129      0.112      4.651      3766.368   2.476      4595.941   312.296    5006.454  
5039.221   8.500      -9999.000  -9999.000  -9999.000  -9999.000  -9999.000  -9999.000  -9999.000  -9999.000  -9999.000  -9999.000  -9999.000  -9999.000  8.533      -0.036     -9999.000  -9999.000  -9999.000  12.244     0.120      0.086      0.122      0.116      4.597      1374.517   2.505      1173.094   297.024    5006.605  
5039.373   8.500      -9999.000  -9999.000  -9999.000  -9999.000  -9999.000  -9999.000  -9999.000  -9999.000  -9999.000  -9999.000  -9999.000  -9999.000  8.532      -0.039     -9999.000  -9999.000  -9999.000  7.519      0.109      0.076      0.110      0.115      4.407      1353.391   2.548      1154.528   277.465    5006.756  
5039.526   8.500      -9999.000  -9999.000  -9999.000  -9999.000  -9999.000  -9999.000  -9999.000  -9999.000  -9999.000  -9999.000  -9999.000  -9999.000  8.529      -0.033     -9999.000  -9999.000  -9999.000  4.493      0.094      0.067      0.094      0.111      3.773      1330.433   2.644      1140.841   263.632    5006.907  
5039.678   8.500      -9999.000  -9999.000  -9999.000  -9999.000  -9999.000  -9999.000  -9999.000  -9999.000  -9999.000  -9999.000  -9999.000  -9999.000  8.525      -0.028     -9999.000  -9999.000  -9999.000  2.452      0.078      0.056      0.078      0.112      3.430      1233.680   2.686      1059.647   259.402    5007.058  
5039.830   8.500      -9999.000  -9999.000  -9999.000  -9999.000  -9999.000  -9999.000  -9999.000  -9999.000  -9999.000  -9999.000  -9999.000  -9999.000  8.524      -0.033     -9999.000  -9999.000  -9999.000  1.270      0.064      0.047      0.064      0.112      3.302      1506.014   2.699      1546.396   271.452    5007.210  
5039.983   8.500      -9999.000  -9999.000  -9999.000  -9999.000  -9999.000  -9999.000  -9999.000  -9999.000  -9999.000  -9999.000  -9999.000  -9999.000  8.525      -0.035     -9999.000  -9999.000  -9999.000  0.725      0.059      0.042      0.059      0.113      3.304      2371.246   2.698      2367.733   297.183    5007.361  
5040.135   8.500      -9999.000  -9999.000  -9999.000  -9999.000  -9999.000  -9999.000  -9999.000  -9999.000  -9999.000  -9999.000  -9999.000  -9999.000  8.525      -0.042     -9999.000  -9999.000  -9999.000  0.873      0.064      0.045      0.066      0.113      3.258      2578.611   2.631      2436.358   278.910    5007.512  
5040.288   8.500      -9999.000  -9999.000  -9999.000  -9999.000  -9999.000  -9999.000  -9999.000  -9999.000  -9999.000  -9999.000  -9999.000  -9999.000  8.535      -0.050     -9999.000  -9999.000  -9999.000  2.186      0.076      0.057      0.084      0.112      3.399      2565.526   2.536      2413.096   224.495    5007.663  
