~Version
 VERS              .         2.0                           : CWLS LOG ASCII STANDARD - VERSION 2.0
 WRAP              .         NO                            : ONE LINE PER DEPTH STEP
 DLM               .         SPACE                         : DELIMITING CHARACTER(SPACE TAB OR COMMA)
~Well Information
#_______________________________________________________________________________
#
#PARAMETER_NAME    .UNIT     VALUE                         : DESCRIPTION
#_______________________________________________________________________________
STRT               .M        4938.217                      : First reference value
STOP               .M        5227.625                      : Last reference value
STEP               .M        0.152                         : Step increment
NULL               .         -9999                         : Missing value
COMP               .         PETROBRAS                     : Company
WELL               .         7-SPH-17-SPS                  : Well name
FLD                .         SAPINHOA                      : Field
LOC                .                                       : Location
CNTY               .                                       : County
STAT               .         86316027948                   : State
CTRY               .         Brasil                        : Country
SRVC               .                                       : Service Company
DATE               .                                       : Date
API                .                                       : API number
APD                .M        25                            : Elevation of Depth Reference (LMF) Above Permanent Datum
BHS                .         OPEN                          : Borehole Status (Open or Cased Hole)
BHT                .degF     144                           : Bottom Hole Temperature
BLI                .M        5222.59                       : Bottom Log Interval
BS                 .in       12.25                         : Bit Size
CBDR               .M        5017                          : Casing Bottom (Driller)
CBLO               .M        5020.6                        : Casing Bottom (Logger)
CSIZ               .in       14                            : Casing Outer Diameter
CWEI               .lbm/ft   114                           : Casing Weight
DCS                .         04/01/2015                    : Date Circulation Stopped
DFD                .lb/gal   9.6                           : Drilling Fluid Density
DFT                .         BR-MUL                        : Drilling Fluid Type
DLAB               .         06/01/2015                    : Date Logging on Bottom
EDF                .M        25                            : Elevation of Drill Floor
EGL                .M        -2131                         : Elevation of Ground Level
EKB                .M        25                            : Elevation of Kelly Bushing
EPD                .M        0                             : Elevation of Permanent Datum (PDAT) above Mean Sea Level
LMF                .         MR                            : Logging Measured From (Name of Logging Elevation Reference)
LUL                .         BRMA                          : Logging Unit Location
LUN                .         7806                          : Logging Unit Number
LONG               .         -43_09_42,450                 : Longitude
MCST               .degF     -999.25                       : Mudcake Sample Temperature
MFST               .degF     -999.25                       : Mud Filtrate Sample Temperature
MRT                .degF     144                           : Maximum Recorded Temperature
MST                .degF     -999.25                       : Mud Sample Temperature
PDAT               .         NM                            : Permanent Datum
PRODUCER-CODE      .         440                           : 
PRODUCER-NAME      .         Schlumberger                  : 
RMB                .ohm.m    -999.25                       : Resistivity of Mud at Bottom Hole Temperature
RMCS               .ohm.m    -999.25                       : Resistivity of Mud Cake Sample
RMFS               .ohm.m    -999.25                       : Resistivity of Mud Filtrate Sample
RMS                .ohm.m    -999.25                       : Resistivity of Mud Sample
RUN                .         02                            : Run Number
TCS                .h        17_30                         : Time Circulation Stopped
TDD                .M        5221                          : Total Depth (Driller)
TDL                .M        5225                          : Logger Total Depth
TLAB               .h        09_25                         : Time Logging on Bottom
TLI                .M        5020.6                        : Top Log Interval
X                  .M        684517.00000000               : 
Y                  .M        7161201.00000000              : 
~Parameter Information Block
#_______________________________________________________________________________
#
#PARAMETER_NAME    .UNIT     VALUE                         : DESCRIPTION
#_______________________________________________________________________________
SET                .         BASE                          : 
TLFamily_BS        .         Bit Size                      : 
TLFamily_DT        .         Compressional Slowness        : 
TLFamily_DWAL      .         Aluminum Weight Fraction      : 
TLFamily_DWCA      .         Calcium Weight Fraction       : 
TLFamily_DWFE      .         Iron Weight Fraction          : 
TLFamily_DWGD      .         Gadolinium Weight Fraction    : 
TLFamily_DWS       .         Sulfur Weight Fraction        : 
TLFamily_DWSI      .         Silicon Weight Fraction       : 
TLFamily_DWTI      .         Titanium Weight Fraction      : 
TLFamily_GR        .         Gamma Ray                     : 
TLFamily_GRt       .         Gamma Ray                     : 
TLFamily_HCAL      .         Caliper                       : 
TLFamily_HDRA      .         Bulk Density Correction       : 
TLFamily_HFK       .         Potassium Concentration       : 
TLFamily_HTHO      .         Thorium Concentration         : 
TLFamily_HURA      .         Uranium Concentration         : 
TLFamily_KSDR      .         NMR Permeability              : 
TLFamily_KTIM      .         NMR Permeability              : 
TLFamily_MD        .         Measured Depth                : 
TLFamily_NMRE_Final .         NMR Bound Fluid Volume Fraction: 
TLFamily_NMRFL_Final .         NMR Free Fluids               : 
TLFamily_NMRT_Final .         NMR Porosity                  : 
TLFamily_NPHI      .         Neutron Porosity              : 
TLFamily_PE        .         Photoelectric Factor          : 
TLFamily_RD        .         Resistivity - Deep            : 
TLFamily_RHOB      .         Bulk Density                  : 
TLFamily_RM        .         Resistivity - Medium          : 
TLFamily_RS        .         Resistivity - Shallow         : 
TLFamily_T2LM      .         NMR T2 Logarithmic Mean       : 
TLFamily_TVDSS     .         True Vertical Depth Sub Sea   : 
~Curve Information
#_______________________________________________________________________________
#
#LOGNAME           .UNIT     LOG_ID                        : DESCRIPTION
#_______________________________________________________________________________
DEPTH              .M                                      :  
BS                 .in                                     : Bit Size 
DT                 .us/ft                                  : Delta-T Compressional 
DWAL               .kg/kg                                  : Dry Weight Fraction Pseudo Aluminum (SpectroLith WALK2 Model) 
DWCA               .kg/kg                                  : Dry Weight Fraction Calcium (SpectroLith WALK2 Model) 
DWFE               .kg/kg                                  : Dry Weight Fraction Iron + 0.14 Aluminum (SpectroLith WALK2 Model) 
DWGD               .ppm                                    : Dry Weight Fraction Gadolinium (SpectroLith WALK2 Model) 
DWS                .kg/kg                                  : Dry Weight Fraction Sulfur (SpectroLith WALK2 Model) 
DWSI               .kg/kg                                  : Dry Weight Fraction Silicon (SpectroLith WALK2 Model) 
DWTI               .kg/kg                                  : Dry Weight Fraction Titanium (SpectroLith WALK2 Model) 
GR                 .gAPI                                   : Gamma Ray 
GRt                .gAPI                                   : HNGS Standard Gamma-Ray 
HCAL               .in                                     : HRCC Caliper Calibrated 
HDRA               .g/cm3                                  : Density Standoff Correction 
HFK                .%                                      : HNGS Formation Potassium Concentration 
HTHO               .ppm                                    : HNGS Formation Thorium Concentration 
HURA               .ppm                                    : HNGS Formation Uranium Concentration 
KSDR               .mD                                     : SDR Permeability 
KTIM               .mD                                     : Timur/Coates Permeability 
NMRE_Final         .m3/m3                                  : CMR Porosity with T2 values greater than 3 ms 
NMRFL_Final        .unitless                               : CMR Free Fluid 
NMRT_Final         .frac                                   : Total CMR Porosity 
NPHI               .frac                                   : Enhanced Thermal Neutron Porosity in Selected Lithology 
PE                 .b/e                                    : Standard Resolution Formation Photoelectric Factor 
RD                 .ohm.m                                  : Array Induction Two Foot Resistivity A90 
RHOB               .g/cm3                                  : Standard Resolution Formation Density 
RM                 .ohm.m                                  : Array Induction Two Foot Resistivity A30 
RS                 .ohm.m                                  : Array Induction Two Foot Resistivity A10 
T2LM               .ms                                     : T2 Logarithmic Mean 
TVDSS              .M                                      :  
~Ascii
# ...
5151.577   12.250     63.716     0.000      0.311      0.000      0.000      0.000      0.105      0.000      20.779     24.803     12.355     0.003      0.239      1.328      2.024      20.771     9.918      0.112      0.081      0.114      0.170      4.465      290.817    2.525      240.690    417.838    178.768    5126.293  
5151.730   12.250     60.094     0.000      0.313      0.000      0.007      0.000      0.102      0.000      20.575     23.901     12.355     0.009      0.219      1.278      1.972      4.457      1.933      0.093      0.058      0.096      0.156      4.601      195.672    2.589      157.333    163.286    115.503    5126.445  
5151.882   12.250     58.841     0.000      0.314      0.000      2.329      0.000      0.100      0.000      19.953     23.432     12.376     0.016      0.218      1.217      1.951      1.612      0.894      0.081      0.048      0.086      0.150      4.631      100.766    2.639      80.743     82.704     86.174     5126.597  
5152.034   12.250     58.150     0.002      0.315      0.001      2.662      0.000      0.096      0.000      20.947     22.704     12.441     0.025      0.219      1.373      1.822      2.816      1.538      0.081      0.053      0.082      0.107      4.610      77.918     2.658      65.513     61.548     123.545    5126.750  
5152.187   12.250     57.858     0.005      0.316      0.003      1.843      0.000      0.090      0.000      19.553     21.601     12.547     0.022      0.214      1.328      1.681      5.555      3.133      0.083      0.060      0.083      0.118      4.549      114.317    2.642      93.359     89.127     169.476    5126.902  
5152.339   12.250     57.831     0.007      0.311      0.004      0.357      0.000      0.092      0.000      19.577     20.722     12.526     0.016      0.216      1.393      1.552      7.057      3.688      0.082      0.061      0.082      0.115      4.508      198.525    2.634      165.431    174.804    198.526    5127.055  
5152.492   12.250     57.222     0.006      0.280      0.003      0.000      0.000      0.131      0.000      17.740     19.790     12.462     0.009      0.205      1.484      1.388      6.975      3.257      0.081      0.060      0.081      0.106      4.411      251.873    2.642      208.843    347.062    202.318    5127.207  
5152.644   12.250     57.055     0.005      0.228      0.002      0.000      0.000      0.193      0.000      17.472     18.917     12.462     0.012      0.195      1.388      1.346      13.748     7.435      0.094      0.071      0.094      0.079      4.268      393.509    2.652      276.316    365.018    208.710    5127.359  
5152.796   12.250     56.831     0.005      0.180      0.002      0.000      0.000      0.248      0.000      15.958     16.941     12.462     0.010      0.174      1.283      1.201      23.798     12.683     0.107      0.082      0.108      0.086      3.975      452.253    2.608      342.157    337.038    208.266    5127.512  
5152.949   12.250     56.712     0.006      0.166      0.003      0.000      0.000      0.263      0.000      15.216     16.235     12.505     0.005      0.152      1.222      1.189      23.131     11.658     0.113      0.083      0.115      0.147      3.712      592.625    2.524      377.220    374.094    180.891    5127.664  
5153.101   12.250     55.431     0.008      0.185      0.004      0.000      0.000      0.238      0.000      16.497     17.707     12.355     -0.001     0.150      1.419      1.316      8.945      4.430      0.103      0.070      0.107      0.172      3.625      500.640    2.462      436.634    539.686    132.293    5127.817  
5153.254   12.250     54.524     0.009      0.227      0.004      0.000      0.000      0.187      0.000      16.886     20.747     12.313     0.025      0.160      1.756      1.543      1.350      0.672      0.079      0.047      0.085      0.100      4.139      424.165    2.485      312.642    328.118    83.141     5127.969  
5153.406   12.250     53.874     0.010      0.264      0.007      0.000      0.009      0.137      0.000      18.084     22.027     12.291     0.069      0.179      1.888      1.618      0.108      0.049      0.051      0.023      0.058      0.084      5.102      306.205    2.574      214.146    207.687    48.310     5128.121  
5153.558   12.250     53.744     0.011      0.280      0.008      0.000      0.016      0.111      0.000      18.283     22.752     12.355     0.111      0.176      2.142      1.616      0.013      0.004      0.037      0.011      0.047      0.072      6.170      234.427    2.657      165.894    155.783    26.401     5128.274  
5153.711   12.250     53.757     0.011      0.286      0.008      0.000      0.010      0.107      0.000      20.434     22.735     12.419     0.119      0.167      1.948      1.698      0.026      0.011      0.042      0.016      0.055      0.052      6.742      245.268    2.702      165.899    165.127    27.228     5128.426  
5153.863   12.250     53.748     0.008      0.291      0.005      0.005      0.000      0.113      0.000      21.441     24.152     12.377     0.099      0.185      1.936      1.856      0.158      0.133      0.059      0.032      0.074      0.077      6.696      320.526    2.711      185.574    178.595    37.871     5128.579  
5154.016   12.250     53.714     0.003      0.302      0.001      1.526      0.000      0.110      0.000      22.516     25.745     12.460     0.069      0.183      2.014      2.050      1.262      1.414      0.080      0.054      0.095      0.099      6.307      397.062    2.690      208.354    204.002    62.914     5128.731  
5154.168   12.250     54.540     0.001      0.316      0.000      2.217      0.000      0.098      0.001      23.568     27.325     12.615     0.035      0.184      1.989      2.287      9.598      8.040      0.101      0.076      0.106      0.120      5.831      558.200    2.627      272.024    267.983    137.091    5128.883  
5154.320   12.250     56.600     0.001      0.326      0.000      1.999      0.000      0.085      0.001      26.710     29.248     12.313     0.013      0.191      2.142      2.440      24.088     19.418     0.108      0.086      0.110      0.139      5.448      852.614    2.573      428.234    450.630    204.596    5129.036  
5154.473   12.250     58.179     0.001      0.336      0.000      1.321      0.001      0.074      0.001      29.294     30.926     12.311     0.010      0.206      2.230      2.600      35.127     24.648     0.111      0.089      0.111      0.162      5.177      1807.995   2.563      746.788    1109.957   239.421    5129.188  
5154.625   12.250     59.145     0.000      0.336      0.000      0.002      0.000      0.075      0.000      31.269     32.729     12.355     0.011      0.240      2.235      2.741      31.153     17.764     0.109      0.086      0.112      0.157      5.030      1947.923   2.569      866.736    1730.296   222.074    5129.341  
5154.778   12.250     59.445     0.000      0.333      0.000      0.000      0.000      0.078      0.000      30.416     33.126     12.397     0.007      0.254      2.141      2.762      20.215     9.696      0.104      0.080      0.111      0.145      5.053      1224.623   2.552      767.126    1950.000   181.706    5129.493  
5154.930   12.250     59.645     0.000      0.325      0.000      0.000      0.000      0.088      0.000      29.851     32.606     12.376     -0.001     0.266      1.979      2.744      13.266     6.579      0.096      0.074      0.107      0.142      5.016      685.797    2.540      585.268    1950.000   160.467    5129.645  
5155.082   12.250     60.432     0.000      0.324      0.000      0.000      0.000      0.089      0.000      28.005     31.815     12.355     -0.003     0.245      1.912      2.727      13.039     6.929      0.092      0.072      0.098      0.157      4.927      409.977    2.550      427.537    1374.249   188.463    5129.798  
5155.235   12.250     60.488     0.000      0.327      0.000      0.799      0.000      0.086      0.000      25.754     30.201     12.354     -0.001     0.234      1.581      2.658      16.917     10.031     0.097      0.077      0.101      0.160      4.725      250.557    2.568      307.257    958.215    201.333    5129.950  
