~Version
 VERS              .         2.0                           : CWLS LOG ASCII STANDARD - VERSION 2.0
 WRAP              .         NO                            : ONE LINE PER DEPTH STEP
 DLM               .         SPACE                         : DELIMITING CHARACTER(SPACE TAB OR COMMA)
~Well Information
#_______________________________________________________________________________
#
#PARAMETER_NAME    .UNIT     VALUE                         : DESCRIPTION
#_______________________________________________________________________________
STRT               .M        5082.700                      : First reference value
STOP               .M        5352.753                      : Last reference value
STEP               .M        0.152                         : Step increment
NULL               .         -9999                         : Missing value
COMP               .         PETROBRAS                     : Company
WELL               .         7-SPH-16D-SPS                 : Well name
FLD                .         SAPINHOA                      : Field
LOC                .                                       : Location
CNTY               .                                       : County
STAT               .         SP                            : State
CTRY               .                                       : Country
SRVC               .                                       : Service Company
DATE               .                                       : Date
API                .                                       : API number
APD                .M        24.0                          : ABOVE PERMANENT DATUM
BHT                .degF     144.0                         : BOTTOMHOLE TEMPERATURE
BLI                .M        5312.4                        : BOTTOM LOGGED INTERVAL
BS                 .in       12.25                         : BIT SIZE
DCS                .         04/09/2014                    : DATE CIRCULATION STOPPED
DFD                .lb/gal   9.5                           : DRILLING FLUID DENSITY
DFT                .         BR-MUL                        : DRILLING FLUID TYPE
DLAB               .         05/09/2014                    : DATE LOGGING ON BOTTOM
EDF                .M        24.0                          : ELEVATION OF DRILLING FLOOR
EGL                .M        -2125.0                       : ELEVATION OF GROUND LEVEL
EKB                .M        -999.25                       : ELEVATION OF KELLY BUSHING
EPD                .M        0.0                           : ELEVATATION OF PERMANENT DATUM
LMF                .         MR                            : LOG MEASURED FROM
LUL                .         MCE                           : LOGGING UNIT LOCATION
LUN                .         11202303                      : LOGGING UNIT NUMBER
LONG               .         -43_10_06.229                 : LONGITUDE
MCST               .degF     -999.25                       : MUDCAKE SAMPLE TEMPERATURE
MFST               .degF     -999.25                       : MUD FILTRATE SAMPLE TEMPERATURE
MRT                .degF     144.0                         : MAXIMUM RECORDED TEMPERATURE
MST                .degF     -999.25                       : MUD SAMPLE TEMPERATURE
PDAT               .         NM                            : PERMANENT DATUM
PRODUCER-CODE      .         280                           : 
PRODUCER-NAME      .         Halliburton                   : 
RMB                .ohm.m    -999.25                       : RESISTIVITY OF MUD - BHT
RMCS               .ohm.m    -999.25                       : RESISTIVITY OF MUDCAKE SAMPLE
RMFS               .ohm.m    -999.25                       : RESISTIVITY OF MUD FILTRATE SAMPLE
RMS                .ohm.m    -999.25                       : RESISTIVITY OF MUD SAMPLE
RUN                .         01                            : RUN NUMBER 1
TCS                .h        05_30                         : TIME CIRCULATION STOPPED
TDD                .M        5343.0                        : DRILLERS DEPTH
TDL                .M        5345.0                        : LOGGERS DEPTH
TLAB               .h        16_45                         : TIME LOGGING ON BOTTOM
TLI                .M        5135.0                        : TOP LOGGED INTERVAL
X                  .M        683789.99900000               : X UTM Coordinate
Y                  .M        7152001.99900000              : Y UTM Coordinate
~Parameter Information Block
#_______________________________________________________________________________
#
#PARAMETER_NAME    .UNIT     VALUE                         : DESCRIPTION
#_______________________________________________________________________________
SET                .         BASE                          : 
TLFamily_BS        .         Bit Size                      : 
TLFamily_DT        .         Compressional Slowness        : 
TLFamily_DWAL      .         Aluminum Weight Fraction      : 
TLFamily_DWCA      .         Calcium Weight Fraction       : 
TLFamily_DWFE      .         Iron Weight Fraction          : 
TLFamily_DWGD      .         Gadolinium Weight Fraction    : 
TLFamily_DWK       .         Potassium Weight Fraction     : 
TLFamily_DWMG      .         Magnesium Weight Fraction     : 
TLFamily_DWMN      .         Manganese Weight Fraction     : 
TLFamily_DWS       .         Sulfur Weight Fraction        : 
TLFamily_DWSI      .         Silicon Weight Fraction       : 
TLFamily_DWTI      .         Titanium Weight Fraction      : 
TLFamily_GR        .         Gamma Ray                     : 
TLFamily_GRt       .         Gamma Ray                     : 
TLFamily_HCAL      .         Caliper                       : 
TLFamily_HDRA      .         Bulk Density Correction       : 
TLFamily_HFK       .         Potassium Concentration       : 
TLFamily_HTHO      .         Thorium Concentration         : 
TLFamily_HURA      .         Uranium Concentration         : 
TLFamily_MD        .         Measured Depth                : 
TLFamily_MPERM     .         NMR Permeability              : 
TLFamily_NMRE_Final .         NMR Bound Fluid Volume Fraction: 
TLFamily_NMRFL_Final .         NMR Free Fluids               : 
TLFamily_NMRT_Final .         NMR Porosity                  : 
TLFamily_NPHI      .         Neutron Porosity              : 
TLFamily_PE        .         Photoelectric Factor          : 
TLFamily_RD        .         Resistivity - Deep            : 
TLFamily_RHOB      .         Bulk Density                  : 
TLFamily_RM        .         Resistivity - Medium          : 
TLFamily_RS        .         Resistivity - Shallow         : 
TLFamily_T2LM      .         NMR T2 Logarithmic Mean       : 
TLFamily_TVDSS     .         True Vertical Depth Sub Sea   : 
~Curve Information
#_______________________________________________________________________________
#
#LOGNAME           .UNIT     LOG_ID                        : DESCRIPTION
#_______________________________________________________________________________
DEPTH              .M                                      :  
BS                 .in                                     : BS/Bit Size 
DT                 .us/ft                                  : DT/DTC 
DWAL               .kg/kg                                  : DAL/DryrockAlWF 
DWCA               .kg/kg                                  : DCA/DryrockCaWF 
DWFE               .kg/kg                                  : DFE/DryrockFeWF 
DWGD               .ppm                                    : DGD/DryrockGdWF 
DWK                .kg/kg                                  : DK/DryrockKWF 
DWMG               .kg/kg                                  : DMG/DryrockMgWF 
DWMN               .kg/kg                                  : DMN/DryrockMnWF 
DWS                .kg/kg                                  : DSUL/DryrockSuWF 
DWSI               .kg/kg                                  : DSI/DryrockSiWF 
DWTI               .kg/kg                                  : DTI/DryrockTiWF 
GR                 .gAPI                                   : GR/Gamma API 
GRt                .gAPI                                   : GKUT/GKUT 
HCAL               .in                                     : CALI/Caliper 
HDRA               .g/cm3                                  : DRHO/DensityCorr 
HFK                .%                                      : POTA/Potassium 
HTHO               .ppm                                    : THOR/Thorium 
HURA               .ppm                                    : URAN/Uranium 
MPERM              .mD                                     : MPERMT2/MrilT2KCoat 
NMRE_Final         .m3/m3                                  : MPHIT2/TA-grp T2 Effective Por 
NMRFL_Final        .unitless                               : MFFIT2/TA-grp T2 FreeFluid Ind 
NMRT_Final         .frac                                   : MSIGT2/TA-grp T2 Total Por. 
NPHI               .frac                                   : NPHI/Neutron Porosity 
PE                 .b/e                                    : PE/Pe 
RD                 .ohm.m                                  : RT90/90in Resistivity 2ft Res 
RHOB               .g/cm3                                  : RHOB/Density 
RM                 .ohm.m                                  : RT30/30in Resistivity 2ft Res 
RS                 .ohm.m                                  : RT10/10in Resistivity 2ft Res 
T2LM               .ms                                     : T2LM/T2 Log Mean 
TVDSS              .M                                      :  
~Ascii
# ...
5233.424   12.250     55.852     0.054      0.219      0.007      0.725      0.009      0.001      0.001      0.017      0.131      0.002      38.479     52.813     12.375     -0.019     0.765      0.982      4.113      1.637      0.063      0.048      0.063      0.075      4.191      9.419      2.627      8.814      9.787      212.124    5084.272  
5233.576   12.250     56.008     0.063      0.206      0.006      0.842      0.009      0.001      0.001      0.016      0.137      0.002      48.981     58.615     12.387     -0.012     0.823      1.183      4.559      0.278      0.058      0.036      0.059      0.084      4.129      10.300     2.632      9.620      10.902     143.173    5084.413  
5233.729   12.250     56.273     0.064      0.204      0.006      0.862      0.009      0.001      0.001      0.016      0.138      0.003      59.762     64.346     12.401     -0.007     0.859      1.477      5.079      0.111      0.055      0.029      0.058      0.084      4.215      11.166     2.625      10.411     11.923     90.312     5084.554  
5233.881   12.250     56.794     0.060      0.205      0.007      0.793      0.010      0.001      0.000      0.015      0.140      0.003      59.100     69.663     12.414     -0.000     0.878      1.676      5.560      0.102      0.052      0.028      0.055      0.072      4.367      10.638     2.625      9.980      11.328     69.054     5084.695  
5234.033   12.250     57.459     0.055      0.211      0.008      0.701      0.011      0.001      0.000      0.013      0.140      0.003      54.638     75.045     12.425     0.004      0.912      1.640      6.056      0.076      0.051      0.026      0.053      0.068      4.423      9.729      2.633      9.187      10.260     70.721     5084.836  
5234.186   12.250     58.529     0.048      0.223      0.007      0.586      0.011      0.001      0.000      0.011      0.135      0.003      55.220     79.120     12.440     0.003      0.986      1.466      6.415      0.063      0.053      0.025      0.053      0.087      4.330      10.274     2.627      9.696      10.697     89.127     5084.977  
5234.338   12.250     59.582     0.045      0.227      0.006      0.549      0.011      0.001      0.000      0.010      0.135      0.002      67.444     81.989     12.453     -0.001     1.070      1.232      6.611      0.072      0.057      0.026      0.057      0.120      4.193      13.347     2.616      12.431     13.852     107.877    5085.118  
5234.491   12.250     60.389     0.039      0.215      0.005      0.470      0.010      0.014      0.001      0.009      0.137      0.002      78.502     83.906     12.456     -0.007     1.140      1.052      6.736      0.134      0.066      0.030      0.066      0.144      4.033      24.783     2.612      22.088     25.703     128.916    5085.259  
5234.643   12.250     61.729     0.034      0.200      0.003      0.409      0.009      0.030      0.001      0.008      0.136      0.002      72.479     82.457     12.447     -0.010     1.099      1.130      6.669      0.694      0.078      0.045      0.078      0.151      3.866      35.154     2.587      30.362     36.044     150.914    5085.400  
5234.795   12.250     63.315     0.032      0.184      0.001      0.400      0.007      0.039      0.001      0.008      0.144      0.002      59.016     77.964     12.439     -0.010     0.954      1.346      6.354      4.749      0.097      0.068      0.097      0.163      3.473      44.778     2.556      37.932     44.761     190.981    5085.541  
5234.948   12.250     65.158     0.035      0.182      0.001      0.438      0.007      0.031      0.001      0.010      0.156      0.002      44.770     66.481     12.445     -0.006     0.808      1.654      5.424      31.662     0.128      0.099      0.128      0.154      3.387      44.992     2.502      38.177     44.967     268.763    5085.682  
5235.100   12.250     66.692     0.047      0.180      0.002      0.614      0.008      0.013      0.001      0.016      0.169      0.003      33.751     55.450     12.454     0.001      0.660      1.960      4.520      110.048    0.149      0.123      0.150      0.123      3.679      32.863     2.459      28.719     33.004     303.906    5085.823  
5235.253   12.250     67.701     0.049      0.182      0.002      0.652      0.008      0.011      0.000      0.019      0.166      0.003      31.291     52.375     12.460     0.003      0.673      2.075      4.170      186.695    0.161      0.136      0.163      0.102      3.951      23.572     2.411      21.098     23.444     281.515    5085.963  
5235.405   12.250     68.689     0.051      0.187      0.003      0.649      0.008      0.018      0.000      0.022      0.144      0.002      34.521     58.724     12.472     0.003      0.752      2.112      4.576      148.798    0.159      0.133      0.162      0.099      4.220      16.212     2.426      14.693     15.629     263.704    5086.104  
5235.557   12.250     68.819     0.056      0.199      0.003      0.700      0.007      0.018      0.000      0.022      0.126      0.002      43.729     62.871     12.476     0.002      0.795      2.127      4.934      92.051     0.147      0.121      0.148      0.098      4.201      16.466     2.506      14.788     15.480     272.016    5086.245  
5235.710   12.250     68.009     0.058      0.210      0.002      0.733      0.006      0.019      0.000      0.021      0.111      0.002      58.821     64.913     12.484     -0.001     0.798      2.097      5.142      54.185     0.130      0.106      0.130      0.088      4.109      20.415     2.555      18.075     18.706     280.242    5086.386  
5235.862   12.250     65.898     0.059      0.234      0.000      0.759      0.004      0.008      0.000      0.019      0.102      0.002      58.890     64.332     12.474     -0.004     0.694      1.946      5.258      21.215     0.111      0.088      0.111      0.078      3.948      36.387     2.588      31.512     32.465     253.967    5086.527  
5236.015   12.250     62.635     0.057      0.240      0.000      0.765      0.002      0.003      0.000      0.020      0.106      0.002      48.823     61.982     12.434     -0.008     0.551      1.575      5.223      3.573      0.087      0.062      0.087      0.087      3.877      52.945     2.606      45.169     47.113     191.066    5086.668  
5236.167   12.250     60.298     0.056      0.239      0.000      0.781      0.001      0.000      0.000      0.022      0.112      0.002      42.141     56.059     12.434     -0.014     0.335      1.153      4.987      1.034      0.074      0.048      0.074      0.120      3.871      70.510     2.642      59.058     64.002     160.344    5086.809  
5236.319   12.250     58.885     0.055      0.239      0.001      0.805      0.001      0.001      0.000      0.024      0.109      0.002      36.909     50.725     12.436     -0.014     0.204      0.783      4.810      0.744      0.071      0.045      0.071      0.132      3.842      64.186     2.671      54.239     59.889     167.988    5086.950  
5236.472   12.250     58.620     0.052      0.237      0.002      0.764      0.002      0.009      0.000      0.026      0.101      0.002      37.818     49.425     12.454     -0.008     0.106      0.769      4.808      0.999      0.076      0.048      0.076      0.121      3.712      43.735     2.645      38.422     41.853     191.287    5087.091  
5236.624   12.250     59.696     0.050      0.235      0.003      0.733      0.002      0.014      0.000      0.026      0.096      0.001      39.353     50.411     12.490     -0.002     0.105      1.284      4.876      2.043      0.085      0.057      0.085      0.111      3.801      33.642     2.586      30.144     32.020     212.739    5087.232  
5236.777   12.250     62.249     0.049      0.237      0.005      0.708      0.003      0.018      0.000      0.023      0.089      0.001      40.039     53.619     12.529     0.001      0.138      2.094      5.060      5.421      0.098      0.069      0.098      0.113      4.118      30.202     2.528      27.193     28.159     234.302    5087.373  
