~Version
 VERS              .         2.0                           : CWLS LOG ASCII STANDARD - VERSION 2.0
 WRAP              .         NO                            : ONE LINE PER DEPTH STEP
 DLM               .         SPACE                         : DELIMITING CHARACTER(SPACE TAB OR COMMA)
~Well Information
#_______________________________________________________________________________
#
#PARAMETER_NAME    .UNIT     VALUE                         : DESCRIPTION
#_______________________________________________________________________________
STRT               .M        4938.217                      : First reference value
STOP               .M        5227.625                      : Last reference value
STEP               .M        0.152                         : Step increment
NULL               .         -9999                         : Missing value
COMP               .         PETROBRAS                     : Company
WELL               .         7-SPH-17-SPS                  : Well name
FLD                .         SAPINHOA                      : Field
LOC                .                                       : Location
CNTY               .                                       : County
STAT               .         86316027948                   : State
CTRY               .         Brasil                        : Country
SRVC               .                                       : Service Company
DATE               .                                       : Date
API                .                                       : API number
APD                .M        25                            : Elevation of Depth Reference (LMF) Above Permanent Datum
BHS                .         OPEN                          : Borehole Status (Open or Cased Hole)
BHT                .degF     144                           : Bottom Hole Temperature
BLI                .M        5222.59                       : Bottom Log Interval
BS                 .in       12.25                         : Bit Size
CBDR               .M        5017                          : Casing Bottom (Driller)
CBLO               .M        5020.6                        : Casing Bottom (Logger)
CSIZ               .in       14                            : Casing Outer Diameter
CWEI               .lbm/ft   114                           : Casing Weight
DCS                .         04/01/2015                    : Date Circulation Stopped
DFD                .lb/gal   9.6                           : Drilling Fluid Density
DFT                .         BR-MUL                        : Drilling Fluid Type
DLAB               .         06/01/2015                    : Date Logging on Bottom
EDF                .M        25                            : Elevation of Drill Floor
EGL                .M        -2131                         : Elevation of Ground Level
EKB                .M        25                            : Elevation of Kelly Bushing
EPD                .M        0                             : Elevation of Permanent Datum (PDAT) above Mean Sea Level
LMF                .         MR                            : Logging Measured From (Name of Logging Elevation Reference)
LUL                .         BRMA                          : Logging Unit Location
LUN                .         7806                          : Logging Unit Number
LONG               .         -43_09_42,450                 : Longitude
MCST               .degF     -999.25                       : Mudcake Sample Temperature
MFST               .degF     -999.25                       : Mud Filtrate Sample Temperature
MRT                .degF     144                           : Maximum Recorded Temperature
MST                .degF     -999.25                       : Mud Sample Temperature
PDAT               .         NM                            : Permanent Datum
PRODUCER-CODE      .         440                           : 
PRODUCER-NAME      .         Schlumberger                  : 
RMB                .ohm.m    -999.25                       : Resistivity of Mud at Bottom Hole Temperature
RMCS               .ohm.m    -999.25                       : Resistivity of Mud Cake Sample
RMFS               .ohm.m    -999.25                       : Resistivity of Mud Filtrate Sample
RMS                .ohm.m    -999.25                       : Resistivity of Mud Sample
RUN                .         02                            : Run Number
TCS                .h        17_30                         : Time Circulation Stopped
TDD                .M        5221                          : Total Depth (Driller)
TDL                .M        5225                          : Logger Total Depth
TLAB               .h        09_25                         : Time Logging on Bottom
TLI                .M        5020.6                        : Top Log Interval
X                  .M        684517.00000000               : 
Y                  .M        7161201.00000000              : 
~Parameter Information Block
#_______________________________________________________________________________
#
#PARAMETER_NAME    .UNIT     VALUE                         : DESCRIPTION
#_______________________________________________________________________________
SET                .         BASE                          : 
TLFamily_BS        .         Bit Size                      : 
TLFamily_DT        .         Compressional Slowness        : 
TLFamily_DWAL      .         Aluminum Weight Fraction      : 
TLFamily_DWCA      .         Calcium Weight Fraction       : 
TLFamily_DWFE      .         Iron Weight Fraction          : 
TLFamily_DWGD      .         Gadolinium Weight Fraction    : 
TLFamily_DWS       .         Sulfur Weight Fraction        : 
TLFamily_DWSI      .         Silicon Weight Fraction       : 
TLFamily_DWTI      .         Titanium Weight Fraction      : 
TLFamily_GR        .         Gamma Ray                     : 
TLFamily_GRt       .         Gamma Ray                     : 
TLFamily_HCAL      .         Caliper                       : 
TLFamily_HDRA      .         Bulk Density Correction       : 
TLFamily_HFK       .         Potassium Concentration       : 
TLFamily_HTHO      .         Thorium Concentration         : 
TLFamily_HURA      .         Uranium Concentration         : 
TLFamily_KSDR      .         NMR Permeability              : 
TLFamily_KTIM      .         NMR Permeability              : 
TLFamily_MD        .         Measured Depth                : 
TLFamily_NMRE_Final .         NMR Bound Fluid Volume Fraction: 
TLFamily_NMRFL_Final .         NMR Free Fluids               : 
TLFamily_NMRT_Final .         NMR Porosity                  : 
TLFamily_NPHI      .         Neutron Porosity              : 
TLFamily_PE        .         Photoelectric Factor          : 
TLFamily_RD        .         Resistivity - Deep            : 
TLFamily_RHOB      .         Bulk Density                  : 
TLFamily_RM        .         Resistivity - Medium          : 
TLFamily_RS        .         Resistivity - Shallow         : 
TLFamily_T2LM      .         NMR T2 Logarithmic Mean       : 
TLFamily_TVDSS     .         True Vertical Depth Sub Sea   : 
~Curve Information
#_______________________________________________________________________________
#
#LOGNAME           .UNIT     LOG_ID                        : DESCRIPTION
#_______________________________________________________________________________
DEPTH              .M                                      :  
BS                 .in                                     : Bit Size 
DT                 .us/ft                                  : Delta-T Compressional 
DWAL               .kg/kg                                  : Dry Weight Fraction Pseudo Aluminum (SpectroLith WALK2 Model) 
DWCA               .kg/kg                                  : Dry Weight Fraction Calcium (SpectroLith WALK2 Model) 
DWFE               .kg/kg                                  : Dry Weight Fraction Iron + 0.14 Aluminum (SpectroLith WALK2 Model) 
DWGD               .ppm                                    : Dry Weight Fraction Gadolinium (SpectroLith WALK2 Model) 
DWS                .kg/kg                                  : Dry Weight Fraction Sulfur (SpectroLith WALK2 Model) 
DWSI               .kg/kg                                  : Dry Weight Fraction Silicon (SpectroLith WALK2 Model) 
DWTI               .kg/kg                                  : Dry Weight Fraction Titanium (SpectroLith WALK2 Model) 
GR                 .gAPI                                   : Gamma Ray 
GRt                .gAPI                                   : HNGS Standard Gamma-Ray 
HCAL               .in                                     : HRCC Caliper Calibrated 
HDRA               .g/cm3                                  : Density Standoff Correction 
HFK                .%                                      : HNGS Formation Potassium Concentration 
HTHO               .ppm                                    : HNGS Formation Thorium Concentration 
HURA               .ppm                                    : HNGS Formation Uranium Concentration 
KSDR               .mD                                     : SDR Permeability 
KTIM               .mD                                     : Timur/Coates Permeability 
NMRE_Final         .m3/m3                                  : CMR Porosity with T2 values greater than 3 ms 
NMRFL_Final        .unitless                               : CMR Free Fluid 
NMRT_Final         .frac                                   : Total CMR Porosity 
NPHI               .frac                                   : Enhanced Thermal Neutron Porosity in Selected Lithology 
PE                 .b/e                                    : Standard Resolution Formation Photoelectric Factor 
RD                 .ohm.m                                  : Array Induction Two Foot Resistivity A90 
RHOB               .g/cm3                                  : Standard Resolution Formation Density 
RM                 .ohm.m                                  : Array Induction Two Foot Resistivity A30 
RS                 .ohm.m                                  : Array Induction Two Foot Resistivity A10 
T2LM               .ms                                     : T2 Logarithmic Mean 
TVDSS              .M                                      :  
~Ascii
# ...
5094.427   12.250     64.986     0.000      0.335      0.000      0.000      0.000      0.076      0.000      14.925     15.763     12.291     -0.003     0.148      1.147      1.164      104.588    108.239    0.137      0.119      0.140      0.170      4.397      1501.728   2.506      500.943    689.630    260.176    5069.145  
5094.580   12.250     65.473     0.000      0.324      0.000      0.000      0.000      0.089      0.000      13.654     14.753     12.290     -0.005     0.140      0.918      1.170      140.051    172.665    0.143      0.127      0.145      0.166      4.478      1949.495   2.464      687.010    955.388    281.432    5069.297  
5094.732   12.250     65.864     0.000      0.322      0.000      0.004      0.000      0.092      0.000      12.335     13.369     12.270     -0.006     0.137      0.859      1.017      162.185    230.603    0.149      0.133      0.152      0.143      4.532      1950.000   2.432      895.709    1454.994   276.234    5069.449  
5094.884   12.250     66.307     0.000      0.329      0.000      1.420      0.000      0.083      0.000      12.891     13.135     12.270     -0.006     0.135      0.835      1.006      156.154    209.280    0.151      0.135      0.158      0.180      4.618      1950.000   2.410      1079.186   1615.262   250.288    5069.602  
5095.037   12.250     66.764     0.000      0.338      0.000      1.681      0.000      0.073      0.000      12.115     13.173     12.291     -0.004     0.130      0.851      1.012      162.663    208.503    0.155      0.139      0.166      0.184      4.726      1950.000   2.404      1183.251   1829.044   232.987    5069.754  
5095.189   12.250     67.147     0.000      0.341      0.000      2.116      0.000      0.069      0.000      12.140     12.934     12.270     -0.005     0.117      0.797      1.037      165.125    206.561    0.158      0.141      0.169      0.181      4.878      1950.000   2.394      1276.711   1949.919   224.161    5069.907  
5095.342   12.250     67.149     0.001      0.342      0.001      1.989      0.000      0.067      0.000      11.857     12.738     12.291     -0.006     0.115      0.837      0.987      159.286    199.283    0.160      0.141      0.170      0.191      4.927      1950.000   2.392      1322.848   1950.000   218.704    5070.059  
5095.494   12.250     67.338     0.001      0.342      0.001      2.130      0.000      0.066      0.000      12.341     13.277     12.269     -0.005     0.107      0.904      1.050      153.916    198.132    0.163      0.143      0.173      0.179      4.796      1950.000   2.410      1307.886   1950.000   207.128    5070.211  
5095.646   12.250     67.470     0.001      0.344      0.001      1.037      0.004      0.061      0.000      12.647     13.588     12.291     -0.002     0.117      0.936      1.050      124.598    185.413    0.159      0.143      0.175      0.139      4.595      1950.000   2.436      1255.603   1950.000   183.187    5070.364  
5095.799   12.250     67.451     0.001      0.340      0.001      0.000      0.009      0.064      0.000      13.098     14.398     12.269     -0.000     0.109      1.111      1.092      103.214    171.421    0.153      0.142      0.176      0.182      4.513      1950.000   2.450      1205.760   1950.000   163.764    5070.516  
5095.951   12.250     67.310     0.001      0.341      0.001      0.001      0.007      0.064      0.000      12.786     14.031     12.270     -0.003     0.110      1.191      1.023      94.045     162.575    0.152      0.142      0.178      0.221      4.614      1950.000   2.437      1182.746   1950.000   153.658    5070.669  
5096.104   12.250     67.588     0.003      0.340      0.002      0.228      0.000      0.065      0.000      12.260     14.558     12.280     -0.004     0.128      1.082      1.114      100.389    171.728    0.152      0.142      0.176      0.166      4.677      1950.000   2.431      1182.597   1950.000   162.760    5070.821  
5096.256   12.250     67.637     0.002      0.343      0.001      1.677      0.000      0.064      0.000      12.513     14.496     12.269     -0.004     0.139      1.167      1.054      132.473    228.937    0.151      0.139      0.163      0.190      4.681      1950.000   2.429      1179.101   1950.000   216.663    5070.973  
5096.408   12.250     67.532     0.000      0.338      0.000      1.094      0.000      0.072      0.000      14.026     15.312     12.290     -0.002     0.131      1.170      1.150      197.936    227.872    0.151      0.137      0.154      0.203      4.614      1950.000   2.434      1149.010   1950.000   297.772    5071.126  
5096.561   12.250     67.018     0.000      0.326      0.000      0.001      0.000      0.087      0.000      14.230     15.366     12.269     -0.001     0.119      1.046      1.227      190.701    180.266    0.146      0.132      0.146      0.190      4.516      1950.000   2.440      1096.275   1950.000   323.947    5071.278  
5096.713   12.250     66.820     0.000      0.314      0.000      0.000      0.000      0.101      0.000      14.285     15.359     12.269     -0.002     0.132      1.051      1.173      147.409    131.758    0.139      0.124      0.139      0.159      4.456      1950.000   2.440      1049.373   1935.341   314.480    5071.431  
5096.866   12.250     66.542     0.000      0.311      0.000      0.000      0.000      0.104      0.000      13.981     15.128     12.280     -0.002     0.147      0.989      1.150      106.458    96.347     0.132      0.115      0.132      0.158      4.408      1923.210   2.447      1031.264   1790.521   294.963    5071.583  
5097.018   12.250     65.568     0.002      0.310      0.001      0.000      0.004      0.101      0.000      14.735     16.053     12.269     -0.003     0.161      1.014      1.213      78.683     71.298     0.126      0.107      0.126      0.153      4.458      1879.178   2.455      1008.752   1673.956   278.749    5071.735  
5097.170   12.250     64.884     0.001      0.316      0.001      0.000      0.005      0.093      0.000      14.499     16.673     12.270     -0.003     0.165      1.181      1.211      57.725     43.937     0.120      0.099      0.120      0.137      4.509      1818.787   2.475      1047.042   1865.683   265.692    5071.888  
5097.323   12.250     64.392     0.000      0.321      0.000      0.000      0.004      0.091      0.000      14.871     17.135     12.290     -0.001     0.166      1.179      1.255      60.268     36.895     0.120      0.097      0.120      0.138      4.541      1665.561   2.501      996.900    1947.936   268.340    5072.040  
5097.475   12.250     64.188     0.000      0.329      0.000      0.000      0.000      0.084      0.000      14.521     17.127     12.290     0.003      0.195      1.151      1.220      68.337     33.830     0.123      0.098      0.123      0.128      4.553      1247.255   2.526      916.572    1125.205   273.435    5072.193  
5097.628   12.250     63.732     0.001      0.330      0.000      0.000      0.000      0.082      0.000      15.464     16.943     12.280     0.005      0.183      1.022      1.271      71.667     34.573     0.125      0.100      0.128      0.137      4.489      701.374    2.540      502.563    570.202    260.661    5072.345  
5097.780   12.250     63.520     0.002      0.333      0.001      0.001      0.000      0.075      0.000      15.768     17.370     12.290     0.004      0.186      1.087      1.263      66.085     51.024     0.127      0.109      0.139      0.155      4.471      409.267    2.533      324.541    370.691    210.243    5072.497  
5097.932   12.250     63.414     0.002      0.331      0.001      0.254      0.000      0.077      0.000      16.920     17.003     12.291     0.002      0.184      0.997      1.247      79.172     99.059     0.133      0.121      0.148      0.174      4.481      373.178    2.522      251.222    291.072    204.027    5072.650  
5098.085   12.250     63.753     0.003      0.334      0.002      3.126      0.000      0.072      0.000      15.916     18.166     12.269     0.003      0.208      1.083      1.310      99.091     168.464    0.140      0.131      0.155      0.168      4.530      399.590    2.517      251.267    282.976    208.387    5072.802  
