~Version
 VERS              .         2.0                           : CWLS LOG ASCII STANDARD - VERSION 2.0
 WRAP              .         NO                            : ONE LINE PER DEPTH STEP
 DLM               .         SPACE                         : DELIMITING CHARACTER(SPACE TAB OR COMMA)
~Well Information
#_______________________________________________________________________________
#
#PARAMETER_NAME    .UNIT     VALUE                         : DESCRIPTION
#_______________________________________________________________________________
STRT               .M        5082.700                      : First reference value
STOP               .M        5352.753                      : Last reference value
STEP               .M        0.152                         : Step increment
NULL               .         -9999                         : Missing value
COMP               .         PETROBRAS                     : Company
WELL               .         7-SPH-16D-SPS                 : Well name
FLD                .         SAPINHOA                      : Field
LOC                .                                       : Location
CNTY               .                                       : County
STAT               .         SP                            : State
CTRY               .                                       : Country
SRVC               .                                       : Service Company
DATE               .                                       : Date
API                .                                       : API number
APD                .M        24.0                          : ABOVE PERMANENT DATUM
BHT                .degF     144.0                         : BOTTOMHOLE TEMPERATURE
BLI                .M        5312.4                        : BOTTOM LOGGED INTERVAL
BS                 .in       12.25                         : BIT SIZE
DCS                .         04/09/2014                    : DATE CIRCULATION STOPPED
DFD                .lb/gal   9.5                           : DRILLING FLUID DENSITY
DFT                .         BR-MUL                        : DRILLING FLUID TYPE
DLAB               .         05/09/2014                    : DATE LOGGING ON BOTTOM
EDF                .M        24.0                          : ELEVATION OF DRILLING FLOOR
EGL                .M        -2125.0                       : ELEVATION OF GROUND LEVEL
EKB                .M        -999.25                       : ELEVATION OF KELLY BUSHING
EPD                .M        0.0                           : ELEVATATION OF PERMANENT DATUM
LMF                .         MR                            : LOG MEASURED FROM
LUL                .         MCE                           : LOGGING UNIT LOCATION
LUN                .         11202303                      : LOGGING UNIT NUMBER
LONG               .         -43_10_06.229                 : LONGITUDE
MCST               .degF     -999.25                       : MUDCAKE SAMPLE TEMPERATURE
MFST               .degF     -999.25                       : MUD FILTRATE SAMPLE TEMPERATURE
MRT                .degF     144.0                         : MAXIMUM RECORDED TEMPERATURE
MST                .degF     -999.25                       : MUD SAMPLE TEMPERATURE
PDAT               .         NM                            : PERMANENT DATUM
PRODUCER-CODE      .         280                           : 
PRODUCER-NAME      .         Halliburton                   : 
RMB                .ohm.m    -999.25                       : RESISTIVITY OF MUD - BHT
RMCS               .ohm.m    -999.25                       : RESISTIVITY OF MUDCAKE SAMPLE
RMFS               .ohm.m    -999.25                       : RESISTIVITY OF MUD FILTRATE SAMPLE
RMS                .ohm.m    -999.25                       : RESISTIVITY OF MUD SAMPLE
RUN                .         01                            : RUN NUMBER 1
TCS                .h        05_30                         : TIME CIRCULATION STOPPED
TDD                .M        5343.0                        : DRILLERS DEPTH
TDL                .M        5345.0                        : LOGGERS DEPTH
TLAB               .h        16_45                         : TIME LOGGING ON BOTTOM
TLI                .M        5135.0                        : TOP LOGGED INTERVAL
X                  .M        683789.99900000               : X UTM Coordinate
Y                  .M        7152001.99900000              : Y UTM Coordinate
~Parameter Information Block
#_______________________________________________________________________________
#
#PARAMETER_NAME    .UNIT     VALUE                         : DESCRIPTION
#_______________________________________________________________________________
SET                .         BASE                          : 
TLFamily_BS        .         Bit Size                      : 
TLFamily_DT        .         Compressional Slowness        : 
TLFamily_DWAL      .         Aluminum Weight Fraction      : 
TLFamily_DWCA      .         Calcium Weight Fraction       : 
TLFamily_DWFE      .         Iron Weight Fraction          : 
TLFamily_DWGD      .         Gadolinium Weight Fraction    : 
TLFamily_DWK       .         Potassium Weight Fraction     : 
TLFamily_DWMG      .         Magnesium Weight Fraction     : 
TLFamily_DWMN      .         Manganese Weight Fraction     : 
TLFamily_DWS       .         Sulfur Weight Fraction        : 
TLFamily_DWSI      .         Silicon Weight Fraction       : 
TLFamily_DWTI      .         Titanium Weight Fraction      : 
TLFamily_GR        .         Gamma Ray                     : 
TLFamily_GRt       .         Gamma Ray                     : 
TLFamily_HCAL      .         Caliper                       : 
TLFamily_HDRA      .         Bulk Density Correction       : 
TLFamily_HFK       .         Potassium Concentration       : 
TLFamily_HTHO      .         Thorium Concentration         : 
TLFamily_HURA      .         Uranium Concentration         : 
TLFamily_MD        .         Measured Depth                : 
TLFamily_MPERM     .         NMR Permeability              : 
TLFamily_NMRE_Final .         NMR Bound Fluid Volume Fraction: 
TLFamily_NMRFL_Final .         NMR Free Fluids               : 
TLFamily_NMRT_Final .         NMR Porosity                  : 
TLFamily_NPHI      .         Neutron Porosity              : 
TLFamily_PE        .         Photoelectric Factor          : 
TLFamily_RD        .         Resistivity - Deep            : 
TLFamily_RHOB      .         Bulk Density                  : 
TLFamily_RM        .         Resistivity - Medium          : 
TLFamily_RS        .         Resistivity - Shallow         : 
TLFamily_T2LM      .         NMR T2 Logarithmic Mean       : 
TLFamily_TVDSS     .         True Vertical Depth Sub Sea   : 
~Curve Information
#_______________________________________________________________________________
#
#LOGNAME           .UNIT     LOG_ID                        : DESCRIPTION
#_______________________________________________________________________________
DEPTH              .M                                      :  
BS                 .in                                     : BS/Bit Size 
DT                 .us/ft                                  : DT/DTC 
DWAL               .kg/kg                                  : DAL/DryrockAlWF 
DWCA               .kg/kg                                  : DCA/DryrockCaWF 
DWFE               .kg/kg                                  : DFE/DryrockFeWF 
DWGD               .ppm                                    : DGD/DryrockGdWF 
DWK                .kg/kg                                  : DK/DryrockKWF 
DWMG               .kg/kg                                  : DMG/DryrockMgWF 
DWMN               .kg/kg                                  : DMN/DryrockMnWF 
DWS                .kg/kg                                  : DSUL/DryrockSuWF 
DWSI               .kg/kg                                  : DSI/DryrockSiWF 
DWTI               .kg/kg                                  : DTI/DryrockTiWF 
GR                 .gAPI                                   : GR/Gamma API 
GRt                .gAPI                                   : GKUT/GKUT 
HCAL               .in                                     : CALI/Caliper 
HDRA               .g/cm3                                  : DRHO/DensityCorr 
HFK                .%                                      : POTA/Potassium 
HTHO               .ppm                                    : THOR/Thorium 
HURA               .ppm                                    : URAN/Uranium 
MPERM              .mD                                     : MPERMT2/MrilT2KCoat 
NMRE_Final         .m3/m3                                  : MPHIT2/TA-grp T2 Effective Por 
NMRFL_Final        .unitless                               : MFFIT2/TA-grp T2 FreeFluid Ind 
NMRT_Final         .frac                                   : MSIGT2/TA-grp T2 Total Por. 
NPHI               .frac                                   : NPHI/Neutron Porosity 
PE                 .b/e                                    : PE/Pe 
RD                 .ohm.m                                  : RT90/90in Resistivity 2ft Res 
RHOB               .g/cm3                                  : RHOB/Density 
RM                 .ohm.m                                  : RT30/30in Resistivity 2ft Res 
RS                 .ohm.m                                  : RT10/10in Resistivity 2ft Res 
T2LM               .ms                                     : T2LM/T2 Log Mean 
TVDSS              .M                                      :  
~Ascii
# ...
5219.403   12.250     57.009     0.024      0.234      0.004      0.332      0.002      0.031      0.000      0.009      0.107      0.002      14.295     21.476     12.321     -0.016     0.242      1.820      1.431      3.018      0.087      0.062      0.094      0.080      3.550      80.303     2.595      82.969     95.861     197.792    5071.311  
5219.555   12.250     56.987     0.030      0.233      0.003      0.430      0.002      0.032      0.000      0.011      0.100      0.002      15.842     21.465     12.322     -0.015     0.226      1.876      1.337      2.137      0.089      0.058      0.092      0.078      3.555      80.533     2.608      83.400     96.668     199.324    5071.451  
5219.708   12.250     57.230     0.037      0.230      0.001      0.520      0.002      0.033      0.000      0.012      0.096      0.002      17.934     21.647     12.325     -0.013     0.205      1.915      1.231      2.701      0.089      0.060      0.089      0.075      3.639      89.724     2.616      93.550     110.020    218.377    5071.592  
5219.860   12.250     57.643     0.038      0.225      0.000      0.543      0.002      0.030      0.000      0.012      0.104      0.002      20.776     21.875     12.324     -0.011     0.190      1.998      1.171      4.103      0.085      0.063      0.086      0.072      3.678      100.179    2.621      105.060    125.601    229.377    5071.733  
5220.013   12.250     58.094     0.042      0.224      0.000      0.603      0.002      0.020      0.000      0.013      0.117      0.002      21.610     22.145     12.318     -0.009     0.176      1.976      1.217      3.582      0.083      0.061      0.083      0.064      3.729      111.958    2.620      118.088    144.137    207.907    5071.874  
5220.165   12.250     58.103     0.041      0.205      0.000      0.590      0.002      0.033      0.000      0.013      0.120      0.002      20.874     22.611     12.315     -0.005     0.173      1.865      1.368      1.856      0.081      0.055      0.084      0.056      3.674      122.432    2.623      129.576    161.874    165.607    5072.015  
5220.317   12.250     57.625     0.038      0.196      0.000      0.551      0.002      0.042      0.000      0.011      0.119      0.002      19.673     23.516     12.313     -0.004     0.168      1.712      1.602      0.775      0.078      0.047      0.085      0.060      3.506      120.349    2.628      126.959    158.514    134.302    5072.156  
5220.470   12.250     57.235     0.036      0.198      0.000      0.511      0.002      0.046      0.000      0.010      0.115      0.002      19.914     24.718     12.319     -0.002     0.159      1.637      1.896      0.512      0.073      0.042      0.082      0.069      3.489      110.558    2.621      115.677    141.902    132.328    5072.296  
5220.622   12.250     56.895     0.036      0.213      0.000      0.517      0.002      0.039      0.000      0.010      0.108      0.002      22.083     26.309     12.328     -0.000     0.132      1.826      2.179      0.596      0.069      0.043      0.075      0.080      3.761      110.251    2.608      114.996    140.714    163.389    5072.437  
5220.775   12.250     57.034     0.036      0.239      0.000      0.518      0.002      0.033      0.000      0.011      0.086      0.002      22.654     27.209     12.335     -0.000     0.100      2.148      2.310      0.935      0.069      0.047      0.071      0.088      4.118      123.045    2.599      128.426    160.605    211.885    5072.578  
5220.927   12.250     57.333     0.034      0.265      0.000      0.479      0.002      0.024      0.000      0.012      0.074      0.002      20.242     26.902     12.342     -0.002     0.072      2.349      2.259      1.638      0.070      0.051      0.073      0.087      4.178      138.561    2.602      144.878    186.986    209.461    5072.719  
5221.079   12.250     58.051     0.026      0.297      0.000      0.356      0.001      0.009      0.000      0.013      0.069      0.001      18.034     25.979     12.348     -0.005     0.075      2.283      2.073      2.603      0.072      0.058      0.081      0.088      4.107      153.554    2.608      160.570    214.737    152.366    5072.860  
5221.232   12.250     58.932     0.023      0.310      0.001      0.310      0.001      0.000      0.000      0.014      0.070      0.001      17.416     24.340     12.351     -0.009     0.097      1.837      1.827      3.193      0.081      0.062      0.091      0.089      4.076      155.400    2.597      162.105    219.032    149.513    5073.001  
5221.384   12.250     59.424     0.020      0.310      0.001      0.281      0.001      0.000      0.000      0.017      0.072      0.001      16.684     23.105     12.354     -0.018     0.121      1.410      1.670      4.822      0.093      0.068      0.097      0.087      4.134      144.673    2.577      149.885    200.127    197.479    5073.141  
5221.537   12.250     59.264     0.014      0.329      0.001      0.197      0.001      0.000      0.001      0.015      0.057      0.001      14.895     22.274     12.355     -0.023     0.147      1.306      1.586      7.846      0.097      0.074      0.101      0.094      4.199      132.750    2.574      136.787    178.976    198.991    5073.282  
5221.689   12.250     58.983     0.013      0.335      0.001      0.181      0.001      0.000      0.001      0.016      0.052      0.001      13.687     21.096     12.357     -0.024     0.163      1.365      1.522      15.023     0.095      0.081      0.104      0.092      4.236      122.525    2.573      125.528    160.135    172.037    5073.423  
5221.841   12.250     58.347     0.009      0.336      0.000      0.120      0.001      0.000      0.001      0.017      0.055      0.000      12.402     19.961     12.353     -0.023     0.172      1.474      1.370      21.159     0.095      0.083      0.102      0.083      4.220      123.436    2.572      126.172    159.723    198.735    5073.564  
5221.994   12.250     57.848     0.016      0.323      0.000      0.228      0.001      0.002      0.001      0.019      0.057      0.001      11.925     18.217     12.361     -0.021     0.167      1.543      1.106      22.756     0.096      0.081      0.098      0.069      4.309      139.309    2.565      142.225    181.479    239.828    5073.705  
5222.146   12.250     57.748     0.017      0.315      0.000      0.229      0.002      0.011      0.001      0.018      0.053      0.001      11.510     16.807     12.361     -0.016     0.135      1.607      0.935      20.894     0.094      0.079      0.095      0.063      4.490      157.786    2.551      161.136    208.642    223.291    5073.846  
5222.299   12.250     58.040     0.024      0.307      0.000      0.341      0.002      0.017      0.001      0.015      0.045      0.001      11.381     15.420     12.358     -0.005     0.101      1.700      0.773      20.205     0.090      0.078      0.092      0.066      4.739      183.510    2.557      187.693    242.162    200.197    5073.986  
5222.451   12.250     57.979     0.025      0.303      0.000      0.359      0.002      0.021      0.001      0.013      0.044      0.001      11.356     14.976     12.362     -0.004     0.054      1.830      0.759      19.806     0.086      0.075      0.088      0.072      4.807      196.736    2.581      201.642    254.311    212.421    5074.127  
5222.603   12.250     57.635     0.028      0.292      0.000      0.404      0.002      0.029      0.001      0.011      0.040      0.000      11.379     14.866     12.375     -0.005     0.035      1.930      0.748      16.402     0.084      0.072      0.084      0.076      4.790      205.146    2.585      211.180    264.630    238.185    5074.268  
5222.756   12.250     57.070     0.031      0.293      0.001      0.443      0.001      0.028      0.001      0.012      0.038      0.000      11.507     15.344     12.372     -0.005     0.065      1.874      0.696      6.740      0.079      0.065      0.081      0.079      4.675      193.852    2.579      199.937    255.692    207.811    5074.409  
