~Version
 VERS              .         2.0                           : CWLS LOG ASCII STANDARD - VERSION 2.0
 WRAP              .         NO                            : ONE LINE PER DEPTH STEP
 DLM               .         SPACE                         : DELIMITING CHARACTER(SPACE TAB OR COMMA)
~Well Information
#_______________________________________________________________________________
#
#PARAMETER_NAME    .UNIT     VALUE                         : DESCRIPTION
#_______________________________________________________________________________
STRT               .M        5082.700                      : First reference value
STOP               .M        5352.753                      : Last reference value
STEP               .M        0.152                         : Step increment
NULL               .         -9999                         : Missing value
COMP               .         PETROBRAS                     : Company
WELL               .         7-SPH-16D-SPS                 : Well name
FLD                .         SAPINHOA                      : Field
LOC                .                                       : Location
CNTY               .                                       : County
STAT               .         SP                            : State
CTRY               .                                       : Country
SRVC               .                                       : Service Company
DATE               .                                       : Date
API                .                                       : API number
APD                .M        24.0                          : ABOVE PERMANENT DATUM
BHT                .degF     144.0                         : BOTTOMHOLE TEMPERATURE
BLI                .M        5312.4                        : BOTTOM LOGGED INTERVAL
BS                 .in       12.25                         : BIT SIZE
DCS                .         04/09/2014                    : DATE CIRCULATION STOPPED
DFD                .lb/gal   9.5                           : DRILLING FLUID DENSITY
DFT                .         BR-MUL                        : DRILLING FLUID TYPE
DLAB               .         05/09/2014                    : DATE LOGGING ON BOTTOM
EDF                .M        24.0                          : ELEVATION OF DRILLING FLOOR
EGL                .M        -2125.0                       : ELEVATION OF GROUND LEVEL
EKB                .M        -999.25                       : ELEVATION OF KELLY BUSHING
EPD                .M        0.0                           : ELEVATATION OF PERMANENT DATUM
LMF                .         MR                            : LOG MEASURED FROM
LUL                .         MCE                           : LOGGING UNIT LOCATION
LUN                .         11202303                      : LOGGING UNIT NUMBER
LONG               .         -43_10_06.229                 : LONGITUDE
MCST               .degF     -999.25                       : MUDCAKE SAMPLE TEMPERATURE
MFST               .degF     -999.25                       : MUD FILTRATE SAMPLE TEMPERATURE
MRT                .degF     144.0                         : MAXIMUM RECORDED TEMPERATURE
MST                .degF     -999.25                       : MUD SAMPLE TEMPERATURE
PDAT               .         NM                            : PERMANENT DATUM
PRODUCER-CODE      .         280                           : 
PRODUCER-NAME      .         Halliburton                   : 
RMB                .ohm.m    -999.25                       : RESISTIVITY OF MUD - BHT
RMCS               .ohm.m    -999.25                       : RESISTIVITY OF MUDCAKE SAMPLE
RMFS               .ohm.m    -999.25                       : RESISTIVITY OF MUD FILTRATE SAMPLE
RMS                .ohm.m    -999.25                       : RESISTIVITY OF MUD SAMPLE
RUN                .         01                            : RUN NUMBER 1
TCS                .h        05_30                         : TIME CIRCULATION STOPPED
TDD                .M        5343.0                        : DRILLERS DEPTH
TDL                .M        5345.0                        : LOGGERS DEPTH
TLAB               .h        16_45                         : TIME LOGGING ON BOTTOM
TLI                .M        5135.0                        : TOP LOGGED INTERVAL
X                  .M        683789.99900000               : X UTM Coordinate
Y                  .M        7152001.99900000              : Y UTM Coordinate
~Parameter Information Block
#_______________________________________________________________________________
#
#PARAMETER_NAME    .UNIT     VALUE                         : DESCRIPTION
#_______________________________________________________________________________
SET                .         BASE                          : 
TLFamily_BS        .         Bit Size                      : 
TLFamily_DT        .         Compressional Slowness        : 
TLFamily_DWAL      .         Aluminum Weight Fraction      : 
TLFamily_DWCA      .         Calcium Weight Fraction       : 
TLFamily_DWFE      .         Iron Weight Fraction          : 
TLFamily_DWGD      .         Gadolinium Weight Fraction    : 
TLFamily_DWK       .         Potassium Weight Fraction     : 
TLFamily_DWMG      .         Magnesium Weight Fraction     : 
TLFamily_DWMN      .         Manganese Weight Fraction     : 
TLFamily_DWS       .         Sulfur Weight Fraction        : 
TLFamily_DWSI      .         Silicon Weight Fraction       : 
TLFamily_DWTI      .         Titanium Weight Fraction      : 
TLFamily_GR        .         Gamma Ray                     : 
TLFamily_GRt       .         Gamma Ray                     : 
TLFamily_HCAL      .         Caliper                       : 
TLFamily_HDRA      .         Bulk Density Correction       : 
TLFamily_HFK       .         Potassium Concentration       : 
TLFamily_HTHO      .         Thorium Concentration         : 
TLFamily_HURA      .         Uranium Concentration         : 
TLFamily_MD        .         Measured Depth                : 
TLFamily_MPERM     .         NMR Permeability              : 
TLFamily_NMRE_Final .         NMR Bound Fluid Volume Fraction: 
TLFamily_NMRFL_Final .         NMR Free Fluids               : 
TLFamily_NMRT_Final .         NMR Porosity                  : 
TLFamily_NPHI      .         Neutron Porosity              : 
TLFamily_PE        .         Photoelectric Factor          : 
TLFamily_RD        .         Resistivity - Deep            : 
TLFamily_RHOB      .         Bulk Density                  : 
TLFamily_RM        .         Resistivity - Medium          : 
TLFamily_RS        .         Resistivity - Shallow         : 
TLFamily_T2LM      .         NMR T2 Logarithmic Mean       : 
TLFamily_TVDSS     .         True Vertical Depth Sub Sea   : 
~Curve Information
#_______________________________________________________________________________
#
#LOGNAME           .UNIT     LOG_ID                        : DESCRIPTION
#_______________________________________________________________________________
DEPTH              .M                                      :  
BS                 .in                                     : BS/Bit Size 
DT                 .us/ft                                  : DT/DTC 
DWAL               .kg/kg                                  : DAL/DryrockAlWF 
DWCA               .kg/kg                                  : DCA/DryrockCaWF 
DWFE               .kg/kg                                  : DFE/DryrockFeWF 
DWGD               .ppm                                    : DGD/DryrockGdWF 
DWK                .kg/kg                                  : DK/DryrockKWF 
DWMG               .kg/kg                                  : DMG/DryrockMgWF 
DWMN               .kg/kg                                  : DMN/DryrockMnWF 
DWS                .kg/kg                                  : DSUL/DryrockSuWF 
DWSI               .kg/kg                                  : DSI/DryrockSiWF 
DWTI               .kg/kg                                  : DTI/DryrockTiWF 
GR                 .gAPI                                   : GR/Gamma API 
GRt                .gAPI                                   : GKUT/GKUT 
HCAL               .in                                     : CALI/Caliper 
HDRA               .g/cm3                                  : DRHO/DensityCorr 
HFK                .%                                      : POTA/Potassium 
HTHO               .ppm                                    : THOR/Thorium 
HURA               .ppm                                    : URAN/Uranium 
MPERM              .mD                                     : MPERMT2/MrilT2KCoat 
NMRE_Final         .m3/m3                                  : MPHIT2/TA-grp T2 Effective Por 
NMRFL_Final        .unitless                               : MFFIT2/TA-grp T2 FreeFluid Ind 
NMRT_Final         .frac                                   : MSIGT2/TA-grp T2 Total Por. 
NPHI               .frac                                   : NPHI/Neutron Porosity 
PE                 .b/e                                    : PE/Pe 
RD                 .ohm.m                                  : RT90/90in Resistivity 2ft Res 
RHOB               .g/cm3                                  : RHOB/Density 
RM                 .ohm.m                                  : RT30/30in Resistivity 2ft Res 
RS                 .ohm.m                                  : RT10/10in Resistivity 2ft Res 
T2LM               .ms                                     : T2LM/T2 Log Mean 
TVDSS              .M                                      :  
~Ascii
# ...
5131.773   12.250     50.767     0.058      0.132      0.190      0.853      0.002      0.025      0.001      0.099      0.012      0.003      6.655      9.162      12.420     -1.249     0.166      0.976      0.228      -9999.000  -9999.000  -9999.000  -9999.000  0.039      9.089      49.545     2.417      0.705      0.081      -9999.000  4990.499  
5131.925   12.250     51.485     0.060      0.124      0.182      0.829      0.002      0.030      0.001      0.095      0.019      0.003      6.493      9.075      12.432     -1.251     0.163      1.032      0.266      -9999.000  -9999.000  -9999.000  -9999.000  0.038      8.852      354.559    2.434      0.713      0.082      -9999.000  4990.640  
5132.078   12.250     51.742     0.058      0.119      0.181      0.809      0.002      0.027      0.001      0.089      0.035      0.003      6.402      9.012      12.426     -1.246     0.166      0.947      0.287      -9999.000  -9999.000  -9999.000  -9999.000  0.044      8.771      1662.639   2.445      0.735      0.085      -9999.000  4990.780  
5132.230   12.250     51.615     0.061      0.119      0.182      0.888      0.002      0.025      0.001      0.088      0.037      0.003      6.826      9.143      12.419     -1.244     0.197      0.904      0.311      -9999.000  -9999.000  -9999.000  -9999.000  0.043      9.032      1896.740   2.447      0.771      0.089      -9999.000  4990.921  
5132.383   12.250     51.282     0.070      0.125      0.189      1.069      0.002      0.013      0.001      0.094      0.029      0.003      7.462      9.528      12.390     -1.249     0.214      0.946      0.381      -9999.000  -9999.000  -9999.000  -9999.000  0.039      9.321      2000.000   2.444      0.832      0.095      -9999.000  4991.061  
5132.535   12.250     50.839     0.079      0.130      0.189      1.209      0.002      0.009      0.001      0.098      0.017      0.003      7.647      9.753      12.400     -1.250     0.215      1.013      0.427      -9999.000  -9999.000  -9999.000  -9999.000  0.037      9.367      2000.000   2.432      0.870      0.097      -9999.000  4991.202  
5132.687   12.250     50.837     0.084      0.136      0.193      1.290      0.002      0.001      0.001      0.098      0.014      0.003      7.341      9.898      12.422     -1.255     0.208      1.021      0.470      -9999.000  -9999.000  -9999.000  -9999.000  0.039      9.333      2000.000   2.428      0.881      0.096      -9999.000  4991.342  
5132.840   12.250     50.743     0.085      0.137      0.196      1.304      0.002      0.000      0.001      0.095      0.014      0.002      7.278      9.978      12.420     -1.261     0.516      0.975      0.464      -9999.000  -9999.000  -9999.000  -9999.000  0.045      9.220      2000.000   2.420      0.837      0.090      -9999.000  4991.483  
5132.992   12.250     50.884     0.087      0.134      0.200      1.329      0.002      0.000      0.001      0.094      0.014      0.002      7.570      10.007     12.430     -1.270     1.662      0.885      0.438      -9999.000  -9999.000  -9999.000  -9999.000  0.050      9.199      2000.000   2.391      0.732      0.078      -9999.000  4991.623  
5133.145   12.250     50.794     0.089      0.129      0.200      1.364      0.002      0.000      0.001      0.092      0.016      0.002      7.518      10.241     12.424     -1.282     5.331      0.772      0.475      -9999.000  -9999.000  -9999.000  -9999.000  0.056      9.503      1975.533   2.367      0.609      0.066      -9999.000  4991.764  
5133.297   12.250     50.416     0.083      0.119      0.197      1.212      0.007      0.007      0.001      0.085      0.028      0.003      7.653      10.609     12.381     -1.304     8.763      0.772      0.542      -9999.000  -9999.000  -9999.000  -9999.000  0.056      9.717      1901.609   2.346      0.452      0.368      -9999.000  4991.904  
5133.449   12.250     49.272     0.067      0.116      0.203      0.849      0.017      0.011      0.000      0.080      0.038      0.003      7.897      26.884     12.388     -1.304     13.658     0.741      1.682      -9999.000  -9999.000  -9999.000  -9999.000  0.055      9.501      1877.445   2.317      0.430      0.108      -9999.000  4992.045  
5133.602   12.250     48.352     0.032      0.108      0.225      0.250      0.054      0.025      0.000      0.068      0.043      0.005      10.837     75.152     12.377     -1.298     15.150     0.705      4.643      -9999.000  -9999.000  -9999.000  -9999.000  0.057      9.410      1853.048   2.288      0.417      0.072      -9999.000  4992.185  
5133.754   12.250     47.960     0.016      0.093      0.241      0.101      0.086      0.042      0.000      0.055      0.034      0.007      23.335     280.414    12.369     -1.311     13.754     0.795      20.283     -9999.000  -9999.000  -9999.000  -9999.000  0.057      9.326      1762.290   2.262      0.409      0.063      -9999.000  4992.325  
5133.907   12.250     47.990     0.002      0.043      0.267      0.050      0.135      0.088      0.000      0.025      0.013      0.011      256.882    459.950    12.382     -1.326     10.391     1.405      33.272     -9999.000  -9999.000  -9999.000  -9999.000  0.056      8.514      81.207     2.242      0.417      0.088      -9999.000  4992.466  
5134.059   12.250     48.577     0.001      0.020      0.282      0.015      0.150      0.105      0.000      0.012      0.003      0.012      582.482    719.668    12.377     -1.305     5.717      2.557      52.642     -9999.000  -9999.000  -9999.000  -9999.000  0.056      7.987      17.648     2.275      0.434      0.205      -9999.000  4992.606  
5134.211   12.250     49.718     0.005      0.015      0.305      0.075      0.147      0.096      0.000      0.012      0.002      0.013      724.647    771.962    12.386     -1.318     2.345      4.062      56.657     -9999.000  -9999.000  -9999.000  -9999.000  0.058      7.496      7.878      2.367      0.499      0.063      -9999.000  4992.747  
5134.364   12.250     51.042     0.031      0.037      0.308      0.170      0.114      0.061      0.000      0.030      0.002      0.014      336.387    635.525    12.396     -1.378     0.474      5.642      46.352     -9999.000  -9999.000  -9999.000  -9999.000  0.061      6.830      10.943     2.460      1.100      0.147      -9999.000  4992.887  
5134.516   12.250     52.540     0.053      0.068      0.266      0.350      0.079      0.040      0.000      0.055      0.004      0.012      89.068     386.565    12.506     -1.133     0.034      6.132      28.242     -9999.000  -9999.000  -9999.000  -9999.000  0.066      7.325      22.618     2.483      2.334      0.317      -9999.000  4993.028  
5134.669   12.250     54.138     0.074      0.124      0.171      0.748      0.034      0.023      0.000      0.099      0.008      0.008      8.787      124.484    12.806     -0.417     0.057      5.615      8.813      -9999.000  -9999.000  -9999.000  -9999.000  0.074      8.866      41.999     2.503      7.550      2.121      -9999.000  4993.168  
5134.821   12.250     56.104     0.083      0.162      0.106      1.124      0.014      0.011      0.001      0.130      0.012      0.005      7.186      29.160     13.838     -0.032     0.092      4.308      2.206      -9999.000  -9999.000  -9999.000  -9999.000  0.072      8.939      476.154    2.559      136.330    62.046     -9999.000  4993.309  
5134.973   12.250     57.203     0.091      0.198      0.044      1.402      0.002      0.000      0.001      0.159      0.015      0.002      7.615      6.656      15.062     0.204      0.117      2.339      0.635      -9999.000  -9999.000  -9999.000  -9999.000  0.069      8.308      2000.000   2.460      2000.000   1650.551   -9999.000  4993.449  
5135.126   12.250     56.992     0.089      0.212      0.018      1.373      0.001      0.000      0.001      0.170      0.014      0.002      7.823      6.251      15.333     0.260      0.126      0.921      0.563      -9999.000  -9999.000  -9999.000  -9999.000  0.070      7.983      1619.598   2.371      998.472    427.255    -9999.000  4993.590  
