~Version
 VERS              .         2.0                           : CWLS LOG ASCII STANDARD - VERSION 2.0
 WRAP              .         NO                            : ONE LINE PER DEPTH STEP
 DLM               .         SPACE                         : DELIMITING CHARACTER(SPACE TAB OR COMMA)
~Well Information
#_______________________________________________________________________________
#
#PARAMETER_NAME    .UNIT     VALUE                         : DESCRIPTION
#_______________________________________________________________________________
STRT               .M        5082.700                      : First reference value
STOP               .M        5352.753                      : Last reference value
STEP               .M        0.152                         : Step increment
NULL               .         -9999                         : Missing value
COMP               .         PETROBRAS                     : Company
WELL               .         7-SPH-16D-SPS                 : Well name
FLD                .         SAPINHOA                      : Field
LOC                .                                       : Location
CNTY               .                                       : County
STAT               .         SP                            : State
CTRY               .                                       : Country
SRVC               .                                       : Service Company
DATE               .                                       : Date
API                .                                       : API number
APD                .M        24.0                          : ABOVE PERMANENT DATUM
BHT                .degF     144.0                         : BOTTOMHOLE TEMPERATURE
BLI                .M        5312.4                        : BOTTOM LOGGED INTERVAL
BS                 .in       12.25                         : BIT SIZE
DCS                .         04/09/2014                    : DATE CIRCULATION STOPPED
DFD                .lb/gal   9.5                           : DRILLING FLUID DENSITY
DFT                .         BR-MUL                        : DRILLING FLUID TYPE
DLAB               .         05/09/2014                    : DATE LOGGING ON BOTTOM
EDF                .M        24.0                          : ELEVATION OF DRILLING FLOOR
EGL                .M        -2125.0                       : ELEVATION OF GROUND LEVEL
EKB                .M        -999.25                       : ELEVATION OF KELLY BUSHING
EPD                .M        0.0                           : ELEVATATION OF PERMANENT DATUM
LMF                .         MR                            : LOG MEASURED FROM
LUL                .         MCE                           : LOGGING UNIT LOCATION
LUN                .         11202303                      : LOGGING UNIT NUMBER
LONG               .         -43_10_06.229                 : LONGITUDE
MCST               .degF     -999.25                       : MUDCAKE SAMPLE TEMPERATURE
MFST               .degF     -999.25                       : MUD FILTRATE SAMPLE TEMPERATURE
MRT                .degF     144.0                         : MAXIMUM RECORDED TEMPERATURE
MST                .degF     -999.25                       : MUD SAMPLE TEMPERATURE
PDAT               .         NM                            : PERMANENT DATUM
PRODUCER-CODE      .         280                           : 
PRODUCER-NAME      .         Halliburton                   : 
RMB                .ohm.m    -999.25                       : RESISTIVITY OF MUD - BHT
RMCS               .ohm.m    -999.25                       : RESISTIVITY OF MUDCAKE SAMPLE
RMFS               .ohm.m    -999.25                       : RESISTIVITY OF MUD FILTRATE SAMPLE
RMS                .ohm.m    -999.25                       : RESISTIVITY OF MUD SAMPLE
RUN                .         01                            : RUN NUMBER 1
TCS                .h        05_30                         : TIME CIRCULATION STOPPED
TDD                .M        5343.0                        : DRILLERS DEPTH
TDL                .M        5345.0                        : LOGGERS DEPTH
TLAB               .h        16_45                         : TIME LOGGING ON BOTTOM
TLI                .M        5135.0                        : TOP LOGGED INTERVAL
X                  .M        683789.99900000               : X UTM Coordinate
Y                  .M        7152001.99900000              : Y UTM Coordinate
~Parameter Information Block
#_______________________________________________________________________________
#
#PARAMETER_NAME    .UNIT     VALUE                         : DESCRIPTION
#_______________________________________________________________________________
SET                .         BASE                          : 
TLFamily_BS        .         Bit Size                      : 
TLFamily_DT        .         Compressional Slowness        : 
TLFamily_DWAL      .         Aluminum Weight Fraction      : 
TLFamily_DWCA      .         Calcium Weight Fraction       : 
TLFamily_DWFE      .         Iron Weight Fraction          : 
TLFamily_DWGD      .         Gadolinium Weight Fraction    : 
TLFamily_DWK       .         Potassium Weight Fraction     : 
TLFamily_DWMG      .         Magnesium Weight Fraction     : 
TLFamily_DWMN      .         Manganese Weight Fraction     : 
TLFamily_DWS       .         Sulfur Weight Fraction        : 
TLFamily_DWSI      .         Silicon Weight Fraction       : 
TLFamily_DWTI      .         Titanium Weight Fraction      : 
TLFamily_GR        .         Gamma Ray                     : 
TLFamily_GRt       .         Gamma Ray                     : 
TLFamily_HCAL      .         Caliper                       : 
TLFamily_HDRA      .         Bulk Density Correction       : 
TLFamily_HFK       .         Potassium Concentration       : 
TLFamily_HTHO      .         Thorium Concentration         : 
TLFamily_HURA      .         Uranium Concentration         : 
TLFamily_MD        .         Measured Depth                : 
TLFamily_MPERM     .         NMR Permeability              : 
TLFamily_NMRE_Final .         NMR Bound Fluid Volume Fraction: 
TLFamily_NMRFL_Final .         NMR Free Fluids               : 
TLFamily_NMRT_Final .         NMR Porosity                  : 
TLFamily_NPHI      .         Neutron Porosity              : 
TLFamily_PE        .         Photoelectric Factor          : 
TLFamily_RD        .         Resistivity - Deep            : 
TLFamily_RHOB      .         Bulk Density                  : 
TLFamily_RM        .         Resistivity - Medium          : 
TLFamily_RS        .         Resistivity - Shallow         : 
TLFamily_T2LM      .         NMR T2 Logarithmic Mean       : 
TLFamily_TVDSS     .         True Vertical Depth Sub Sea   : 
~Curve Information
#_______________________________________________________________________________
#
#LOGNAME           .UNIT     LOG_ID                        : DESCRIPTION
#_______________________________________________________________________________
DEPTH              .M                                      :  
BS                 .in                                     : BS/Bit Size 
DT                 .us/ft                                  : DT/DTC 
DWAL               .kg/kg                                  : DAL/DryrockAlWF 
DWCA               .kg/kg                                  : DCA/DryrockCaWF 
DWFE               .kg/kg                                  : DFE/DryrockFeWF 
DWGD               .ppm                                    : DGD/DryrockGdWF 
DWK                .kg/kg                                  : DK/DryrockKWF 
DWMG               .kg/kg                                  : DMG/DryrockMgWF 
DWMN               .kg/kg                                  : DMN/DryrockMnWF 
DWS                .kg/kg                                  : DSUL/DryrockSuWF 
DWSI               .kg/kg                                  : DSI/DryrockSiWF 
DWTI               .kg/kg                                  : DTI/DryrockTiWF 
GR                 .gAPI                                   : GR/Gamma API 
GRt                .gAPI                                   : GKUT/GKUT 
HCAL               .in                                     : CALI/Caliper 
HDRA               .g/cm3                                  : DRHO/DensityCorr 
HFK                .%                                      : POTA/Potassium 
HTHO               .ppm                                    : THOR/Thorium 
HURA               .ppm                                    : URAN/Uranium 
MPERM              .mD                                     : MPERMT2/MrilT2KCoat 
NMRE_Final         .m3/m3                                  : MPHIT2/TA-grp T2 Effective Por 
NMRFL_Final        .unitless                               : MFFIT2/TA-grp T2 FreeFluid Ind 
NMRT_Final         .frac                                   : MSIGT2/TA-grp T2 Total Por. 
NPHI               .frac                                   : NPHI/Neutron Porosity 
PE                 .b/e                                    : PE/Pe 
RD                 .ohm.m                                  : RT90/90in Resistivity 2ft Res 
RHOB               .g/cm3                                  : RHOB/Density 
RM                 .ohm.m                                  : RT30/30in Resistivity 2ft Res 
RS                 .ohm.m                                  : RT10/10in Resistivity 2ft Res 
T2LM               .ms                                     : T2LM/T2 Log Mean 
TVDSS              .M                                      :  
~Ascii
# ...
5310.538   12.250     70.458     0.016      0.078      0.001      0.216      0.002      0.000      0.000      0.010      0.351      0.000      13.976     34.621     12.357     -0.021     0.042      0.260      2.916      2.140      0.105      0.060      0.107      0.142      2.689      3.117      2.219      3.587      5.100      138.991    5155.804  
5310.691   12.250     69.211     0.033      0.132      0.000      0.452      0.003      0.000      0.000      0.015      0.267      0.000      13.826     34.176     12.363     -0.012     0.100      0.334      2.886      2.223      0.106      0.060      0.106      0.142      2.855      2.605      2.211      2.961      4.179      156.948    5155.946  
5310.843   12.250     67.608     0.037      0.130      0.000      0.512      0.003      0.000      0.000      0.015      0.264      0.001      16.243     33.712     12.366     -0.011     0.170      0.412      2.845      3.762      0.111      0.068      0.111      0.151      3.151      2.463      2.254      2.796      3.929      151.282    5156.087  
5310.995   12.250     66.839     0.031      0.122      0.000      0.452      0.003      0.001      0.000      0.015      0.281      0.001      20.401     33.588     12.352     -0.011     0.251      0.548      2.860      6.076      0.117      0.075      0.117      0.176      3.247      2.522      2.344      2.890      4.087      133.700    5156.229  
5311.148   12.250     66.442     0.034      0.121      0.000      0.502      0.002      0.001      0.000      0.016      0.277      0.001      22.736     33.632     12.381     -0.008     0.286      0.691      2.800      4.335      0.129      0.071      0.129      0.177      3.247      2.684      2.440      3.112      4.445      113.085    5156.370  
5311.300   12.250     66.012     0.038      0.155      0.000      0.548      0.002      0.001      0.001      0.019      0.231      0.001      22.359     33.710     12.409     -0.007     0.265      0.961      2.795      2.660      0.144      0.063      0.145      0.161      3.455      2.981      2.504      3.526      5.097      100.210    5156.512  
5311.453   12.250     65.377     0.033      0.156      0.001      0.462      0.002      0.007      0.001      0.017      0.227      0.001      21.287     33.785     12.422     -0.011     0.201      1.312      2.827      2.502      0.155      0.061      0.160      0.146      3.610      3.117      2.477      3.718      5.391      93.377     5156.654  
5311.605   12.250     64.615     0.024      0.158      0.002      0.334      0.002      0.022      0.000      0.015      0.209      0.002      20.676     33.712     12.427     -0.014     0.162      1.506      2.778      3.356      0.159      0.066      0.169      0.132      3.689      3.194      2.441      3.824      5.508      89.045     5156.795  
5311.757   12.250     63.531     0.025      0.163      0.003      0.350      0.002      0.028      0.000      0.015      0.193      0.002      20.230     33.829     12.426     -0.012     0.152      1.621      2.793      4.165      0.160      0.071      0.165      0.127      3.608      3.166      2.441      3.781      5.396      99.665     5156.937  
5311.910   12.250     62.783     0.026      0.170      0.002      0.366      0.002      0.025      0.000      0.014      0.188      0.002      19.823     34.000     12.394     -0.011     0.152      1.697      2.783      5.499      0.152      0.077      0.152      0.120      3.525      3.117      2.447      3.710      5.229      140.011    5157.079  
5312.062   12.250     62.754     0.039      0.181      0.001      0.559      0.001      0.011      0.001      0.015      0.184      0.002      19.773     34.277     12.444     -0.015     0.169      1.656      2.773      10.773     0.138      0.087      0.139      0.117      3.554      3.084      2.469      3.661      5.074      196.771    5157.220  
5312.215   12.250     62.756     0.047      0.191      0.001      0.687      0.001      0.000      0.001      0.015      0.181      0.002      19.140     34.536     12.460     -0.013     0.151      1.689      2.842      19.256     0.124      0.093      0.128      0.116      3.660      3.174      2.499      3.789      5.242      228.578    5157.362  
5312.367   12.250     62.911     0.052      0.196      0.001      0.769      0.001      0.000      0.001      0.016      0.168      0.002      18.813     34.602     12.473     -0.001     0.111      1.795      2.929      10.761     0.111      0.085      0.125      0.129      3.958      3.378      2.508      4.090      5.666      168.689    5157.504  
5312.519   12.250     63.639     0.050      0.199      0.002      0.740      0.000      0.000      0.001      0.016      0.168      0.002      19.107     34.438     12.480     0.004      0.096      1.923      2.980      7.020      0.105      0.079      0.125      0.131      4.263      3.494      2.489      4.277      5.889      120.858    5157.645  
5312.672   12.250     65.185     0.040      0.202      0.003      0.588      0.000      0.000      0.001      0.015      0.175      0.002      19.872     34.130     12.518     0.001      0.051      2.090      3.003      11.482     0.107      0.085      0.122      0.134      4.331      3.600      2.473      4.467      6.064      130.550    5157.787  
5312.824   12.250     67.052     0.036      0.204      0.003      0.526      0.000      0.000      0.001      0.015      0.177      0.002      19.928     34.151     12.552     -0.005     0.039      2.315      3.097      23.203     0.111      0.091      0.117      0.132      4.036      3.699      2.463      4.662      6.322      177.538    5157.929  
5312.977   12.250     68.405     0.035      0.203      0.003      0.519      0.000      0.003      0.001      0.016      0.174      0.002      20.120     34.125     12.627     -0.008     0.027      2.459      3.196      23.649     0.114      0.092      0.118      0.139      3.766      3.916      2.451      5.087      7.054      199.298    5158.070  
5313.129   12.250     68.689     0.036      0.194      0.003      0.524      0.000      0.015      0.001      0.018      0.164      0.002      19.815     34.251     12.668     -0.004     0.010      2.644      3.261      14.815     0.115      0.089      0.125      0.130      3.749      4.097      2.447      5.489      7.913      158.324    5158.212  
5313.281   12.250     68.275     0.031      0.178      0.001      0.447      0.000      0.038      0.001      0.018      0.151      0.002      18.964     34.426     12.680     -0.002     0.000      2.654      3.390      13.543     0.115      0.089      0.130      0.115      3.730      4.246      2.455      5.902      8.996      126.588    5158.354  
5313.434   12.250     68.265     0.030      0.172      0.000      0.437      0.001      0.046      0.001      0.017      0.148      0.002      18.696     34.717     12.680     -0.002     0.013      2.497      3.460      14.612     0.120      0.090      0.128      0.110      3.724      4.250      2.453      6.025      9.562      144.390    5158.495  
5313.586   12.250     68.136     0.035      0.179      0.000      0.503      0.001      0.030      0.001      0.018      0.160      0.002      18.688     35.070     12.635     -0.003     0.053      2.330      3.419      12.435     0.120      0.086      0.122      0.105      3.996      4.020      2.451      5.746      9.705      182.622    5158.637  
5313.739   12.250     68.132     0.033      0.189      0.000      0.474      0.001      0.014      0.000      0.018      0.177      0.001      19.172     35.401     12.621     -0.003     0.056      1.939      3.409      14.904     0.115      0.086      0.115      0.101      4.294      3.682      2.471      5.181      9.048      206.571    5158.778  
5313.891   12.250     67.950     0.032      0.194      0.000      0.469      0.001      0.001      0.000      0.016      0.193      0.001      20.392     35.671     12.603     -0.007     0.072      1.677      3.242      20.196     0.110      0.087      0.110      0.097      4.349      3.032      2.487      4.067      7.173      210.569    5158.920  
