~Version
 VERS              .         2.0                           : CWLS LOG ASCII STANDARD - VERSION 2.0
 WRAP              .         NO                            : ONE LINE PER DEPTH STEP
 DLM               .         SPACE                         : DELIMITING CHARACTER(SPACE TAB OR COMMA)
~Well Information
#_______________________________________________________________________________
#
#PARAMETER_NAME    .UNIT     VALUE                         : DESCRIPTION
#_______________________________________________________________________________
STRT               .M        4949.000                      : First reference value
STOP               .M        5060.404                      : Last reference value
STEP               .M        0.152                         : Step increment
NULL               .         -9999                         : Missing value
COMP               .         PETROBRAS                     : Company
WELL               .         7-SPH-22-SPS                  : Well name
FLD                .         SAPINHOA                      : Field
LOC                .                                       : Location
CNTY               .                                       : County
STAT               .         SAO PAULO                     : State
CTRY               .         BR                            : Country
SRVC               .                                       : Service Company
DATE               .         25/07/2016                    : Date
API                .         863160046800                  : API number
APD                .M        26.0                          : ABOVE PERMANENT DATUM
BHT                .degF     140.0                         : BOTTOMHOLE TEMPERATURE
BLI                .M        5055.8                        : BOTTOM LOGGED INTERVAL
BS                 .in       8.5                           : BIT SIZE
CBDR               .M        4981                          : Casing Bottom (Driller)
CBLO               .M        4981                          : Casing Bottom of Logger
CSIZ               .in       10.75                         : Casing Outer Diameter
CWEI               .lb/ft    85.3                          : Casing Weight
DCS                .         23/07/2016                    : DATE CIRCULATION STOPPED
DFD                .lb/gal   9.7                           : DRILLING FLUID DENSITY
DFT                .         CATIONICO_SCOL (BASE AGUA)    : DRILLING FLUID TYPE
DLAB               .         25/07/2016                    : DATE LOGGING ON BOTTOM
EDF                .M        26.0                          : ELEVATION OF DRILLING FLOOR
EGL                .M        -2144.0                       : ELEVATION OF GROUND LEVEL
EKB                .M        -999.25                       : ELEVATION OF KELLY BUSHING
EPD                .M        0.0                           : ELEVATATION OF PERMANENT DATUM
GDAT               .                                       : Geodetic Datum
LMF                .         MR                            : LOG MEASURED FROM
LUL                .         MCE                           : LOGGING UNIT LOCATION
LUN                .         10898943                      : LOGGING UNIT NUMBER
LATI               .         -25_48_08.320                 : Latitude
LONG               .         -43_13_44,430                 : LONGITUDE
MCST               .degF     66.1                          : MUDCAKE SAMPLE TEMPERATURE
MFST               .degF     66.4                          : MUD FILTRATE SAMPLE TEMPERATURE
MRT                .degF     140.0                         : MAXIMUM RECORDED TEMPERATURE
MST                .degF     65.8                          : MUD SAMPLE TEMPERATURE
ORIGINALWELLNAME   .         7SPH 0022  SPS                : 
PDAT               .         NM                            : PERMANENT DATUM
PRODUCER-CODE      .         280                           : 
PRODUCER-NAME      .         Halliburton                   : 
RMB                .ohm.m    0.040                         : RESISTIVITY OF MUD - BHT
RMCS               .ohm.m    0.140                         : RESISTIVITY OF MUDCAKE SAMPLE
RMFS               .ohm.m    0.012                         : RESISTIVITY OF MUD FILTRATE SAMPLE
RMS                .ohm.m    0.080                         : RESISTIVITY OF MUD SAMPLE
RUN                .         01                            : RUN NUMBER 1
TCS                .h        19_00                         : TIME CIRCULATION STOPPED
TDD                .M        5058.0                        : DRILLERS DEPTH
TDL                .M        5057.1                        : LOGGERS DEPTH
TLAB               .h        07_15                         : TIME LOGGING ON BOTTOM
TLI                .M        4950.0                        : TOP LOGGED INTERVAL
X                  .M        677550.00000000               : X or East-West coordinate
Y                  .M        7145014.00000000              : Y or North South coordinate
~Parameter Information Block
#_______________________________________________________________________________
#
#PARAMETER_NAME    .UNIT     VALUE                         : DESCRIPTION
#_______________________________________________________________________________
SET                .         BASE                          : 
TLFamily_BS        .         Bit Size                      : 
TLFamily_DT        .         Compressional Slowness        : 
TLFamily_DWAL      .         Aluminum Weight Fraction      : 
TLFamily_DWCA      .         Calcium Weight Fraction       : 
TLFamily_DWFE      .         Iron Weight Fraction          : 
TLFamily_DWK       .         Potassium Weight Fraction     : 
TLFamily_DWMG      .         Magnesium Weight Fraction     : 
TLFamily_DWMN      .         Manganese Weight Fraction     : 
TLFamily_DWS       .         Sulfur Weight Fraction        : 
TLFamily_DWSI      .         Silicon Weight Fraction       : 
TLFamily_DWTI      .         Titanium Weight Fraction      : 
TLFamily_GR        .         Gamma Ray                     : 
TLFamily_GRt       .         Gamma Ray                     : 
TLFamily_HCAL      .         Caliper                       : 
TLFamily_HDRA      .         Bulk Density Correction       : 
TLFamily_HFK       .         Potassium Concentration       : 
TLFamily_HTHO      .         Thorium Concentration         : 
TLFamily_HURA      .         Uranium Concentration         : 
TLFamily_MD        .         Measured Depth                : 
TLFamily_MPERM     .         NMR Permeability              : 
TLFamily_NMRE_Final .         NMR Bound Fluid Volume Fraction: 
TLFamily_NMRFL_Final .         NMR Free Fluids               : 
TLFamily_NMRT_Final .         NMR Porosity                  : 
TLFamily_NPHI      .         Neutron Porosity              : 
TLFamily_PE        .         Photoelectric Factor          : 
TLFamily_RD        .         Resistivity - Deep            : 
TLFamily_RHOB      .         Bulk Density                  : 
TLFamily_RS        .         Resistivity - Shallow         : 
TLFamily_T2LM      .         NMR T2 Logarithmic Mean       : 
TLFamily_TVDSS     .         True Vertical Depth Sub Sea   : 
~Curve Information
#_______________________________________________________________________________
#
#LOGNAME           .UNIT     LOG_ID                        : DESCRIPTION
#_______________________________________________________________________________
DEPTH              .M                                      :  
BS                 .in                                     : BS/Bit Size 
DT                 .us/ft                                  : SONICO COMPRESSIONAL (COMPOSICAO DE CURVAS CABO E/OU LWD) 
DWAL               .kg/kg                                  : DAL/DryrockAlWF 
DWCA               .kg/kg                                  : DCA/DryrockCaWF 
DWFE               .kg/kg                                  : DFE/DryrockFeWF 
DWK                .kg/kg                                  : DK/DryrockKWF 
DWMG               .kg/kg                                  : DMG/DryrockMgWF 
DWMN               .kg/kg                                  : DMN/DryrockMnWF 
DWS                .kg/kg                                  : DSUL/DryrockSuWF 
DWSI               .kg/kg                                  : DSI/DryrockSiWF 
DWTI               .kg/kg                                  : DTI/DryrockTiWF 
GR                 .gAPI                                   : GR/Gamma API 
GRt                .gAPI                                   : GKUT/GammaKUT 
HCAL               .in                                     : CALI/Caliper 
HDRA               .g/cm3                                  : DRHO/DensityCorr 
HFK                .%                                      : POTA/Potassium 
HTHO               .ppm                                    : THOR/Thorium 
HURA               .ppm                                    : URAN/Uranium 
MPERM              .mD                                     : MPERMT2/MrilT2KCoat 
NMRE_Final         .m3/m3                                  : MPHIT2/TA-grp T2 Effective Por 
NMRFL_Final        .unitless                               : MFFIT2/TA-grp T2 FreeFluid Ind 
NMRT_Final         .frac                                   : MSIGT2/TA-grp T2 Total Por. 
NPHI               .frac                                   : NPHI/Neutron Porosity 
PE                 .b/e                                    : PE/Pe 
RD                 .ohm.m                                  : LLD/LLD 
RHOB               .g/cm3                                  : RHOB/Density 
RS                 .ohm.m                                  : LLS/LLS 
T2LM               .ms                                     : T2LM/T2 Log Mean 
TVDSS              .M                                      :  
~Ascii
# ...
5009.960   8.500      66.566     0.026      0.253      0.000      0.000      0.022      0.000      0.012      0.099      0.001      12.063     16.830     8.501      -0.020     0.096      1.015      1.335      140.035    0.160      0.135      0.168      0.154      3.852      6750.800   2.440      24719.230  362.275    4977.573  
5010.112   8.500      65.263     0.022      0.239      0.000      0.001      0.045      0.000      0.010      0.085      0.001      10.025     14.269     8.500      -0.018     0.065      0.957      1.126      142.418    0.156      0.131      0.158      0.133      4.016      9284.314   2.452      9990.343   435.449    4977.724  
5010.265   8.500      61.851     0.015      0.230      0.001      0.001      0.063      0.000      0.006      0.076      0.000      9.389      12.729     8.503      -0.017     0.050      0.950      0.984      84.525     0.145      0.121      0.150      0.129      4.126      7661.387   2.452      6817.417   388.414    4977.876  
5010.417   8.500      60.132     0.009      0.230      0.001      0.001      0.070      0.000      0.004      0.071      0.000      9.941      11.287     8.504      -0.020     0.032      0.989      0.840      34.754     0.132      0.105      0.139      0.131      4.101      7636.993   2.468      6812.235   343.557    4978.027  
5010.570   8.500      60.300     0.008      0.232      0.001      0.001      0.072      0.000      0.003      0.067      0.000      10.264     11.205     8.500      -0.022     0.024      0.980      0.849      13.806     0.115      0.086      0.117      0.131      3.982      7650.026   2.489      6801.141   370.516    4978.178  
5010.722   8.500      61.620     0.009      0.235      0.001      0.001      0.071      0.001      0.003      0.064      0.000      9.949      11.614     8.498      -0.023     0.024      0.943      0.907      10.656     0.105      0.079      0.106      0.103      3.838      7240.636   2.518      7477.159   375.850    4978.329  
5010.874   8.500      62.036     0.009      0.239      0.001      0.001      0.069      0.001      0.003      0.063      0.000      9.411      12.080     8.497      -0.026     0.019      0.929      0.974      7.326      0.100      0.073      0.100      0.098      3.854      6559.503   2.532      8770.968   345.433    4978.481  
5011.027   8.500      60.842     0.009      0.257      0.000      0.001      0.056      0.001      0.005      0.063      0.000      9.341      12.848     8.497      -0.024     0.013      0.879      1.088      4.643      0.102      0.069      0.103      0.091      3.953      3958.973   2.551      5140.682   286.582    4978.632  
5011.179   8.500      60.075     0.010      0.264      0.000      0.001      0.051      0.001      0.007      0.061      0.000      10.326     12.976     8.506      -0.022     0.018      0.807      1.119      4.296      0.104      0.070      0.111      0.084      4.019      2398.627   2.547      2722.979   221.676    4978.783  
5011.332   8.500      61.223     0.011      0.265      0.000      0.000      0.051      0.001      0.009      0.058      0.000      10.787     12.670     8.503      -0.021     0.031      0.626      1.128      6.516      0.103      0.075      0.113      0.087      4.235      721.904    2.531      656.697    214.812    4978.934  
5011.484   8.500      63.628     0.011      0.263      0.000      0.000      0.053      0.001      0.009      0.056      0.000      10.289     12.326     8.504      -0.018     0.047      0.496      1.109      12.063     0.099      0.079      0.104      0.088      4.399      609.077    2.530      540.566    283.660    4979.085  
5011.636   8.500      65.884     0.013      0.264      0.000      0.000      0.052      0.001      0.009      0.054      0.000      10.034     11.509     8.504      -0.006     0.050      0.248      1.103      11.402     0.095      0.075      0.096      0.087      4.494      472.984    2.540      368.703    321.811    4979.237  
5011.789   8.500      68.739     0.013      0.261      0.000      0.000      0.054      0.001      0.008      0.055      0.000      9.955      11.056     8.501      -0.001     0.053      0.195      1.066      4.841      0.096      0.068      0.097      0.088      4.407      451.701    2.559      332.260    266.123    4979.388  
5011.941   8.500      69.948     0.013      0.258      0.000      0.000      0.056      0.001      0.006      0.056      0.000      10.500     10.859     8.497      0.004      0.067      0.243      1.003      3.790      0.102      0.068      0.110      0.085      4.288      521.480    2.591      399.974    199.585    4979.539  
5012.094   8.500      66.955     0.013      0.258      0.000      0.000      0.058      0.001      0.006      0.054      0.000      11.345     10.648     8.496      0.008      0.082      0.405      0.894      7.045      0.109      0.079      0.126      0.087      4.360      940.567    2.604      875.499    178.793    4979.690  
5012.246   8.500      61.708     0.009      0.274      0.001      0.000      0.053      0.001      0.006      0.047      0.000      11.587     10.673     8.498      0.007      0.121      0.616      0.751      99.079     0.134      0.120      0.147      0.090      4.613      2467.657   2.577      3774.461   312.327    4979.842  
5012.398   8.500      58.578     0.008      0.301      0.001      0.000      0.036      0.001      0.007      0.044      0.000      11.428     10.936     8.502      0.003      0.163      0.854      0.620      461.523    0.149      0.138      0.153      0.097      4.697      3281.373   2.526      4984.705   441.661    4979.993  
5012.551   8.500      57.601     0.009      0.326      0.001      0.000      0.022      0.001      0.007      0.036      0.000      11.493     11.191     8.499      -0.002     0.163      0.961      0.610      630.994    0.149      0.139      0.152      0.141      4.513      4019.570   2.451      5510.308   467.518    4980.144  
5012.703   8.500      59.165     0.012      0.343      0.001      0.000      0.010      0.001      0.009      0.031      0.001      12.007     11.545     8.497      -0.004     0.144      1.040      0.653      264.497    0.139      0.130      0.147      0.179      4.330      6866.508   2.387      9120.910   390.649    4980.295  
5012.856   8.500      60.596     0.017      0.338      0.000      0.000      0.006      0.001      0.014      0.034      0.001      12.435     11.706     8.497      -0.004     0.094      1.132      0.726      61.501     0.126      0.110      0.136      0.169      4.259      3603.741   2.375      3174.520   316.153    4980.446  
5013.008   8.500      62.085     0.019      0.324      0.000      0.000      0.010      0.001      0.017      0.041      0.001      12.620     11.446     8.493      -0.000     0.061      1.215      0.724      27.945     0.114      0.094      0.120      0.150      4.225      2646.145   2.421      1739.378   301.410    4980.598  
5013.160   8.500      64.280     0.021      0.290      0.000      0.000      0.029      0.001      0.017      0.048      0.001      12.061     11.048     8.496      0.004      0.056      1.425      0.613      23.220     0.102      0.085      0.104      0.098      4.026      2636.576   2.540      1735.206   314.925    4980.749  
5013.313   8.500      67.221     0.023      0.259      0.000      0.000      0.047      0.001      0.016      0.052      0.001      11.138     10.571     8.494      0.008      0.068      1.561      0.488      15.247     0.094      0.077      0.094      0.081      3.820      2429.836   2.609      1655.757   306.384    4980.900  
5013.465   8.500      69.951     0.022      0.234      0.000      0.000      0.065      0.001      0.015      0.055      0.001      10.152     10.316     8.497      0.009      0.078      1.568      0.440      8.162      0.093      0.071      0.093      0.098      3.806      3246.579   2.600      2247.989   279.305    4981.051  
5013.618   8.500      70.867     0.021      0.227      0.000      0.000      0.070      0.001      0.013      0.057      0.001      8.821      10.445     8.499      0.006      0.074      1.324      0.550      6.421      0.097      0.072      0.101      0.103      3.897      3738.549   2.561      2246.678   247.040    4981.203  
