~Version
 VERS              .         2.0                           : CWLS LOG ASCII STANDARD - VERSION 2.0
 WRAP              .         NO                            : ONE LINE PER DEPTH STEP
 DLM               .         SPACE                         : DELIMITING CHARACTER(SPACE TAB OR COMMA)
~Well Information
#_______________________________________________________________________________
#
#PARAMETER_NAME    .UNIT     VALUE                         : DESCRIPTION
#_______________________________________________________________________________
STRT               .M        4938.217                      : First reference value
STOP               .M        5227.625                      : Last reference value
STEP               .M        0.152                         : Step increment
NULL               .         -9999                         : Missing value
COMP               .         PETROBRAS                     : Company
WELL               .         7-SPH-17-SPS                  : Well name
FLD                .         SAPINHOA                      : Field
LOC                .                                       : Location
CNTY               .                                       : County
STAT               .         86316027948                   : State
CTRY               .         Brasil                        : Country
SRVC               .                                       : Service Company
DATE               .                                       : Date
API                .                                       : API number
APD                .M        25                            : Elevation of Depth Reference (LMF) Above Permanent Datum
BHS                .         OPEN                          : Borehole Status (Open or Cased Hole)
BHT                .degF     144                           : Bottom Hole Temperature
BLI                .M        5222.59                       : Bottom Log Interval
BS                 .in       12.25                         : Bit Size
CBDR               .M        5017                          : Casing Bottom (Driller)
CBLO               .M        5020.6                        : Casing Bottom (Logger)
CSIZ               .in       14                            : Casing Outer Diameter
CWEI               .lbm/ft   114                           : Casing Weight
DCS                .         04/01/2015                    : Date Circulation Stopped
DFD                .lb/gal   9.6                           : Drilling Fluid Density
DFT                .         BR-MUL                        : Drilling Fluid Type
DLAB               .         06/01/2015                    : Date Logging on Bottom
EDF                .M        25                            : Elevation of Drill Floor
EGL                .M        -2131                         : Elevation of Ground Level
EKB                .M        25                            : Elevation of Kelly Bushing
EPD                .M        0                             : Elevation of Permanent Datum (PDAT) above Mean Sea Level
LMF                .         MR                            : Logging Measured From (Name of Logging Elevation Reference)
LUL                .         BRMA                          : Logging Unit Location
LUN                .         7806                          : Logging Unit Number
LONG               .         -43_09_42,450                 : Longitude
MCST               .degF     -999.25                       : Mudcake Sample Temperature
MFST               .degF     -999.25                       : Mud Filtrate Sample Temperature
MRT                .degF     144                           : Maximum Recorded Temperature
MST                .degF     -999.25                       : Mud Sample Temperature
PDAT               .         NM                            : Permanent Datum
PRODUCER-CODE      .         440                           : 
PRODUCER-NAME      .         Schlumberger                  : 
RMB                .ohm.m    -999.25                       : Resistivity of Mud at Bottom Hole Temperature
RMCS               .ohm.m    -999.25                       : Resistivity of Mud Cake Sample
RMFS               .ohm.m    -999.25                       : Resistivity of Mud Filtrate Sample
RMS                .ohm.m    -999.25                       : Resistivity of Mud Sample
RUN                .         02                            : Run Number
TCS                .h        17_30                         : Time Circulation Stopped
TDD                .M        5221                          : Total Depth (Driller)
TDL                .M        5225                          : Logger Total Depth
TLAB               .h        09_25                         : Time Logging on Bottom
TLI                .M        5020.6                        : Top Log Interval
X                  .M        684517.00000000               : 
Y                  .M        7161201.00000000              : 
~Parameter Information Block
#_______________________________________________________________________________
#
#PARAMETER_NAME    .UNIT     VALUE                         : DESCRIPTION
#_______________________________________________________________________________
SET                .         BASE                          : 
TLFamily_BS        .         Bit Size                      : 
TLFamily_DT        .         Compressional Slowness        : 
TLFamily_DWAL      .         Aluminum Weight Fraction      : 
TLFamily_DWCA      .         Calcium Weight Fraction       : 
TLFamily_DWFE      .         Iron Weight Fraction          : 
TLFamily_DWGD      .         Gadolinium Weight Fraction    : 
TLFamily_DWS       .         Sulfur Weight Fraction        : 
TLFamily_DWSI      .         Silicon Weight Fraction       : 
TLFamily_DWTI      .         Titanium Weight Fraction      : 
TLFamily_GR        .         Gamma Ray                     : 
TLFamily_GRt       .         Gamma Ray                     : 
TLFamily_HCAL      .         Caliper                       : 
TLFamily_HDRA      .         Bulk Density Correction       : 
TLFamily_HFK       .         Potassium Concentration       : 
TLFamily_HTHO      .         Thorium Concentration         : 
TLFamily_HURA      .         Uranium Concentration         : 
TLFamily_KSDR      .         NMR Permeability              : 
TLFamily_KTIM      .         NMR Permeability              : 
TLFamily_MD        .         Measured Depth                : 
TLFamily_NMRE_Final .         NMR Bound Fluid Volume Fraction: 
TLFamily_NMRFL_Final .         NMR Free Fluids               : 
TLFamily_NMRT_Final .         NMR Porosity                  : 
TLFamily_NPHI      .         Neutron Porosity              : 
TLFamily_PE        .         Photoelectric Factor          : 
TLFamily_RD        .         Resistivity - Deep            : 
TLFamily_RHOB      .         Bulk Density                  : 
TLFamily_RM        .         Resistivity - Medium          : 
TLFamily_RS        .         Resistivity - Shallow         : 
TLFamily_T2LM      .         NMR T2 Logarithmic Mean       : 
TLFamily_TVDSS     .         True Vertical Depth Sub Sea   : 
~Curve Information
#_______________________________________________________________________________
#
#LOGNAME           .UNIT     LOG_ID                        : DESCRIPTION
#_______________________________________________________________________________
DEPTH              .M                                      :  
BS                 .in                                     : Bit Size 
DT                 .us/ft                                  : Delta-T Compressional 
DWAL               .kg/kg                                  : Dry Weight Fraction Pseudo Aluminum (SpectroLith WALK2 Model) 
DWCA               .kg/kg                                  : Dry Weight Fraction Calcium (SpectroLith WALK2 Model) 
DWFE               .kg/kg                                  : Dry Weight Fraction Iron + 0.14 Aluminum (SpectroLith WALK2 Model) 
DWGD               .ppm                                    : Dry Weight Fraction Gadolinium (SpectroLith WALK2 Model) 
DWS                .kg/kg                                  : Dry Weight Fraction Sulfur (SpectroLith WALK2 Model) 
DWSI               .kg/kg                                  : Dry Weight Fraction Silicon (SpectroLith WALK2 Model) 
DWTI               .kg/kg                                  : Dry Weight Fraction Titanium (SpectroLith WALK2 Model) 
GR                 .gAPI                                   : Gamma Ray 
GRt                .gAPI                                   : HNGS Standard Gamma-Ray 
HCAL               .in                                     : HRCC Caliper Calibrated 
HDRA               .g/cm3                                  : Density Standoff Correction 
HFK                .%                                      : HNGS Formation Potassium Concentration 
HTHO               .ppm                                    : HNGS Formation Thorium Concentration 
HURA               .ppm                                    : HNGS Formation Uranium Concentration 
KSDR               .mD                                     : SDR Permeability 
KTIM               .mD                                     : Timur/Coates Permeability 
NMRE_Final         .m3/m3                                  : CMR Porosity with T2 values greater than 3 ms 
NMRFL_Final        .unitless                               : CMR Free Fluid 
NMRT_Final         .frac                                   : Total CMR Porosity 
NPHI               .frac                                   : Enhanced Thermal Neutron Porosity in Selected Lithology 
PE                 .b/e                                    : Standard Resolution Formation Photoelectric Factor 
RD                 .ohm.m                                  : Array Induction Two Foot Resistivity A90 
RHOB               .g/cm3                                  : Standard Resolution Formation Density 
RM                 .ohm.m                                  : Array Induction Two Foot Resistivity A30 
RS                 .ohm.m                                  : Array Induction Two Foot Resistivity A10 
T2LM               .ms                                     : T2 Logarithmic Mean 
TVDSS              .M                                      :  
~Ascii
# ...
5052.517   12.250     68.905     0.000      0.375      0.000      0.000      0.000      0.030      0.000      14.263     15.515     12.269     -0.004     0.098      0.985      1.329      198.817    514.950    0.176      0.159      0.183      0.233      5.367      1909.388   2.370      981.522    1894.961   210.265    5027.236  
5052.670   12.250     68.214     0.001      0.369      0.000      0.000      0.000      0.036      0.000      13.988     15.160     12.290     -0.004     0.125      1.076      1.148      112.815    259.804    0.167      0.149      0.178      0.243      5.357      1949.980   2.373      1061.802   1945.646   167.293    5027.388  
5052.822   12.250     67.743     0.003      0.360      0.002      0.000      0.000      0.043      0.000      13.357     15.176     12.270     -0.002     0.150      1.026      1.095      63.227     136.697    0.157      0.136      0.168      0.244      5.315      1950.000   2.389      1118.110   1935.973   140.178    5027.541  
5052.974   12.250     67.067     0.002      0.353      0.001      0.000      0.000      0.051      0.000      14.250     15.482     12.280     -0.001     0.160      0.913      1.139      31.851     66.956     0.139      0.117      0.148      0.212      5.274      1942.622   2.417      1106.328   1898.300   129.549    5027.693  
5053.127   12.250     66.300     0.000      0.360      0.000      0.000      0.000      0.047      0.000      15.382     16.177     12.291     0.000      0.194      1.110      1.079      14.624     30.255     0.124      0.101      0.132      0.204      5.205      1822.739   2.457      989.548    1942.935   109.539    5027.845  
5053.279   12.250     64.873     0.000      0.359      0.000      0.000      0.000      0.049      0.000      15.643     16.557     12.291     0.001      0.205      1.100      1.127      7.995      15.838     0.115      0.090      0.125      0.155      5.175      1650.257   2.501      803.448    1734.854   90.004     5027.998  
5053.432   12.250     64.626     0.000      0.352      0.000      0.000      0.004      0.055      0.000      16.561     16.768     12.291     0.004      0.207      1.168      1.104      6.399      11.398     0.114      0.086      0.127      0.120      5.207      942.230    2.540      578.109    1016.557   78.311     5028.150  
5053.584   12.250     64.343     0.001      0.344      0.001      0.000      0.008      0.060      0.000      16.881     16.931     12.291     0.006      0.210      1.169      1.107      8.663      12.630     0.120      0.089      0.135      0.135      5.275      674.154    2.551      417.757    673.903    80.617     5028.303  
5053.736   12.250     64.263     0.002      0.342      0.001      0.000      0.009      0.060      0.000      17.827     17.459     12.280     0.007      0.210      1.236      1.162      15.775     25.216     0.129      0.102      0.143      0.169      5.346      552.624    2.538      346.490    503.206    97.220     5028.455  
5053.889   12.250     64.449     0.003      0.346      0.002      0.000      0.002      0.058      0.000      17.604     18.332     12.280     0.005      0.221      1.275      1.230      24.366     38.415     0.135      0.109      0.148      0.163      5.360      525.434    2.510      328.567    410.376    112.535    5028.607  
5054.041   12.250     64.631     0.001      0.347      0.000      0.003      0.000      0.061      0.000      17.547     18.721     12.270     0.001      0.221      1.344      1.272      30.781     50.859     0.141      0.116      0.156      0.207      5.416      524.799    2.475      331.563    421.181    114.560    5028.760  
5054.194   12.250     65.233     0.000      0.349      0.000      0.892      0.000      0.060      0.000      18.610     20.391     12.249     -0.003     0.266      1.415      1.323      36.711     66.610     0.149      0.124      0.167      0.212      5.417      527.118    2.451      331.090    407.803    109.289    5028.912  
5054.346   12.250     65.626     0.000      0.353      0.000      0.325      0.000      0.056      0.000      19.069     20.682     12.269     -0.005     0.255      1.447      1.387      56.862     98.116     0.161      0.134      0.177      0.194      5.370      407.869    2.442      297.292    416.400    120.654    5029.065  
5054.498   12.250     66.397     0.001      0.356      0.000      0.000      0.000      0.051      0.000      19.473     20.380     12.269     -0.004     0.239      1.604      1.336      94.251     124.456    0.170      0.140      0.180      0.197      5.301      432.574    2.441      322.754    613.694    149.291    5029.217  
5054.651   12.250     67.154     0.002      0.354      0.001      0.000      0.000      0.050      0.000      16.938     17.501     12.291     -0.004     0.202      1.505      1.096      139.664    148.692    0.170      0.139      0.174      0.199      5.305      691.879    2.424      500.724    793.138    196.411    5029.369  
5054.803   12.250     67.552     0.004      0.348      0.002      1.670      0.000      0.054      0.000      15.724     14.988     12.259     -0.007     0.148      1.198      1.048      157.114    160.972    0.165      0.136      0.165      0.207      5.362      1244.822   2.401      910.074    1484.728   230.313    5029.522  
5054.956   12.250     68.488     0.004      0.345      0.003      3.443      0.000      0.056      0.000      14.362     13.558     12.270     -0.005     0.132      1.194      0.893      143.208    181.522    0.159      0.134      0.159      0.198      5.325      1701.442   2.406      1032.256   1949.619   235.480    5029.674  
5055.108   12.250     68.697     0.007      0.340      0.004      4.116      0.000      0.058      0.000      14.023     13.075     12.290     -0.003     0.129      1.111      0.889      141.680    292.222    0.158      0.140      0.158      0.202      5.321      1858.192   2.418      1087.637   1923.352   239.475    5029.827  
5055.260   12.250     68.835     0.009      0.341      0.006      3.457      0.000      0.053      0.000      13.196     12.946     12.270     -0.003     0.132      1.097      0.881      129.130    373.413    0.162      0.145      0.164      0.239      5.390      1949.900   2.423      1055.400   1907.684   211.532    5029.979  
5055.413   12.250     69.102     0.007      0.340      0.004      2.836      0.000      0.058      0.000      12.576     12.600     12.290     -0.004     0.129      1.126      0.845      107.136    288.401    0.165      0.146      0.171      0.208      5.488      1949.655   2.419      979.647    1885.456   177.314    5030.131  
5055.565   12.250     69.322     0.002      0.342      0.001      1.199      0.001      0.064      0.000      12.779     12.529     12.269     -0.004     0.134      1.166      0.805      93.914     221.698    0.166      0.144      0.172      0.233      5.520      1806.032   2.420      887.332    1917.621   163.202    5030.284  
5055.718   12.250     69.402     0.000      0.336      0.000      1.113      0.000      0.076      0.000      13.204     12.263     12.291     -0.004     0.137      1.256      0.726      94.009     199.719    0.166      0.140      0.168      0.257      5.522      1657.628   2.424      799.492    1772.889   170.769    5030.436  
5055.870   12.250     69.531     0.000      0.330      0.000      0.793      0.000      0.082      0.000      12.267     12.547     12.291     -0.004     0.130      1.241      0.791      108.550    179.068    0.166      0.138      0.166      0.218      5.556      1519.656   2.423      836.137    1846.005   188.875    5030.589  
5056.022   12.250     69.696     0.002      0.326      0.001      1.811      0.000      0.084      0.000      11.802     12.130     12.291     -0.005     0.116      1.260      0.783      119.443    139.907    0.164      0.133      0.164      0.205      5.606      1442.179   2.421      848.768    1861.464   204.114    5030.741  
5056.175   12.250     69.915     0.004      0.325      0.002      1.080      0.000      0.082      0.000      11.544     12.599     12.312     -0.006     0.119      1.302      0.819      125.703    128.187    0.159      0.130      0.159      0.232      5.632      1304.634   2.422      850.230    1664.706   220.852    5030.893  
