~Version
 VERS              .         2.0                           : CWLS LOG ASCII STANDARD - VERSION 2.0
 WRAP              .         NO                            : ONE LINE PER DEPTH STEP
 DLM               .         SPACE                         : DELIMITING CHARACTER(SPACE TAB OR COMMA)
~Well Information
#_______________________________________________________________________________
#
#PARAMETER_NAME    .UNIT     VALUE                         : DESCRIPTION
#_______________________________________________________________________________
STRT               .M        4949.000                      : First reference value
STOP               .M        5060.404                      : Last reference value
STEP               .M        0.152                         : Step increment
NULL               .         -9999                         : Missing value
COMP               .         PETROBRAS                     : Company
WELL               .         7-SPH-22-SPS                  : Well name
FLD                .         SAPINHOA                      : Field
LOC                .                                       : Location
CNTY               .                                       : County
STAT               .         SAO PAULO                     : State
CTRY               .         BR                            : Country
SRVC               .                                       : Service Company
DATE               .         25/07/2016                    : Date
API                .         863160046800                  : API number
APD                .M        26.0                          : ABOVE PERMANENT DATUM
BHT                .degF     140.0                         : BOTTOMHOLE TEMPERATURE
BLI                .M        5055.8                        : BOTTOM LOGGED INTERVAL
BS                 .in       8.5                           : BIT SIZE
CBDR               .M        4981                          : Casing Bottom (Driller)
CBLO               .M        4981                          : Casing Bottom of Logger
CSIZ               .in       10.75                         : Casing Outer Diameter
CWEI               .lb/ft    85.3                          : Casing Weight
DCS                .         23/07/2016                    : DATE CIRCULATION STOPPED
DFD                .lb/gal   9.7                           : DRILLING FLUID DENSITY
DFT                .         CATIONICO_SCOL (BASE AGUA)    : DRILLING FLUID TYPE
DLAB               .         25/07/2016                    : DATE LOGGING ON BOTTOM
EDF                .M        26.0                          : ELEVATION OF DRILLING FLOOR
EGL                .M        -2144.0                       : ELEVATION OF GROUND LEVEL
EKB                .M        -999.25                       : ELEVATION OF KELLY BUSHING
EPD                .M        0.0                           : ELEVATATION OF PERMANENT DATUM
GDAT               .                                       : Geodetic Datum
LMF                .         MR                            : LOG MEASURED FROM
LUL                .         MCE                           : LOGGING UNIT LOCATION
LUN                .         10898943                      : LOGGING UNIT NUMBER
LATI               .         -25_48_08.320                 : Latitude
LONG               .         -43_13_44,430                 : LONGITUDE
MCST               .degF     66.1                          : MUDCAKE SAMPLE TEMPERATURE
MFST               .degF     66.4                          : MUD FILTRATE SAMPLE TEMPERATURE
MRT                .degF     140.0                         : MAXIMUM RECORDED TEMPERATURE
MST                .degF     65.8                          : MUD SAMPLE TEMPERATURE
ORIGINALWELLNAME   .         7SPH 0022  SPS                : 
PDAT               .         NM                            : PERMANENT DATUM
PRODUCER-CODE      .         280                           : 
PRODUCER-NAME      .         Halliburton                   : 
RMB                .ohm.m    0.040                         : RESISTIVITY OF MUD - BHT
RMCS               .ohm.m    0.140                         : RESISTIVITY OF MUDCAKE SAMPLE
RMFS               .ohm.m    0.012                         : RESISTIVITY OF MUD FILTRATE SAMPLE
RMS                .ohm.m    0.080                         : RESISTIVITY OF MUD SAMPLE
RUN                .         01                            : RUN NUMBER 1
TCS                .h        19_00                         : TIME CIRCULATION STOPPED
TDD                .M        5058.0                        : DRILLERS DEPTH
TDL                .M        5057.1                        : LOGGERS DEPTH
TLAB               .h        07_15                         : TIME LOGGING ON BOTTOM
TLI                .M        4950.0                        : TOP LOGGED INTERVAL
X                  .M        677550.00000000               : X or East-West coordinate
Y                  .M        7145014.00000000              : Y or North South coordinate
~Parameter Information Block
#_______________________________________________________________________________
#
#PARAMETER_NAME    .UNIT     VALUE                         : DESCRIPTION
#_______________________________________________________________________________
SET                .         BASE                          : 
TLFamily_BS        .         Bit Size                      : 
TLFamily_DT        .         Compressional Slowness        : 
TLFamily_DWAL      .         Aluminum Weight Fraction      : 
TLFamily_DWCA      .         Calcium Weight Fraction       : 
TLFamily_DWFE      .         Iron Weight Fraction          : 
TLFamily_DWK       .         Potassium Weight Fraction     : 
TLFamily_DWMG      .         Magnesium Weight Fraction     : 
TLFamily_DWMN      .         Manganese Weight Fraction     : 
TLFamily_DWS       .         Sulfur Weight Fraction        : 
TLFamily_DWSI      .         Silicon Weight Fraction       : 
TLFamily_DWTI      .         Titanium Weight Fraction      : 
TLFamily_GR        .         Gamma Ray                     : 
TLFamily_GRt       .         Gamma Ray                     : 
TLFamily_HCAL      .         Caliper                       : 
TLFamily_HDRA      .         Bulk Density Correction       : 
TLFamily_HFK       .         Potassium Concentration       : 
TLFamily_HTHO      .         Thorium Concentration         : 
TLFamily_HURA      .         Uranium Concentration         : 
TLFamily_MD        .         Measured Depth                : 
TLFamily_MPERM     .         NMR Permeability              : 
TLFamily_NMRE_Final .         NMR Bound Fluid Volume Fraction: 
TLFamily_NMRFL_Final .         NMR Free Fluids               : 
TLFamily_NMRT_Final .         NMR Porosity                  : 
TLFamily_NPHI      .         Neutron Porosity              : 
TLFamily_PE        .         Photoelectric Factor          : 
TLFamily_RD        .         Resistivity - Deep            : 
TLFamily_RHOB      .         Bulk Density                  : 
TLFamily_RS        .         Resistivity - Shallow         : 
TLFamily_T2LM      .         NMR T2 Logarithmic Mean       : 
TLFamily_TVDSS     .         True Vertical Depth Sub Sea   : 
~Curve Information
#_______________________________________________________________________________
#
#LOGNAME           .UNIT     LOG_ID                        : DESCRIPTION
#_______________________________________________________________________________
DEPTH              .M                                      :  
BS                 .in                                     : BS/Bit Size 
DT                 .us/ft                                  : SONICO COMPRESSIONAL (COMPOSICAO DE CURVAS CABO E/OU LWD) 
DWAL               .kg/kg                                  : DAL/DryrockAlWF 
DWCA               .kg/kg                                  : DCA/DryrockCaWF 
DWFE               .kg/kg                                  : DFE/DryrockFeWF 
DWK                .kg/kg                                  : DK/DryrockKWF 
DWMG               .kg/kg                                  : DMG/DryrockMgWF 
DWMN               .kg/kg                                  : DMN/DryrockMnWF 
DWS                .kg/kg                                  : DSUL/DryrockSuWF 
DWSI               .kg/kg                                  : DSI/DryrockSiWF 
DWTI               .kg/kg                                  : DTI/DryrockTiWF 
GR                 .gAPI                                   : GR/Gamma API 
GRt                .gAPI                                   : GKUT/GammaKUT 
HCAL               .in                                     : CALI/Caliper 
HDRA               .g/cm3                                  : DRHO/DensityCorr 
HFK                .%                                      : POTA/Potassium 
HTHO               .ppm                                    : THOR/Thorium 
HURA               .ppm                                    : URAN/Uranium 
MPERM              .mD                                     : MPERMT2/MrilT2KCoat 
NMRE_Final         .m3/m3                                  : MPHIT2/TA-grp T2 Effective Por 
NMRFL_Final        .unitless                               : MFFIT2/TA-grp T2 FreeFluid Ind 
NMRT_Final         .frac                                   : MSIGT2/TA-grp T2 Total Por. 
NPHI               .frac                                   : NPHI/Neutron Porosity 
PE                 .b/e                                    : PE/Pe 
RD                 .ohm.m                                  : LLD/LLD 
RHOB               .g/cm3                                  : RHOB/Density 
RS                 .ohm.m                                  : LLS/LLS 
T2LM               .ms                                     : T2LM/T2 Log Mean 
TVDSS              .M                                      :  
~Ascii
# ...
5021.390   8.500      64.231     0.008      0.229      0.002      0.002      0.062      0.001      0.007      0.085      0.001      14.714     16.493     8.495      -0.004     0.023      1.711      1.173      18.588     0.095      0.081      0.100      0.124      4.265      12361.917  2.541      20343.779  294.541    4988.915  
5021.542   8.500      62.802     0.010      0.221      0.003      0.002      0.050      0.001      0.004      0.113      0.001      15.285     16.991     8.497      -0.004     0.015      1.645      1.266      5.495      0.082      0.069      0.095      0.108      4.020      9473.272   2.610      15247.125  186.976    4989.066  
5021.695   8.500      61.057     0.010      0.218      0.003      0.001      0.046      0.001      0.003      0.121      0.000      15.461     17.448     8.496      -0.008     0.013      1.717      1.295      3.227      0.079      0.064      0.099      0.072      3.764      2821.106   2.647      3856.911   146.366    4989.217  
5021.847   8.500      59.613     0.014      0.225      0.003      0.001      0.042      0.001      0.004      0.116      0.000      15.680     17.445     8.495      -0.012     0.018      1.945      1.202      4.578      0.091      0.070      0.108      0.089      3.509      850.437    2.645      776.281    170.989    4989.368  
5022.000   8.500      57.252     0.016      0.233      0.003      0.000      0.040      0.001      0.004      0.107      0.000      15.591     17.500     8.494      -0.017     0.015      2.243      1.106      6.846      0.108      0.077      0.117      0.100      3.275      648.299    2.618      512.719    216.888    4989.519  
5022.152   8.500      56.432     0.015      0.237      0.002      0.000      0.047      0.001      0.005      0.092      0.000      15.243     17.197     8.506      -0.021     0.016      2.587      0.946      7.175      0.119      0.078      0.122      0.097      3.438      623.862    2.541      473.639    262.731    4989.671  
5022.304   8.500      56.909     0.013      0.254      0.002      0.000      0.041      0.001      0.006      0.084      0.000      14.686     16.618     8.503      -0.021     0.016      2.865      0.781      7.008      0.123      0.078      0.123      0.101      3.852      608.036    2.474      439.227    304.199    4989.822  
5022.457   8.500      57.491     0.015      0.281      0.001      0.000      0.023      0.001      0.009      0.078      0.000      13.565     15.808     8.500      -0.022     0.031      3.009      0.611      8.711      0.123      0.081      0.123      0.112      4.281      868.121    2.447      700.949    328.759    4989.973  
5022.609   8.500      58.292     0.018      0.296      0.001      0.000      0.015      0.001      0.011      0.070      0.000      12.464     15.132     8.504      -0.026     0.054      3.122      0.454      17.159     0.123      0.090      0.123      0.114      4.512      1434.184   2.436      1496.305   342.523    4990.124  
5022.762   8.500      59.277     0.017      0.302      0.001      0.000      0.019      0.001      0.011      0.058      0.000      12.093     14.586     8.503      -0.028     0.072      3.185      0.338      34.340     0.125      0.099      0.125      0.113      4.538      6915.662   2.444      15932.445  352.297    4990.275  
5022.914   8.500      60.534     0.017      0.314      0.000      0.000      0.016      0.001      0.012      0.049      0.000      12.348     14.482     8.502      -0.027     0.083      3.245      0.285      33.679     0.128      0.100      0.128      0.116      4.506      39999.941  2.458      39999.984  344.992    4990.427  
5023.066   8.500      61.325     0.013      0.331      0.000      0.000      0.011      0.001      0.014      0.041      0.000      12.796     14.466     8.504      -0.025     0.075      3.231      0.303      21.027     0.134      0.097      0.135      0.121      4.481      39999.984  2.464      39999.984  293.250    4990.578  
5023.219   8.500      61.398     0.011      0.335      0.000      0.000      0.011      0.001      0.015      0.038      0.000      13.535     14.666     8.512      -0.023     0.047      3.248      0.369      15.680     0.139      0.095      0.144      0.119      4.624      39999.984  2.460      39999.984  224.982    4990.729  
5023.371   8.500      61.682     0.011      0.318      0.000      0.001      0.023      0.001      0.014      0.039      0.000      13.383     14.598     8.513      -0.021     0.044      3.302      0.347      16.458     0.135      0.096      0.146      0.121      4.756      39999.984  2.456      39999.984  206.032    4990.880  
5023.524   8.500      62.358     0.012      0.306      0.000      0.001      0.028      0.001      0.012      0.043      0.000      12.691     14.620     8.508      -0.017     0.057      3.396      0.292      30.114     0.129      0.101      0.136      0.116      4.689      39999.984  2.462      39999.984  282.317    4991.031  
5023.676   8.500      63.797     0.012      0.296      0.000      0.001      0.033      0.001      0.011      0.049      0.000      12.651     14.553     8.500      -0.017     0.087      3.451      0.212      145.721    0.121      0.109      0.123      0.112      4.541      25239.570  2.471      39999.984  450.807    4991.183  
5023.828   8.500      64.041     0.006      0.285      0.001      0.001      0.032      0.001      0.009      0.070      0.000      11.587     14.446     8.497      -0.016     0.132      3.329      0.165      599.496    0.113      0.108      0.114      0.107      4.415      14096.252  2.480      32966.121  581.489    4991.334  
5023.981   8.500      63.361     0.003      0.279      0.001      0.000      0.031      0.000      0.006      0.084      0.000      10.980     14.700     8.498      -0.015     0.138      3.172      0.240      424.725    0.108      0.102      0.108      0.109      4.324      12105.149  2.481      27614.873  596.012    4991.485  
5024.133   8.500      62.018     0.002      0.264      0.002      0.000      0.034      0.000      0.002      0.098      0.000      13.341     15.562     8.507      -0.010     0.128      2.860      0.466      100.901    0.104      0.094      0.104      0.104      4.035      7729.161   2.489      14711.740  512.141    4991.636  
5024.286   8.500      61.629     0.005      0.253      0.002      0.000      0.042      0.000      0.002      0.095      0.000      16.000     16.255     8.504      -0.007     0.103      2.803      0.609      33.125     0.101      0.086      0.101      0.103      3.978      2734.610   2.509      3965.092   436.022    4991.788  
5024.438   8.500      61.967     0.008      0.249      0.002      0.000      0.043      0.000      0.003      0.095      0.000      18.062     17.825     8.497      -0.005     0.060      2.752      0.878      23.991     0.099      0.083      0.100      0.108      4.258      251.439    2.556      273.082    376.283    4991.939  
5024.590   8.500      62.749     0.009      0.242      0.002      0.000      0.050      0.000      0.003      0.090      0.000      19.111     18.609     8.498      -0.007     0.049      2.737      0.991      21.301     0.097      0.084      0.103      0.108      4.415      216.992    2.569      218.363    273.121    4992.090  
5024.743   8.500      65.129     0.011      0.253      0.002      0.001      0.045      0.000      0.004      0.082      0.001      19.876     19.342     8.500      -0.010     0.032      2.642      1.137      16.474     0.096      0.084      0.108      0.097      4.437      198.540    2.567      192.780    187.179    4992.241  
5024.895   8.500      66.935     0.011      0.253      0.001      0.001      0.051      0.000      0.005      0.071      0.001      18.445     20.005     8.496      -0.012     0.026      2.417      1.301      11.564     0.098      0.081      0.109      0.084      4.409      176.314    2.567      166.040    159.685    4992.392  
5025.048   8.500      67.660     0.012      0.256      0.001      0.001      0.055      0.000      0.007      0.060      0.001      17.544     20.495     8.504      -0.012     0.015      2.238      1.441      10.261     0.098      0.079      0.108      0.077      4.463      352.226    2.579      435.238    163.082    4992.544  
