~Version
 VERS              .         2.0                           : CWLS LOG ASCII STANDARD - VERSION 2.0
 WRAP              .         NO                            : ONE LINE PER DEPTH STEP
 DLM               .         SPACE                         : DELIMITING CHARACTER(SPACE TAB OR COMMA)
~Well Information
#_______________________________________________________________________________
#
#PARAMETER_NAME    .UNIT     VALUE                         : DESCRIPTION
#_______________________________________________________________________________
STRT               .M        4938.217                      : First reference value
STOP               .M        5227.625                      : Last reference value
STEP               .M        0.152                         : Step increment
NULL               .         -9999                         : Missing value
COMP               .         PETROBRAS                     : Company
WELL               .         7-SPH-17-SPS                  : Well name
FLD                .         SAPINHOA                      : Field
LOC                .                                       : Location
CNTY               .                                       : County
STAT               .         86316027948                   : State
CTRY               .         Brasil                        : Country
SRVC               .                                       : Service Company
DATE               .                                       : Date
API                .                                       : API number
APD                .M        25                            : Elevation of Depth Reference (LMF) Above Permanent Datum
BHS                .         OPEN                          : Borehole Status (Open or Cased Hole)
BHT                .degF     144                           : Bottom Hole Temperature
BLI                .M        5222.59                       : Bottom Log Interval
BS                 .in       12.25                         : Bit Size
CBDR               .M        5017                          : Casing Bottom (Driller)
CBLO               .M        5020.6                        : Casing Bottom (Logger)
CSIZ               .in       14                            : Casing Outer Diameter
CWEI               .lbm/ft   114                           : Casing Weight
DCS                .         04/01/2015                    : Date Circulation Stopped
DFD                .lb/gal   9.6                           : Drilling Fluid Density
DFT                .         BR-MUL                        : Drilling Fluid Type
DLAB               .         06/01/2015                    : Date Logging on Bottom
EDF                .M        25                            : Elevation of Drill Floor
EGL                .M        -2131                         : Elevation of Ground Level
EKB                .M        25                            : Elevation of Kelly Bushing
EPD                .M        0                             : Elevation of Permanent Datum (PDAT) above Mean Sea Level
LMF                .         MR                            : Logging Measured From (Name of Logging Elevation Reference)
LUL                .         BRMA                          : Logging Unit Location
LUN                .         7806                          : Logging Unit Number
LONG               .         -43_09_42,450                 : Longitude
MCST               .degF     -999.25                       : Mudcake Sample Temperature
MFST               .degF     -999.25                       : Mud Filtrate Sample Temperature
MRT                .degF     144                           : Maximum Recorded Temperature
MST                .degF     -999.25                       : Mud Sample Temperature
PDAT               .         NM                            : Permanent Datum
PRODUCER-CODE      .         440                           : 
PRODUCER-NAME      .         Schlumberger                  : 
RMB                .ohm.m    -999.25                       : Resistivity of Mud at Bottom Hole Temperature
RMCS               .ohm.m    -999.25                       : Resistivity of Mud Cake Sample
RMFS               .ohm.m    -999.25                       : Resistivity of Mud Filtrate Sample
RMS                .ohm.m    -999.25                       : Resistivity of Mud Sample
RUN                .         02                            : Run Number
TCS                .h        17_30                         : Time Circulation Stopped
TDD                .M        5221                          : Total Depth (Driller)
TDL                .M        5225                          : Logger Total Depth
TLAB               .h        09_25                         : Time Logging on Bottom
TLI                .M        5020.6                        : Top Log Interval
X                  .M        684517.00000000               : 
Y                  .M        7161201.00000000              : 
~Parameter Information Block
#_______________________________________________________________________________
#
#PARAMETER_NAME    .UNIT     VALUE                         : DESCRIPTION
#_______________________________________________________________________________
SET                .         BASE                          : 
TLFamily_BS        .         Bit Size                      : 
TLFamily_DT        .         Compressional Slowness        : 
TLFamily_DWAL      .         Aluminum Weight Fraction      : 
TLFamily_DWCA      .         Calcium Weight Fraction       : 
TLFamily_DWFE      .         Iron Weight Fraction          : 
TLFamily_DWGD      .         Gadolinium Weight Fraction    : 
TLFamily_DWS       .         Sulfur Weight Fraction        : 
TLFamily_DWSI      .         Silicon Weight Fraction       : 
TLFamily_DWTI      .         Titanium Weight Fraction      : 
TLFamily_GR        .         Gamma Ray                     : 
TLFamily_GRt       .         Gamma Ray                     : 
TLFamily_HCAL      .         Caliper                       : 
TLFamily_HDRA      .         Bulk Density Correction       : 
TLFamily_HFK       .         Potassium Concentration       : 
TLFamily_HTHO      .         Thorium Concentration         : 
TLFamily_HURA      .         Uranium Concentration         : 
TLFamily_KSDR      .         NMR Permeability              : 
TLFamily_KTIM      .         NMR Permeability              : 
TLFamily_MD        .         Measured Depth                : 
TLFamily_NMRE_Final .         NMR Bound Fluid Volume Fraction: 
TLFamily_NMRFL_Final .         NMR Free Fluids               : 
TLFamily_NMRT_Final .         NMR Porosity                  : 
TLFamily_NPHI      .         Neutron Porosity              : 
TLFamily_PE        .         Photoelectric Factor          : 
TLFamily_RD        .         Resistivity - Deep            : 
TLFamily_RHOB      .         Bulk Density                  : 
TLFamily_RM        .         Resistivity - Medium          : 
TLFamily_RS        .         Resistivity - Shallow         : 
TLFamily_T2LM      .         NMR T2 Logarithmic Mean       : 
TLFamily_TVDSS     .         True Vertical Depth Sub Sea   : 
~Curve Information
#_______________________________________________________________________________
#
#LOGNAME           .UNIT     LOG_ID                        : DESCRIPTION
#_______________________________________________________________________________
DEPTH              .M                                      :  
BS                 .in                                     : Bit Size 
DT                 .us/ft                                  : Delta-T Compressional 
DWAL               .kg/kg                                  : Dry Weight Fraction Pseudo Aluminum (SpectroLith WALK2 Model) 
DWCA               .kg/kg                                  : Dry Weight Fraction Calcium (SpectroLith WALK2 Model) 
DWFE               .kg/kg                                  : Dry Weight Fraction Iron + 0.14 Aluminum (SpectroLith WALK2 Model) 
DWGD               .ppm                                    : Dry Weight Fraction Gadolinium (SpectroLith WALK2 Model) 
DWS                .kg/kg                                  : Dry Weight Fraction Sulfur (SpectroLith WALK2 Model) 
DWSI               .kg/kg                                  : Dry Weight Fraction Silicon (SpectroLith WALK2 Model) 
DWTI               .kg/kg                                  : Dry Weight Fraction Titanium (SpectroLith WALK2 Model) 
GR                 .gAPI                                   : Gamma Ray 
GRt                .gAPI                                   : HNGS Standard Gamma-Ray 
HCAL               .in                                     : HRCC Caliper Calibrated 
HDRA               .g/cm3                                  : Density Standoff Correction 
HFK                .%                                      : HNGS Formation Potassium Concentration 
HTHO               .ppm                                    : HNGS Formation Thorium Concentration 
HURA               .ppm                                    : HNGS Formation Uranium Concentration 
KSDR               .mD                                     : SDR Permeability 
KTIM               .mD                                     : Timur/Coates Permeability 
NMRE_Final         .m3/m3                                  : CMR Porosity with T2 values greater than 3 ms 
NMRFL_Final        .unitless                               : CMR Free Fluid 
NMRT_Final         .frac                                   : Total CMR Porosity 
NPHI               .frac                                   : Enhanced Thermal Neutron Porosity in Selected Lithology 
PE                 .b/e                                    : Standard Resolution Formation Photoelectric Factor 
RD                 .ohm.m                                  : Array Induction Two Foot Resistivity A90 
RHOB               .g/cm3                                  : Standard Resolution Formation Density 
RM                 .ohm.m                                  : Array Induction Two Foot Resistivity A30 
RS                 .ohm.m                                  : Array Induction Two Foot Resistivity A10 
T2LM               .ms                                     : T2 Logarithmic Mean 
TVDSS              .M                                      :  
~Ascii
# ...
5223.967   12.250     -9999.000  0.004      0.225      0.002      3.687      0.000      0.198      0.000      30.019     43.696     12.034     -9999.000  -0.047     2.232      5.051      779.818    5.554      -9999.000  -9999.000  -9999.000  0.192      -9999.000  16.568     -9999.000  15.371     16.068     28.629     5198.678  
5224.120   12.250     -9999.000  0.004      0.225      0.002      3.687      0.000      0.198      0.000      30.019     43.696     12.034     -9999.000  -0.047     2.232      5.051      788.801    5.695      -9999.000  -9999.000  -9999.000  0.192      -9999.000  16.554     -9999.000  15.491     16.075     28.999     5198.831  
5224.272   12.250     -9999.000  0.004      0.225      0.002      3.687      0.000      0.198      0.000      30.019     43.696     12.034     -9999.000  -0.047     2.232      5.051      797.580    6.030      -9999.000  -9999.000  -9999.000  0.192      -9999.000  16.627     -9999.000  15.564     16.129     29.487     5198.983  
5224.424   12.250     -9999.000  0.004      0.225      0.002      3.687      0.000      0.198      0.000      30.019     43.696     12.034     -9999.000  -0.047     2.232      5.051      799.568    4.921      -9999.000  -9999.000  -9999.000  0.192      -9999.000  16.683     -9999.000  15.628     16.071     30.217     5199.135  
5224.577   12.250     -9999.000  0.004      0.225      0.002      3.687      0.000      0.198      0.000      30.019     43.696     12.034     -9999.000  -0.047     2.232      5.051      803.673    5.044      -9999.000  -9999.000  -9999.000  0.192      -9999.000  16.739     -9999.000  15.690     16.080     30.792     5199.288  
5224.729   12.250     -9999.000  0.004      0.225      0.002      3.687      0.000      0.198      0.000      30.019     43.696     12.034     -9999.000  -0.047     2.232      5.051      801.919    4.729      -9999.000  -9999.000  -9999.000  0.192      -9999.000  16.665     -9999.000  15.598     16.064     30.982     5199.440  
5224.882   12.250     -9999.000  0.004      0.225      0.002      3.687      0.000      0.198      0.000      30.019     43.696     12.034     -9999.000  -0.047     2.232      5.051      794.734    4.154      -9999.000  -9999.000  -9999.000  0.192      -9999.000  16.634     -9999.000  15.578     15.987     30.739     5199.593  
5225.034   12.250     -9999.000  0.004      0.225      0.002      3.687      0.000      0.198      0.000      30.019     43.696     12.034     -9999.000  -0.047     2.232      5.051      790.695    4.887      -9999.000  -9999.000  -9999.000  0.192      -9999.000  16.640     -9999.000  15.576     16.072     30.200     5199.745  
5225.186   12.250     -9999.000  0.004      0.225      0.002      3.687      0.000      0.198      0.000      30.019     43.696     12.034     -9999.000  -0.047     2.232      5.051      781.094    4.028      -9999.000  -9999.000  -9999.000  0.192      -9999.000  16.669     -9999.000  15.584     16.065     29.675     5199.897  
5225.339   12.250     -9999.000  0.004      0.225      0.002      3.687      0.000      0.198      0.000      30.019     43.696     12.034     -9999.000  -0.047     2.232      5.051      782.114    3.905      -9999.000  -9999.000  -9999.000  0.192      -9999.000  -9999.000  -9999.000  -9999.000  -9999.000  29.721     5200.050  
5225.491   12.250     -9999.000  0.004      0.225      0.002      3.687      0.000      0.198      0.000      30.019     43.696     12.034     -9999.000  -0.047     2.232      5.051      780.530    3.229      -9999.000  -9999.000  -9999.000  0.192      -9999.000  -9999.000  -9999.000  -9999.000  -9999.000  29.842     5200.202  
5225.644   12.250     -9999.000  0.004      0.225      0.002      3.687      0.000      0.198      0.000      30.019     43.696     12.034     -9999.000  -0.047     2.232      5.051      775.642    2.603      -9999.000  -9999.000  -9999.000  0.192      -9999.000  -9999.000  -9999.000  -9999.000  -9999.000  29.885     5200.354  
5225.796   12.250     -9999.000  0.004      0.225      0.002      3.687      0.000      0.198      0.000      30.019     43.696     12.034     -9999.000  -0.047     2.232      5.051      779.074    3.675      -9999.000  -9999.000  -9999.000  0.192      -9999.000  -9999.000  -9999.000  -9999.000  -9999.000  30.035     5200.507  
5225.948   12.250     -9999.000  0.004      0.225      0.002      3.687      0.000      0.198      0.000      30.019     43.696     12.034     -9999.000  -0.047     2.232      5.051      -9999.000  -9999.000  -9999.000  -9999.000  -9999.000  0.192      -9999.000  -9999.000  -9999.000  -9999.000  -9999.000  -9999.000  5200.659  
5226.101   12.250     -9999.000  0.004      0.225      0.002      3.687      0.000      0.198      0.000      30.019     43.696     12.034     -9999.000  -0.047     2.232      5.051      -9999.000  -9999.000  -9999.000  -9999.000  -9999.000  0.192      -9999.000  -9999.000  -9999.000  -9999.000  -9999.000  -9999.000  5200.812  
5226.253   12.250     -9999.000  0.004      0.225      0.002      3.687      0.000      0.198      0.000      30.019     43.696     12.034     -9999.000  -0.047     2.232      5.051      -9999.000  -9999.000  -9999.000  -9999.000  -9999.000  0.192      -9999.000  -9999.000  -9999.000  -9999.000  -9999.000  -9999.000  5200.964  
5226.406   12.250     -9999.000  0.004      0.225      0.002      3.687      0.000      0.198      0.000      30.019     43.696     12.034     -9999.000  -0.047     2.232      5.051      -9999.000  -9999.000  -9999.000  -9999.000  -9999.000  0.192      -9999.000  -9999.000  -9999.000  -9999.000  -9999.000  -9999.000  5201.116  
5226.558   12.250     -9999.000  0.004      0.225      0.002      3.687      0.000      0.198      0.000      30.019     43.696     12.034     -9999.000  -0.047     2.232      5.051      -9999.000  -9999.000  -9999.000  -9999.000  -9999.000  0.192      -9999.000  -9999.000  -9999.000  -9999.000  -9999.000  -9999.000  5201.269  
5226.710   12.250     -9999.000  0.004      0.225      0.002      3.687      0.000      0.198      0.000      30.019     43.696     12.034     -9999.000  -0.047     2.232      5.051      -9999.000  -9999.000  -9999.000  -9999.000  -9999.000  0.192      -9999.000  -9999.000  -9999.000  -9999.000  -9999.000  -9999.000  5201.421  
5226.863   12.250     -9999.000  0.004      0.225      0.002      3.687      0.000      0.198      0.000      30.019     43.696     12.034     -9999.000  -0.047     2.232      5.051      -9999.000  -9999.000  -9999.000  -9999.000  -9999.000  0.192      -9999.000  -9999.000  -9999.000  -9999.000  -9999.000  -9999.000  5201.574  
5227.015   12.250     -9999.000  0.004      0.225      0.002      3.687      0.000      0.198      0.000      30.019     43.696     12.034     -9999.000  -0.047     2.232      5.051      -9999.000  -9999.000  -9999.000  -9999.000  -9999.000  0.192      -9999.000  -9999.000  -9999.000  -9999.000  -9999.000  -9999.000  5201.726  
5227.168   12.250     -9999.000  0.004      0.225      0.002      3.687      0.000      0.198      0.000      30.019     43.696     12.034     -9999.000  -0.047     2.232      5.051      -9999.000  -9999.000  -9999.000  -9999.000  -9999.000  0.192      -9999.000  -9999.000  -9999.000  -9999.000  -9999.000  -9999.000  5201.878  
5227.320   12.250     -9999.000  0.004      0.225      0.002      3.687      0.000      0.198      0.000      30.019     43.696     12.034     -9999.000  -0.047     2.232      5.051      -9999.000  -9999.000  -9999.000  -9999.000  -9999.000  0.192      -9999.000  -9999.000  -9999.000  -9999.000  -9999.000  -9999.000  5202.031  
5227.472   12.250     -9999.000  0.004      0.225      0.002      3.687      0.000      0.198      0.000      30.019     43.696     12.034     -9999.000  -0.047     2.232      5.051      -9999.000  -9999.000  -9999.000  -9999.000  -9999.000  0.192      -9999.000  -9999.000  -9999.000  -9999.000  -9999.000  -9999.000  5202.183  
5227.625   12.250     -9999.000  0.004      0.225      0.002      3.687      0.000      0.198      0.000      30.019     43.696     12.034     -9999.000  -0.047     2.232      5.051      -9999.000  -9999.000  -9999.000  -9999.000  -9999.000  0.192      -9999.000  -9999.000  -9999.000  -9999.000  -9999.000  -9999.000  5202.336  
