~Version
 VERS              .         2.0                           : CWLS LOG ASCII STANDARD - VERSION 2.0
 WRAP              .         NO                            : ONE LINE PER DEPTH STEP
 DLM               .         SPACE                         : DELIMITING CHARACTER(SPACE TAB OR COMMA)
~Well Information
#_______________________________________________________________________________
#
#PARAMETER_NAME    .UNIT     VALUE                         : DESCRIPTION
#_______________________________________________________________________________
STRT               .M        5082.700                      : First reference value
STOP               .M        5352.753                      : Last reference value
STEP               .M        0.152                         : Step increment
NULL               .         -9999                         : Missing value
COMP               .         PETROBRAS                     : Company
WELL               .         7-SPH-16D-SPS                 : Well name
FLD                .         SAPINHOA                      : Field
LOC                .                                       : Location
CNTY               .                                       : County
STAT               .         SP                            : State
CTRY               .                                       : Country
SRVC               .                                       : Service Company
DATE               .                                       : Date
API                .                                       : API number
APD                .M        24.0                          : ABOVE PERMANENT DATUM
BHT                .degF     144.0                         : BOTTOMHOLE TEMPERATURE
BLI                .M        5312.4                        : BOTTOM LOGGED INTERVAL
BS                 .in       12.25                         : BIT SIZE
DCS                .         04/09/2014                    : DATE CIRCULATION STOPPED
DFD                .lb/gal   9.5                           : DRILLING FLUID DENSITY
DFT                .         BR-MUL                        : DRILLING FLUID TYPE
DLAB               .         05/09/2014                    : DATE LOGGING ON BOTTOM
EDF                .M        24.0                          : ELEVATION OF DRILLING FLOOR
EGL                .M        -2125.0                       : ELEVATION OF GROUND LEVEL
EKB                .M        -999.25                       : ELEVATION OF KELLY BUSHING
EPD                .M        0.0                           : ELEVATATION OF PERMANENT DATUM
LMF                .         MR                            : LOG MEASURED FROM
LUL                .         MCE                           : LOGGING UNIT LOCATION
LUN                .         11202303                      : LOGGING UNIT NUMBER
LONG               .         -43_10_06.229                 : LONGITUDE
MCST               .degF     -999.25                       : MUDCAKE SAMPLE TEMPERATURE
MFST               .degF     -999.25                       : MUD FILTRATE SAMPLE TEMPERATURE
MRT                .degF     144.0                         : MAXIMUM RECORDED TEMPERATURE
MST                .degF     -999.25                       : MUD SAMPLE TEMPERATURE
PDAT               .         NM                            : PERMANENT DATUM
PRODUCER-CODE      .         280                           : 
PRODUCER-NAME      .         Halliburton                   : 
RMB                .ohm.m    -999.25                       : RESISTIVITY OF MUD - BHT
RMCS               .ohm.m    -999.25                       : RESISTIVITY OF MUDCAKE SAMPLE
RMFS               .ohm.m    -999.25                       : RESISTIVITY OF MUD FILTRATE SAMPLE
RMS                .ohm.m    -999.25                       : RESISTIVITY OF MUD SAMPLE
RUN                .         01                            : RUN NUMBER 1
TCS                .h        05_30                         : TIME CIRCULATION STOPPED
TDD                .M        5343.0                        : DRILLERS DEPTH
TDL                .M        5345.0                        : LOGGERS DEPTH
TLAB               .h        16_45                         : TIME LOGGING ON BOTTOM
TLI                .M        5135.0                        : TOP LOGGED INTERVAL
X                  .M        683789.99900000               : X UTM Coordinate
Y                  .M        7152001.99900000              : Y UTM Coordinate
~Parameter Information Block
#_______________________________________________________________________________
#
#PARAMETER_NAME    .UNIT     VALUE                         : DESCRIPTION
#_______________________________________________________________________________
SET                .         BASE                          : 
TLFamily_BS        .         Bit Size                      : 
TLFamily_DT        .         Compressional Slowness        : 
TLFamily_DWAL      .         Aluminum Weight Fraction      : 
TLFamily_DWCA      .         Calcium Weight Fraction       : 
TLFamily_DWFE      .         Iron Weight Fraction          : 
TLFamily_DWGD      .         Gadolinium Weight Fraction    : 
TLFamily_DWK       .         Potassium Weight Fraction     : 
TLFamily_DWMG      .         Magnesium Weight Fraction     : 
TLFamily_DWMN      .         Manganese Weight Fraction     : 
TLFamily_DWS       .         Sulfur Weight Fraction        : 
TLFamily_DWSI      .         Silicon Weight Fraction       : 
TLFamily_DWTI      .         Titanium Weight Fraction      : 
TLFamily_GR        .         Gamma Ray                     : 
TLFamily_GRt       .         Gamma Ray                     : 
TLFamily_HCAL      .         Caliper                       : 
TLFamily_HDRA      .         Bulk Density Correction       : 
TLFamily_HFK       .         Potassium Concentration       : 
TLFamily_HTHO      .         Thorium Concentration         : 
TLFamily_HURA      .         Uranium Concentration         : 
TLFamily_MD        .         Measured Depth                : 
TLFamily_MPERM     .         NMR Permeability              : 
TLFamily_NMRE_Final .         NMR Bound Fluid Volume Fraction: 
TLFamily_NMRFL_Final .         NMR Free Fluids               : 
TLFamily_NMRT_Final .         NMR Porosity                  : 
TLFamily_NPHI      .         Neutron Porosity              : 
TLFamily_PE        .         Photoelectric Factor          : 
TLFamily_RD        .         Resistivity - Deep            : 
TLFamily_RHOB      .         Bulk Density                  : 
TLFamily_RM        .         Resistivity - Medium          : 
TLFamily_RS        .         Resistivity - Shallow         : 
TLFamily_T2LM      .         NMR T2 Logarithmic Mean       : 
TLFamily_TVDSS     .         True Vertical Depth Sub Sea   : 
~Curve Information
#_______________________________________________________________________________
#
#LOGNAME           .UNIT     LOG_ID                        : DESCRIPTION
#_______________________________________________________________________________
DEPTH              .M                                      :  
BS                 .in                                     : BS/Bit Size 
DT                 .us/ft                                  : DT/DTC 
DWAL               .kg/kg                                  : DAL/DryrockAlWF 
DWCA               .kg/kg                                  : DCA/DryrockCaWF 
DWFE               .kg/kg                                  : DFE/DryrockFeWF 
DWGD               .ppm                                    : DGD/DryrockGdWF 
DWK                .kg/kg                                  : DK/DryrockKWF 
DWMG               .kg/kg                                  : DMG/DryrockMgWF 
DWMN               .kg/kg                                  : DMN/DryrockMnWF 
DWS                .kg/kg                                  : DSUL/DryrockSuWF 
DWSI               .kg/kg                                  : DSI/DryrockSiWF 
DWTI               .kg/kg                                  : DTI/DryrockTiWF 
GR                 .gAPI                                   : GR/Gamma API 
GRt                .gAPI                                   : GKUT/GKUT 
HCAL               .in                                     : CALI/Caliper 
HDRA               .g/cm3                                  : DRHO/DensityCorr 
HFK                .%                                      : POTA/Potassium 
HTHO               .ppm                                    : THOR/Thorium 
HURA               .ppm                                    : URAN/Uranium 
MPERM              .mD                                     : MPERMT2/MrilT2KCoat 
NMRE_Final         .m3/m3                                  : MPHIT2/TA-grp T2 Effective Por 
NMRFL_Final        .unitless                               : MFFIT2/TA-grp T2 FreeFluid Ind 
NMRT_Final         .frac                                   : MSIGT2/TA-grp T2 Total Por. 
NPHI               .frac                                   : NPHI/Neutron Porosity 
PE                 .b/e                                    : PE/Pe 
RD                 .ohm.m                                  : RT90/90in Resistivity 2ft Res 
RHOB               .g/cm3                                  : RHOB/Density 
RM                 .ohm.m                                  : RT30/30in Resistivity 2ft Res 
RS                 .ohm.m                                  : RT10/10in Resistivity 2ft Res 
T2LM               .ms                                     : T2LM/T2 Log Mean 
TVDSS              .M                                      :  
~Ascii
# ...
5278.991   12.250     56.144     0.035      0.264      0.000      0.474      0.004      0.029      0.000      0.012      0.063      0.001      28.828     39.328     12.364     -0.003     0.374      1.359      3.363      5.246      0.087      0.066      0.089      0.067      4.203      102.643    2.594      112.853    122.239    210.112    5126.494  
5279.144   12.250     55.913     0.034      0.259      0.000      0.456      0.004      0.033      0.000      0.011      0.065      0.001      28.977     38.953     12.366     -0.002     0.387      1.632      3.236      4.704      0.085      0.066      0.091      0.062      4.178      100.404    2.612      111.167    119.636    178.061    5126.635  
5279.296   12.250     55.477     0.035      0.263      0.000      0.481      0.003      0.027      0.000      0.012      0.068      0.001      30.237     38.166     12.369     -0.001     0.414      1.790      2.978      3.701      0.080      0.064      0.091      0.061      4.171      105.664    2.607      119.315    127.347    143.121    5126.777  
5279.449   12.250     55.230     0.036      0.267      0.000      0.514      0.002      0.022      0.000      0.013      0.070      0.001      30.151     37.447     12.366     -0.001     0.400      1.910      2.851      3.441      0.077      0.061      0.085      0.060      4.148      109.850    2.601      125.778    133.079    187.847    5126.918  
5279.601   12.250     55.222     0.040      0.269      0.000      0.578      0.001      0.020      0.000      0.017      0.066      0.001      29.275     37.287     12.370     -0.002     0.302      1.993      2.955      3.957      0.076      0.060      0.078      0.073      4.081      109.466    2.614      127.013    129.519    282.794    5127.060  
5279.753   12.250     55.354     0.042      0.273      0.000      0.618      0.001      0.016      0.000      0.019      0.064      0.001      29.392     37.696     12.376     -0.006     0.219      1.969      3.139      6.474      0.073      0.060      0.073      0.082      4.059      105.177    2.635      122.167    122.605    329.095    5127.201  
5279.906   12.250     55.554     0.039      0.286      0.001      0.569      0.000      0.004      0.000      0.020      0.071      0.001      29.920     38.534     12.354     -0.012     0.090      1.877      3.426      9.136      0.070      0.061      0.071      0.086      4.089      96.044     2.642      111.025    116.428    299.211    5127.343  
5280.058   12.250     55.539     0.035      0.290      0.001      0.514      0.001      0.000      0.001      0.020      0.076      0.001      29.566     38.603     12.324     -0.013     0.047      1.671      3.515      4.961      0.069      0.059      0.073      0.084      4.078      90.292     2.616      103.773    105.619    225.523    5127.484  
5280.211   12.250     55.637     0.029      0.294      0.001      0.414      0.001      0.000      0.001      0.018      0.080      0.001      28.925     38.175     12.322     -0.015     0.040      1.483      3.530      2.169      0.075      0.056      0.082      0.077      4.050      87.367     2.584      100.083    100.291    157.451    5127.626  
5280.363   12.250     56.064     0.034      0.295      0.000      0.480      0.002      0.000      0.001      0.013      0.076      0.001      28.110     37.541     12.310     -0.015     0.063      1.440      3.449      2.678      0.083      0.060      0.090      0.067      4.107      88.458     2.579      101.234    104.358    141.353    5127.767  
5280.515   12.250     56.343     0.032      0.297      0.000      0.442      0.002      0.000      0.001      0.011      0.077      0.001      27.827     37.285     12.307     -0.013     0.103      1.497      3.325      4.448      0.089      0.066      0.094      0.069      4.147      92.731     2.589      106.091    107.874    139.432    5127.909  
5280.668   12.250     56.207     0.025      0.295      0.001      0.346      0.002      0.004      0.001      0.011      0.079      0.001      28.772     37.731     12.311     -0.009     0.160      1.727      3.260      3.144      0.087      0.062      0.090      0.079      4.044      110.390    2.596      126.927    125.665    146.106    5128.050  
5280.820   12.250     55.895     0.025      0.290      0.001      0.337      0.002      0.009      0.001      0.011      0.078      0.001      29.614     38.386     12.315     -0.005     0.196      1.888      3.187      1.421      0.084      0.053      0.085      0.079      3.986      125.610    2.610      143.387    139.768    163.725    5128.192  
5280.973   12.250     55.830     0.033      0.274      0.000      0.461      0.002      0.021      0.001      0.012      0.068      0.001      29.317     38.978     12.331     -0.001     0.230      1.873      3.233      0.968      0.080      0.049      0.081      0.068      4.077      133.793    2.615      148.247    141.421    187.184    5128.333  
5281.125   12.250     56.048     0.035      0.259      0.000      0.493      0.002      0.035      0.001      0.011      0.061      0.001      28.890     39.157     12.334     -0.001     0.224      1.831      3.258      1.032      0.080      0.049      0.081      0.069      4.243      135.030    2.609      145.094    135.652    182.909    5128.475  
5281.277   12.250     56.137     0.033      0.245      0.001      0.460      0.002      0.051      0.001      0.011      0.053      0.002      28.607     39.291     12.343     -0.006     0.228      1.877      3.260      0.778      0.081      0.047      0.085      0.078      4.450      139.985    2.609      144.267    131.343    141.706    5128.616  
5281.430   12.250     56.410     0.036      0.250      0.001      0.512      0.002      0.048      0.001      0.011      0.049      0.002      28.345     39.612     12.352     -0.012     0.227      1.947      3.225      0.639      0.081      0.045      0.088      0.081      4.480      144.294    2.610      143.321    128.417    119.304    5128.758  
5281.582   12.250     56.984     0.041      0.266      0.000      0.586      0.002      0.033      0.001      0.013      0.048      0.002      27.995     39.986     12.358     -0.021     0.221      2.306      3.058      0.818      0.082      0.047      0.088      0.079      4.418      137.601    2.610      130.785    115.696    135.836    5128.900  
5281.735   12.250     57.283     0.040      0.264      0.000      0.576      0.002      0.032      0.000      0.012      0.054      0.002      27.791     40.925     12.358     -0.026     0.219      2.901      3.073      1.265      0.082      0.052      0.086      0.076      4.349      119.182    2.596      109.854    96.632     161.223    5129.041  
5281.887   12.250     57.153     0.037      0.262      0.000      0.532      0.002      0.026      0.000      0.011      0.070      0.002      28.497     42.500     12.359     -0.024     0.197      3.205      3.199      1.785      0.082      0.055      0.084      0.087      4.194      97.435     2.580      85.139     73.828     171.423    5129.183  
5282.039   12.250     56.839     0.038      0.266      0.000      0.540      0.002      0.016      0.000      0.011      0.081      0.002      30.942     43.990     12.357     -0.017     0.162      3.411      3.407      1.883      0.082      0.055      0.082      0.095      4.124      97.250     2.573      81.325     69.122     181.765    5129.324  
5282.192   12.250     56.772     0.036      0.270      0.000      0.516      0.002      0.010      0.000      0.011      0.088      0.001      35.955     44.502     12.377     -0.003     0.143      3.328      3.625      1.509      0.080      0.053      0.080      0.095      4.177      127.175    2.582      99.074     79.877     182.760    5129.466  
5282.344   12.250     57.048     0.033      0.261      0.000      0.475      0.002      0.020      0.000      0.011      0.086      0.001      36.972     43.579     12.374     0.005      0.161      2.796      3.632      1.138      0.077      0.050      0.077      0.094      4.283      176.128    2.599      132.465    102.812    164.005    5129.607  
