~Version
 VERS              .         2.0                           : CWLS LOG ASCII STANDARD - VERSION 2.0
 WRAP              .         NO                            : ONE LINE PER DEPTH STEP
 DLM               .         SPACE                         : DELIMITING CHARACTER(SPACE TAB OR COMMA)
~Well Information
#_______________________________________________________________________________
#
#PARAMETER_NAME    .UNIT     VALUE                         : DESCRIPTION
#_______________________________________________________________________________
STRT               .M        5014.000                      : First reference value
STOP               .M        5322.763                      : Last reference value
STEP               .M        0.152                         : Step increment
NULL               .         -9999                         : Missing value
COMP               .         PETROBRAS                     : Company
WELL               .         7-SPH-20D-SPS                 : Well name
FLD                .         SAPINHOA                      : Field
LOC                .                                       : Location
CNTY               .                                       : County
STAT               .         SAO PAULO                     : State
CTRY               .         BRASIL                        : Country
SRVC               .                                       : Service Company
DATE               .                                       : Date
API                .         863160046300                  : API number
APD                .M        26.0                          : ABOVE PERMANENT DATUM
BHT                .degF     140.0                         : BOTTOMHOLE TEMPERATURE
BLI                .M        5313.7                        : BOTTOM LOGGED INTERVAL
BS                 .in       12.25                         : BIT SIZE
DCS                .         31/01/2016                    : DATE CIRCULATION STOPPED
DFD                .lb/gal   9.7                           : DRILLING FLUID DENSITY
DFT                .         OLEDRILL(BASE OLEFINA)        : DRILLING FLUID TYPE
DLAB               .         01/02/2016                    : DATE LOGGING ON BOTTOM
EDF                .M        26.0                          : ELEVATION OF DRILLING FLOOR
EGL                .M        -2129.0                       : ELEVATION OF GROUND LEVEL
EKB                .M        26.0                          : ELEVATION OF KELLY BUSHING
EPD                .M        0                             : ELEVATATION OF PERMANENT DATUM
GDAT               .         SIRGAS2000                    : Geodetic Datum
LMF                .         MR                            : LOG MEASURED FROM
LUL                .         MCE                           : LOGGING UNIT LOCATION
LUN                .         11792307                      : LOGGING UNIT NUMBER
LATI               .         -25_41_36.136                 : Latitude
LONG               .         -43_10_30,988                 : LONGITUDE
MCST               .degF     -999.25                       : MUDCAKE SAMPLE TEMPERATURE
MFST               .degF     -999.25                       : MUD FILTRATE SAMPLE TEMPERATURE
MRT                .degF     140.0                         : MAXIMUM RECORDED TEMPERATURE
MST                .degF     -999.25                       : MUD SAMPLE TEMPERATURE
ORIGINALWELLNAME   .         7SPH 0020D SPS                : 
PDAT               .         NM                            : PERMANENT DATUM
PRODUCER-CODE      .         280                           : 
PRODUCER-NAME      .         Halliburton                   : 
RMB                .ohm.m    -999.25                       : RESISTIVITY OF MUD - BHT
RMCS               .ohm.m    -999.25                       : RESISTIVITY OF MUDCAKE SAMPLE
RMFS               .ohm.m    -999.25                       : RESISTIVITY OF MUD FILTRATE SAMPLE
RMS                .ohm.m    -999.25                       : RESISTIVITY OF MUD SAMPLE
RUN                .         01                            : RUN NUMBER 1
TCS                .h        09_00                         : TIME CIRCULATION STOPPED
TDD                .M        5315.0                        : DRILLERS DEPTH
TDL                .M        5316.9                        : LOGGERS DEPTH
TLAB               .h        08_00                         : TIME LOGGING ON BOTTOM
TLI                .M        5013.8                        : TOP LOGGED INTERVAL
X                  .M        683110.00000000               : X UTM Coordinate
Y                  .M        7157356.00000000              : Y UTM Coordinate
~Parameter Information Block
#_______________________________________________________________________________
#
#PARAMETER_NAME    .UNIT     VALUE                         : DESCRIPTION
#_______________________________________________________________________________
SET                .         BASE                          : 
TLFamily_BS        .         Bit Size                      : 
TLFamily_DT        .         Compressional Slowness        : 
TLFamily_DWAL      .         Aluminum Weight Fraction      : 
TLFamily_DWCA      .         Calcium Weight Fraction       : 
TLFamily_DWFE      .         Iron Weight Fraction          : 
TLFamily_DWGD      .         Gadolinium Weight Fraction    : 
TLFamily_DWK       .         Potassium Weight Fraction     : 
TLFamily_DWMG      .         Magnesium Weight Fraction     : 
TLFamily_DWMN      .         Manganese Weight Fraction     : 
TLFamily_DWS       .         Sulfur Weight Fraction        : 
TLFamily_DWSI      .         Silicon Weight Fraction       : 
TLFamily_DWTI      .         Titanium Weight Fraction      : 
TLFamily_GR        .         Gamma Ray                     : 
TLFamily_GRt       .         Gamma Ray                     : 
TLFamily_HCAL      .         Caliper                       : 
TLFamily_HDRA      .         Bulk Density Correction       : 
TLFamily_HFK       .         Potassium Concentration       : 
TLFamily_HTHO      .         Thorium Concentration         : 
TLFamily_HURA      .         Uranium Concentration         : 
TLFamily_MD        .         Measured Depth                : 
TLFamily_MPERM     .         NMR Permeability              : 
TLFamily_NMRE_Final .         NMR Bound Fluid Volume Fraction: 
TLFamily_NMRFL_Final .         NMR Free Fluids               : 
TLFamily_NMRT_Final .         NMR Porosity                  : 
TLFamily_NPHI      .         Neutron Porosity              : 
TLFamily_PE        .         Photoelectric Factor          : 
TLFamily_RD        .         Resistivity - Deep            : 
TLFamily_RHOB      .         Bulk Density                  : 
TLFamily_RM        .         Resistivity - Medium          : 
TLFamily_RS        .         Resistivity - Shallow         : 
TLFamily_T2LM      .         NMR T2 Logarithmic Mean       : 
TLFamily_TVDSS     .         True Vertical Depth Sub Sea   : 
~Curve Information
#_______________________________________________________________________________
#
#LOGNAME           .UNIT     LOG_ID                        : DESCRIPTION
#_______________________________________________________________________________
DEPTH              .M                                      :  
BS                 .in                                     : BS/Bit Size 
DT                 .us/ft                                  : DTC/MonoDeltaT 
DWAL               .kg/kg                                  : DAL/DryrockAlWF 
DWCA               .kg/kg                                  : DCA/DryrockCaWF 
DWFE               .kg/kg                                  : DFE/DryrockFeWF 
DWGD               .ppm                                    : DGD/DryrockGdWF 
DWK                .kg/kg                                  : DK/DryrockKWF 
DWMG               .kg/kg                                  : DMG/DryrockMgWF 
DWMN               .kg/kg                                  : DMN/DryrockMnWF 
DWS                .kg/kg                                  : DSUL/DryrockSuWF 
DWSI               .kg/kg                                  : DSI/DryrockSiWF 
DWTI               .kg/kg                                  : DTI/DryrockTiWF 
GR                 .gAPI                                   : GR/Gamma API 
GRt                .gAPI                                   : GKUT/GammaKUT 
HCAL               .in                                     : CALI/Caliper 
HDRA               .g/cm3                                  : Density Delta Rho Filtered 
HFK                .%                                      : POTA/Potassium 
HTHO               .ppm                                    : THOR/Thorium 
HURA               .ppm                                    : URAN/Uranium 
MPERM              .mD                                     : MPERMT2/MrilT2KCoat 
NMRE_Final         .m3/m3                                  : MPHIT2/TA-grp T2 Effective Por 
NMRFL_Final        .unitless                               : MFFIT2/TA-grp T2 FreeFluid Ind 
NMRT_Final         .frac                                   : MSIGT2/TA-grp T2 Total Por. 
NPHI               .frac                                   : POROSIDADE NEUTRONICA (COMPOSICAO DE CURVAS CABO E/OU LWD) 
PE                 .b/e                                    : Density PE Filtered 
RD                 .ohm.m                                  : RT90/90in Resistivity 2ft Res 
RHOB               .g/cm3                                  : DENSIDADE (COMPOSICAO DE CURVAS CABO E/OU LWD ) 
RM                 .ohm.m                                  : RT30/30in Resistivity 2ft Res 
RS                 .ohm.m                                  : RT10/10in Resistivity 2ft Res 
T2LM               .ms                                     : T2LM/T2 Log Mean 
TVDSS              .M                                      :  
~Ascii
# ...
5126.167   12.250     60.029     0.011      0.270      0.003      0.000      0.013      0.015      0.000      0.002      0.107      0.002      22.324     26.536     13.007     0.086      0.228      0.516      2.348      136.667    0.108      0.098      0.108      0.181      6.705      814.370    2.514      669.856    635.205    406.399    5005.278  
5126.319   12.250     59.163     0.009      0.253      0.004      0.000      0.011      0.021      0.000      0.001      0.119      0.002      21.507     25.819     13.048     0.087      0.213      0.493      2.304      207.229    0.110      0.101      0.110      0.170      6.680      814.814    2.498      676.021    635.694    399.124    5005.417  
5126.471   12.250     58.422     0.009      0.231      0.004      0.000      0.012      0.029      0.001      0.001      0.131      0.002      20.120     25.007     13.087     0.074      0.279      0.422      2.120      244.350    0.109      0.101      0.109      0.155      6.718      623.812    2.500      500.460    476.755    386.749    5005.556  
5126.624   12.250     58.517     0.010      0.209      0.003      0.000      0.012      0.048      0.001      0.001      0.127      0.002      21.543     25.530     13.082     0.057      0.374      0.437      2.000      160.825    0.105      0.098      0.106      0.155      6.777      343.661    2.542      274.478    273.179    363.198    5005.695  
5126.776   12.250     59.265     0.012      0.190      0.002      0.000      0.015      0.067      0.001      0.001      0.115      0.002      26.583     28.314     13.004     0.047      0.581      0.464      1.925      49.607     0.102      0.090      0.104      0.166      6.884      168.643    2.566      147.787    156.344    323.536    5005.834  
5126.929   12.250     60.785     0.014      0.194      0.001      0.000      0.018      0.069      0.001      0.003      0.103      0.003      34.172     31.966     12.920     0.042      0.710      0.551      2.066      21.488     0.105      0.086      0.107      0.174      7.066      125.046    2.554      111.292    119.293    331.229    5005.972  
5127.081   12.250     62.375     0.017      0.219      0.000      0.000      0.021      0.063      0.001      0.006      0.077      0.004      35.061     37.899     12.873     0.035      0.751      0.819      2.551      28.459     0.116      0.093      0.117      0.183      7.386      120.113    2.517      107.291    116.356    361.849    5006.111  
5127.233   12.250     63.926     0.018      0.239      0.000      37482.969  0.022      0.063      0.001      0.005      0.053      0.004      33.415     41.279     12.901     0.031      0.720      1.089      2.884      53.887     0.126      0.103      0.126      0.190      7.752      134.841    2.498      119.722    130.984    369.347    5006.250  
5127.386   12.250     64.957     0.017      0.240      0.000      107210.055 0.022      0.076      0.001      0.002      0.034      0.004      30.595     43.800     12.939     0.032      0.592      1.667      3.179      72.172     0.131      0.109      0.132      0.196      7.897      161.149    2.486      142.268    156.018    379.716    5006.389  
5127.538   12.250     66.179     0.016      0.238      0.001      203997.953 0.020      0.081      0.001      0.000      0.030      0.004      29.803     44.534     12.973     0.036      0.478      2.172      3.278      79.776     0.134      0.113      0.137      0.207      7.969      172.871    2.470      153.180    166.448    371.165    5006.528  
5127.691   12.250     67.483     0.016      0.258      0.001      395888.656 0.018      0.068      0.000      0.000      0.030      0.003      30.512     44.086     13.051     0.044      0.361      2.821      3.198      98.203     0.139      0.122      0.150      0.217      8.047      206.706    2.431      183.650    192.085    294.414    5006.667  
5127.843   12.250     69.219     0.017      0.277      0.001      391048.531 0.017      0.054      0.000      0.000      0.028      0.003      32.006     43.846     13.101     0.059      0.294      3.097      3.190      114.268    0.145      0.132      0.167      0.229      8.151      285.519    2.363      242.288    242.848    230.869    5006.806  
5127.995   12.250     71.007     0.017      0.307      0.001      93662.867  0.017      0.035      0.000      0.000      0.025      0.002      33.910     44.172     13.151     0.079      0.206      3.093      3.386      157.705    0.155      0.144      0.182      0.242      8.259      663.740    2.307      547.206    519.639    215.824    5006.944  
5128.148   12.250     72.637     0.016      0.333      0.001      2781.722   0.017      0.021      0.000      0.000      0.020      0.002      34.788     44.065     13.176     0.102      0.182      2.819      3.521      383.027    0.172      0.162      0.193      0.253      8.277      894.231    2.271      770.057    730.738    288.836    5007.083  
5128.300   12.250     73.306     0.014      0.356      0.001      0.020      0.015      0.009      0.000      0.000      0.015      0.002      33.878     43.497     13.206     0.125      0.203      2.514      3.533      837.365    0.187      0.174      0.197      0.257      8.191      1003.240   2.254      884.874    854.063    413.293    5007.222  
5128.453   12.250     72.921     0.012      0.377      0.000      0.000      0.015      0.000      0.000      0.000      0.008      0.001      31.825     41.838     13.272     0.140      0.267      2.135      3.373      1106.557   0.197      0.177      0.198      0.252      8.001      1131.854   2.251      1005.191   964.688    509.491    5007.361  
5128.605   12.250     71.722     0.010      0.376      0.000      0.000      0.013      0.003      0.000      0.002      0.007      0.001      30.809     40.025     13.300     0.137      0.328      1.996      3.113      964.545    0.195      0.174      0.195      0.243      7.710      1183.605   2.252      1041.835   986.111    504.557    5007.500  
5128.757   12.250     69.589     0.011      0.372      0.000      0.000      0.013      0.003      0.000      0.002      0.010      0.002      30.293     36.545     13.292     0.100      0.357      1.914      2.705      640.427    0.185      0.163      0.185      0.234      7.233      1258.001   2.263      1084.187   1028.093   467.030    5007.639  
5128.910   12.250     66.725     0.012      0.367      0.000      0.000      0.015      0.003      0.000      0.003      0.013      0.002      27.532     34.319     13.256     0.058      0.329      1.781      2.557      359.850    0.171      0.148      0.171      0.207      6.805      1322.112   2.305      1129.274   1053.034   426.156    5007.778  
5129.062   12.250     63.542     0.013      0.360      0.000      0.000      0.017      0.001      0.000      0.005      0.021      0.002      24.702     31.185     13.091     0.033      0.246      1.470      2.475      185.504    0.155      0.132      0.155      0.179      6.618      1446.862   2.373      1239.764   1118.646   380.422    5007.917  
5129.215   12.250     60.334     0.013      0.348      0.000      0.000      0.017      0.005      0.001      0.008      0.028      0.002      20.816     29.286     12.909     0.021      0.197      1.283      2.424      102.272    0.138      0.117      0.139      0.145      6.545      1537.106   2.463      1333.005   1175.829   334.789    5008.056  
5129.367   12.250     58.641     0.013      0.334      0.000      0.000      0.016      0.005      0.001      0.011      0.041      0.002      20.015     27.213     12.686     0.019      0.129      1.123      2.377      56.477     0.122      0.103      0.125      0.103      6.623      1608.738   2.543      1400.276   1220.246   287.185    5008.195  
5129.519   12.250     57.921     0.012      0.329      0.000      0.000      0.015      0.006      0.001      0.012      0.047      0.002      20.276     26.429     12.653     0.019      0.107      1.253      2.282      27.054     0.108      0.089      0.110      0.088      6.847      1635.522   2.580      1425.547   1238.550   253.616    5008.334  
