~Version
 VERS              .         2.0                           : CWLS LOG ASCII STANDARD - VERSION 2.0
 WRAP              .         NO                            : ONE LINE PER DEPTH STEP
 DLM               .         SPACE                         : DELIMITING CHARACTER(SPACE TAB OR COMMA)
~Well Information
#_______________________________________________________________________________
#
#PARAMETER_NAME    .UNIT     VALUE                         : DESCRIPTION
#_______________________________________________________________________________
STRT               .M        4949.000                      : First reference value
STOP               .M        5060.404                      : Last reference value
STEP               .M        0.152                         : Step increment
NULL               .         -9999                         : Missing value
COMP               .         PETROBRAS                     : Company
WELL               .         7-SPH-22-SPS                  : Well name
FLD                .         SAPINHOA                      : Field
LOC                .                                       : Location
CNTY               .                                       : County
STAT               .         SAO PAULO                     : State
CTRY               .         BR                            : Country
SRVC               .                                       : Service Company
DATE               .         25/07/2016                    : Date
API                .         863160046800                  : API number
APD                .M        26.0                          : ABOVE PERMANENT DATUM
BHT                .degF     140.0                         : BOTTOMHOLE TEMPERATURE
BLI                .M        5055.8                        : BOTTOM LOGGED INTERVAL
BS                 .in       8.5                           : BIT SIZE
CBDR               .M        4981                          : Casing Bottom (Driller)
CBLO               .M        4981                          : Casing Bottom of Logger
CSIZ               .in       10.75                         : Casing Outer Diameter
CWEI               .lb/ft    85.3                          : Casing Weight
DCS                .         23/07/2016                    : DATE CIRCULATION STOPPED
DFD                .lb/gal   9.7                           : DRILLING FLUID DENSITY
DFT                .         CATIONICO_SCOL (BASE AGUA)    : DRILLING FLUID TYPE
DLAB               .         25/07/2016                    : DATE LOGGING ON BOTTOM
EDF                .M        26.0                          : ELEVATION OF DRILLING FLOOR
EGL                .M        -2144.0                       : ELEVATION OF GROUND LEVEL
EKB                .M        -999.25                       : ELEVATION OF KELLY BUSHING
EPD                .M        0.0                           : ELEVATATION OF PERMANENT DATUM
GDAT               .                                       : Geodetic Datum
LMF                .         MR                            : LOG MEASURED FROM
LUL                .         MCE                           : LOGGING UNIT LOCATION
LUN                .         10898943                      : LOGGING UNIT NUMBER
LATI               .         -25_48_08.320                 : Latitude
LONG               .         -43_13_44,430                 : LONGITUDE
MCST               .degF     66.1                          : MUDCAKE SAMPLE TEMPERATURE
MFST               .degF     66.4                          : MUD FILTRATE SAMPLE TEMPERATURE
MRT                .degF     140.0                         : MAXIMUM RECORDED TEMPERATURE
MST                .degF     65.8                          : MUD SAMPLE TEMPERATURE
ORIGINALWELLNAME   .         7SPH 0022  SPS                : 
PDAT               .         NM                            : PERMANENT DATUM
PRODUCER-CODE      .         280                           : 
PRODUCER-NAME      .         Halliburton                   : 
RMB                .ohm.m    0.040                         : RESISTIVITY OF MUD - BHT
RMCS               .ohm.m    0.140                         : RESISTIVITY OF MUDCAKE SAMPLE
RMFS               .ohm.m    0.012                         : RESISTIVITY OF MUD FILTRATE SAMPLE
RMS                .ohm.m    0.080                         : RESISTIVITY OF MUD SAMPLE
RUN                .         01                            : RUN NUMBER 1
TCS                .h        19_00                         : TIME CIRCULATION STOPPED
TDD                .M        5058.0                        : DRILLERS DEPTH
TDL                .M        5057.1                        : LOGGERS DEPTH
TLAB               .h        07_15                         : TIME LOGGING ON BOTTOM
TLI                .M        4950.0                        : TOP LOGGED INTERVAL
X                  .M        677550.00000000               : X or East-West coordinate
Y                  .M        7145014.00000000              : Y or North South coordinate
~Parameter Information Block
#_______________________________________________________________________________
#
#PARAMETER_NAME    .UNIT     VALUE                         : DESCRIPTION
#_______________________________________________________________________________
SET                .         BASE                          : 
TLFamily_BS        .         Bit Size                      : 
TLFamily_DT        .         Compressional Slowness        : 
TLFamily_DWAL      .         Aluminum Weight Fraction      : 
TLFamily_DWCA      .         Calcium Weight Fraction       : 
TLFamily_DWFE      .         Iron Weight Fraction          : 
TLFamily_DWK       .         Potassium Weight Fraction     : 
TLFamily_DWMG      .         Magnesium Weight Fraction     : 
TLFamily_DWMN      .         Manganese Weight Fraction     : 
TLFamily_DWS       .         Sulfur Weight Fraction        : 
TLFamily_DWSI      .         Silicon Weight Fraction       : 
TLFamily_DWTI      .         Titanium Weight Fraction      : 
TLFamily_GR        .         Gamma Ray                     : 
TLFamily_GRt       .         Gamma Ray                     : 
TLFamily_HCAL      .         Caliper                       : 
TLFamily_HDRA      .         Bulk Density Correction       : 
TLFamily_HFK       .         Potassium Concentration       : 
TLFamily_HTHO      .         Thorium Concentration         : 
TLFamily_HURA      .         Uranium Concentration         : 
TLFamily_MD        .         Measured Depth                : 
TLFamily_MPERM     .         NMR Permeability              : 
TLFamily_NMRE_Final .         NMR Bound Fluid Volume Fraction: 
TLFamily_NMRFL_Final .         NMR Free Fluids               : 
TLFamily_NMRT_Final .         NMR Porosity                  : 
TLFamily_NPHI      .         Neutron Porosity              : 
TLFamily_PE        .         Photoelectric Factor          : 
TLFamily_RD        .         Resistivity - Deep            : 
TLFamily_RHOB      .         Bulk Density                  : 
TLFamily_RS        .         Resistivity - Shallow         : 
TLFamily_T2LM      .         NMR T2 Logarithmic Mean       : 
TLFamily_TVDSS     .         True Vertical Depth Sub Sea   : 
~Curve Information
#_______________________________________________________________________________
#
#LOGNAME           .UNIT     LOG_ID                        : DESCRIPTION
#_______________________________________________________________________________
DEPTH              .M                                      :  
BS                 .in                                     : BS/Bit Size 
DT                 .us/ft                                  : SONICO COMPRESSIONAL (COMPOSICAO DE CURVAS CABO E/OU LWD) 
DWAL               .kg/kg                                  : DAL/DryrockAlWF 
DWCA               .kg/kg                                  : DCA/DryrockCaWF 
DWFE               .kg/kg                                  : DFE/DryrockFeWF 
DWK                .kg/kg                                  : DK/DryrockKWF 
DWMG               .kg/kg                                  : DMG/DryrockMgWF 
DWMN               .kg/kg                                  : DMN/DryrockMnWF 
DWS                .kg/kg                                  : DSUL/DryrockSuWF 
DWSI               .kg/kg                                  : DSI/DryrockSiWF 
DWTI               .kg/kg                                  : DTI/DryrockTiWF 
GR                 .gAPI                                   : GR/Gamma API 
GRt                .gAPI                                   : GKUT/GammaKUT 
HCAL               .in                                     : CALI/Caliper 
HDRA               .g/cm3                                  : DRHO/DensityCorr 
HFK                .%                                      : POTA/Potassium 
HTHO               .ppm                                    : THOR/Thorium 
HURA               .ppm                                    : URAN/Uranium 
MPERM              .mD                                     : MPERMT2/MrilT2KCoat 
NMRE_Final         .m3/m3                                  : MPHIT2/TA-grp T2 Effective Por 
NMRFL_Final        .unitless                               : MFFIT2/TA-grp T2 FreeFluid Ind 
NMRT_Final         .frac                                   : MSIGT2/TA-grp T2 Total Por. 
NPHI               .frac                                   : NPHI/Neutron Porosity 
PE                 .b/e                                    : PE/Pe 
RD                 .ohm.m                                  : LLD/LLD 
RHOB               .g/cm3                                  : RHOB/Density 
RS                 .ohm.m                                  : LLS/LLS 
T2LM               .ms                                     : T2LM/T2 Log Mean 
TVDSS              .M                                      :  
~Ascii
# ...
4990.910   8.500      67.860     0.004      0.192      0.000      0.001      0.059      0.001      0.011      0.136      0.001      48.363     33.307     8.499      -0.004     0.108      0.242      3.429      33.813     0.114      0.093      0.114      0.136      3.896      828.370    2.549      842.608    375.955    4958.669  
4991.062   8.500      67.321     0.003      0.180      0.001      0.001      0.073      0.001      0.009      0.130      0.001      45.906     29.229     8.503      -0.002     0.056      0.172      3.093      24.467     0.107      0.087      0.107      0.137      4.172      868.515    2.584      899.238    398.362    4958.820  
4991.215   8.500      65.874     0.002      0.177      0.000      0.001      0.075      0.001      0.008      0.132      0.000      37.609     22.716     8.501      -0.002     0.009      0.273      2.414      13.423     0.101      0.079      0.101      0.119      4.171      1504.414   2.597      1807.930   412.327    4958.971  
4991.367   8.500      63.283     0.001      0.176      0.000      0.001      0.076      0.001      0.007      0.134      0.000      27.264     20.246     8.502      -0.004     0.000      0.486      2.077      6.784      0.097      0.071      0.097      0.109      3.817      1544.917   2.596      1854.935   410.727    4959.122  
4991.520   8.500      63.322     0.001      0.175      0.000      0.000      0.078      0.001      0.008      0.130      0.000      14.448     19.292     8.502      -0.008     0.000      0.793      1.859      4.524      0.094      0.067      0.095      0.110      3.309      994.446    2.584      975.248    380.218    4959.274  
4991.672   8.500      64.240     0.003      0.169      0.001      0.000      0.093      0.001      0.008      0.111      0.000      12.967     20.385     8.502      -0.008     0.004      0.957      1.915      4.065      0.095      0.066      0.096      0.107      3.305      955.542    2.576      921.265    341.088    4959.425  
4991.824   8.500      65.807     0.007      0.172      0.001      0.000      0.093      0.001      0.008      0.102      0.000      15.957     23.710     8.502      -0.006     0.029      1.182      2.159      6.787      0.102      0.073      0.104      0.109      3.563      846.997    2.600      782.171    289.650    4959.576  
4991.977   8.500      66.590     0.010      0.174      0.000      0.000      0.091      0.002      0.008      0.099      0.000      20.508     26.622     8.501      -0.005     0.047      1.351      2.389      13.105     0.105      0.081      0.107      0.117      3.622      780.103    2.620      716.482    297.170    4959.727  
4992.129   8.500      67.040     0.015      0.173      0.000      0.000      0.089      0.002      0.007      0.098      0.001      26.801     32.818     8.505      -0.003     0.081      1.533      2.954      21.321     0.106      0.086      0.108      0.144      3.487      799.338    2.632      755.048    336.296    4959.879  
4992.282   8.500      67.228     0.019      0.175      0.000      0.000      0.087      0.002      0.007      0.096      0.001      27.005     37.672     8.505      -0.003     0.081      1.591      3.472      26.869     0.106      0.088      0.107      0.149      3.404      769.823    2.618      698.726    368.102    4960.030  
4992.434   8.500      66.366     0.020      0.185      0.000      0.000      0.082      0.002      0.006      0.091      0.001      31.157     45.372     8.506      -0.005     0.105      1.451      4.339      31.934     0.103      0.087      0.103      0.144      3.363      826.753    2.566      696.072    379.270    4960.181  
4992.586   8.500      65.206     0.022      0.188      0.000      0.000      0.082      0.001      0.006      0.085      0.001      39.773     47.679     8.507      -0.009     0.133      1.321      4.593      33.634     0.101      0.086      0.101      0.138      3.546      872.317    2.536      698.823    365.433    4960.332  
4992.739   8.500      67.512     0.024      0.192      0.000      0.000      0.084      0.001      0.007      0.076      0.001      45.357     46.200     8.506      -0.017     0.184      1.096      4.420      21.432     0.104      0.084      0.104      0.151      4.129      894.993    2.498      705.130    325.388    4960.484  
4992.891   8.500      70.732     0.027      0.206      0.000      0.000      0.072      0.001      0.009      0.073      0.001      40.264     40.592     8.507      -0.030     0.238      0.874      3.782      13.238     0.113      0.084      0.113      0.170      4.614      1331.964   2.445      1095.181   292.551    4960.635  
4993.044   8.500      72.473     0.029      0.229      0.000      0.000      0.055      0.001      0.011      0.072      0.001      33.254     31.997     8.504      -0.034     0.259      0.801      2.815      12.656     0.126      0.087      0.126      0.162      4.301      3938.527   2.409      4460.140   286.343    4960.786  
4993.196   8.500      72.441     0.029      0.237      0.000      0.000      0.050      0.001      0.011      0.070      0.001      27.623     23.270     8.503      -0.030     0.235      0.812      1.880      18.956     0.141      0.097      0.141      0.157      3.967      6521.110   2.392      10846.016  308.528    4960.937  
4993.348   8.500      71.721     0.026      0.246      0.000      0.000      0.047      0.001      0.011      0.067      0.001      19.136     17.611     8.506      -0.027     0.187      0.862      1.317      47.004     0.153      0.115      0.155      0.156      4.096      6918.548   2.381      11017.747  313.046    4961.089  
4993.501   8.500      71.415     0.024      0.256      0.000      0.001      0.041      0.001      0.012      0.068      0.001      11.575     13.992     8.507      -0.026     0.127      0.880      1.013      96.956     0.159      0.131      0.168      0.152      4.308      7126.041   2.367      9881.915   255.658    4961.240  
4993.653   8.500      71.316     0.019      0.244      0.000      0.001      0.055      0.001      0.012      0.065      0.001      9.424      12.928     8.506      -0.025     0.101      0.959      0.912      91.571     0.160      0.133      0.176      0.148      4.458      4295.420   2.375      6073.912   180.193    4961.391  
4993.806   8.500      71.197     0.018      0.245      0.000      0.001      0.056      0.001      0.011      0.064      0.001      9.064      12.199     8.506      -0.024     0.094      1.079      0.800      62.956     0.161      0.128      0.181      0.149      4.571      2285.252   2.396      2924.375   135.077    4961.542  
4993.958   8.500      71.118     0.018      0.255      0.000      0.001      0.047      0.001      0.012      0.066      0.000      8.437      11.640     8.509      -0.024     0.094      1.213      0.689      42.136     0.163      0.121      0.184      0.152      4.643      1518.726   2.407      1583.142   115.216    4961.694  
4994.110   8.500      70.871     0.016      0.263      0.000      0.000      0.041      0.000      0.012      0.069      0.000      8.958      11.410     8.509      -0.024     0.099      1.292      0.626      31.809     0.163      0.115      0.182      0.159      4.613      1115.004   2.409      1045.979   113.964    4961.845  
4994.263   8.500      69.889     0.014      0.259      0.000      0.000      0.043      0.000      0.013      0.072      0.000      11.028     11.496     8.508      -0.027     0.102      1.324      0.618      30.554     0.157      0.112      0.172      0.160      4.491      949.180    2.412      941.315    127.973    4961.996  
4994.415   8.500      68.889     0.013      0.258      0.000      0.000      0.043      0.001      0.012      0.074      0.000      13.864     11.973     8.507      -0.028     0.099      1.253      0.704      32.162     0.144      0.109      0.155      0.157      4.349      852.465    2.437      911.096    150.886    4962.147  
4994.568   8.500      67.601     0.014      0.257      0.000      0.000      0.044      0.001      0.011      0.074      0.000      14.678     12.565     8.507      -0.026     0.090      1.155      0.820      29.260     0.132      0.102      0.137      0.153      4.333      828.436    2.474      850.031    187.077    4962.299  
