~Version
 VERS              .         2.0                           : CWLS LOG ASCII STANDARD - VERSION 2.0
 WRAP              .         NO                            : ONE LINE PER DEPTH STEP
 DLM               .         SPACE                         : DELIMITING CHARACTER(SPACE TAB OR COMMA)
~Well Information
#_______________________________________________________________________________
#
#PARAMETER_NAME    .UNIT     VALUE                         : DESCRIPTION
#_______________________________________________________________________________
STRT               .M        4949.000                      : First reference value
STOP               .M        5060.404                      : Last reference value
STEP               .M        0.152                         : Step increment
NULL               .         -9999                         : Missing value
COMP               .         PETROBRAS                     : Company
WELL               .         7-SPH-22-SPS                  : Well name
FLD                .         SAPINHOA                      : Field
LOC                .                                       : Location
CNTY               .                                       : County
STAT               .         SAO PAULO                     : State
CTRY               .         BR                            : Country
SRVC               .                                       : Service Company
DATE               .         25/07/2016                    : Date
API                .         863160046800                  : API number
APD                .M        26.0                          : ABOVE PERMANENT DATUM
BHT                .degF     140.0                         : BOTTOMHOLE TEMPERATURE
BLI                .M        5055.8                        : BOTTOM LOGGED INTERVAL
BS                 .in       8.5                           : BIT SIZE
CBDR               .M        4981                          : Casing Bottom (Driller)
CBLO               .M        4981                          : Casing Bottom of Logger
CSIZ               .in       10.75                         : Casing Outer Diameter
CWEI               .lb/ft    85.3                          : Casing Weight
DCS                .         23/07/2016                    : DATE CIRCULATION STOPPED
DFD                .lb/gal   9.7                           : DRILLING FLUID DENSITY
DFT                .         CATIONICO_SCOL (BASE AGUA)    : DRILLING FLUID TYPE
DLAB               .         25/07/2016                    : DATE LOGGING ON BOTTOM
EDF                .M        26.0                          : ELEVATION OF DRILLING FLOOR
EGL                .M        -2144.0                       : ELEVATION OF GROUND LEVEL
EKB                .M        -999.25                       : ELEVATION OF KELLY BUSHING
EPD                .M        0.0                           : ELEVATATION OF PERMANENT DATUM
GDAT               .                                       : Geodetic Datum
LMF                .         MR                            : LOG MEASURED FROM
LUL                .         MCE                           : LOGGING UNIT LOCATION
LUN                .         10898943                      : LOGGING UNIT NUMBER
LATI               .         -25_48_08.320                 : Latitude
LONG               .         -43_13_44,430                 : LONGITUDE
MCST               .degF     66.1                          : MUDCAKE SAMPLE TEMPERATURE
MFST               .degF     66.4                          : MUD FILTRATE SAMPLE TEMPERATURE
MRT                .degF     140.0                         : MAXIMUM RECORDED TEMPERATURE
MST                .degF     65.8                          : MUD SAMPLE TEMPERATURE
ORIGINALWELLNAME   .         7SPH 0022  SPS                : 
PDAT               .         NM                            : PERMANENT DATUM
PRODUCER-CODE      .         280                           : 
PRODUCER-NAME      .         Halliburton                   : 
RMB                .ohm.m    0.040                         : RESISTIVITY OF MUD - BHT
RMCS               .ohm.m    0.140                         : RESISTIVITY OF MUDCAKE SAMPLE
RMFS               .ohm.m    0.012                         : RESISTIVITY OF MUD FILTRATE SAMPLE
RMS                .ohm.m    0.080                         : RESISTIVITY OF MUD SAMPLE
RUN                .         01                            : RUN NUMBER 1
TCS                .h        19_00                         : TIME CIRCULATION STOPPED
TDD                .M        5058.0                        : DRILLERS DEPTH
TDL                .M        5057.1                        : LOGGERS DEPTH
TLAB               .h        07_15                         : TIME LOGGING ON BOTTOM
TLI                .M        4950.0                        : TOP LOGGED INTERVAL
X                  .M        677550.00000000               : X or East-West coordinate
Y                  .M        7145014.00000000              : Y or North South coordinate
~Parameter Information Block
#_______________________________________________________________________________
#
#PARAMETER_NAME    .UNIT     VALUE                         : DESCRIPTION
#_______________________________________________________________________________
SET                .         BASE                          : 
TLFamily_BS        .         Bit Size                      : 
TLFamily_DT        .         Compressional Slowness        : 
TLFamily_DWAL      .         Aluminum Weight Fraction      : 
TLFamily_DWCA      .         Calcium Weight Fraction       : 
TLFamily_DWFE      .         Iron Weight Fraction          : 
TLFamily_DWK       .         Potassium Weight Fraction     : 
TLFamily_DWMG      .         Magnesium Weight Fraction     : 
TLFamily_DWMN      .         Manganese Weight Fraction     : 
TLFamily_DWS       .         Sulfur Weight Fraction        : 
TLFamily_DWSI      .         Silicon Weight Fraction       : 
TLFamily_DWTI      .         Titanium Weight Fraction      : 
TLFamily_GR        .         Gamma Ray                     : 
TLFamily_GRt       .         Gamma Ray                     : 
TLFamily_HCAL      .         Caliper                       : 
TLFamily_HDRA      .         Bulk Density Correction       : 
TLFamily_HFK       .         Potassium Concentration       : 
TLFamily_HTHO      .         Thorium Concentration         : 
TLFamily_HURA      .         Uranium Concentration         : 
TLFamily_MD        .         Measured Depth                : 
TLFamily_MPERM     .         NMR Permeability              : 
TLFamily_NMRE_Final .         NMR Bound Fluid Volume Fraction: 
TLFamily_NMRFL_Final .         NMR Free Fluids               : 
TLFamily_NMRT_Final .         NMR Porosity                  : 
TLFamily_NPHI      .         Neutron Porosity              : 
TLFamily_PE        .         Photoelectric Factor          : 
TLFamily_RD        .         Resistivity - Deep            : 
TLFamily_RHOB      .         Bulk Density                  : 
TLFamily_RS        .         Resistivity - Shallow         : 
TLFamily_T2LM      .         NMR T2 Logarithmic Mean       : 
TLFamily_TVDSS     .         True Vertical Depth Sub Sea   : 
~Curve Information
#_______________________________________________________________________________
#
#LOGNAME           .UNIT     LOG_ID                        : DESCRIPTION
#_______________________________________________________________________________
DEPTH              .M                                      :  
BS                 .in                                     : BS/Bit Size 
DT                 .us/ft                                  : SONICO COMPRESSIONAL (COMPOSICAO DE CURVAS CABO E/OU LWD) 
DWAL               .kg/kg                                  : DAL/DryrockAlWF 
DWCA               .kg/kg                                  : DCA/DryrockCaWF 
DWFE               .kg/kg                                  : DFE/DryrockFeWF 
DWK                .kg/kg                                  : DK/DryrockKWF 
DWMG               .kg/kg                                  : DMG/DryrockMgWF 
DWMN               .kg/kg                                  : DMN/DryrockMnWF 
DWS                .kg/kg                                  : DSUL/DryrockSuWF 
DWSI               .kg/kg                                  : DSI/DryrockSiWF 
DWTI               .kg/kg                                  : DTI/DryrockTiWF 
GR                 .gAPI                                   : GR/Gamma API 
GRt                .gAPI                                   : GKUT/GammaKUT 
HCAL               .in                                     : CALI/Caliper 
HDRA               .g/cm3                                  : DRHO/DensityCorr 
HFK                .%                                      : POTA/Potassium 
HTHO               .ppm                                    : THOR/Thorium 
HURA               .ppm                                    : URAN/Uranium 
MPERM              .mD                                     : MPERMT2/MrilT2KCoat 
NMRE_Final         .m3/m3                                  : MPHIT2/TA-grp T2 Effective Por 
NMRFL_Final        .unitless                               : MFFIT2/TA-grp T2 FreeFluid Ind 
NMRT_Final         .frac                                   : MSIGT2/TA-grp T2 Total Por. 
NPHI               .frac                                   : NPHI/Neutron Porosity 
PE                 .b/e                                    : PE/Pe 
RD                 .ohm.m                                  : LLD/LLD 
RHOB               .g/cm3                                  : RHOB/Density 
RS                 .ohm.m                                  : LLS/LLS 
T2LM               .ms                                     : T2LM/T2 Log Mean 
TVDSS              .M                                      :  
~Ascii
# ...
5013.770   8.500      70.777     0.021      0.237      0.000      0.001      0.063      0.001      0.011      0.057      0.001      8.645      10.800     8.497      0.001      0.061      1.112      0.691      7.705      0.105      0.078      0.116      0.106      3.866      3754.805   2.556      2253.946   218.148    4981.354  
5013.922   8.500      70.775     0.019      0.248      0.000      0.001      0.059      0.001      0.010      0.054      0.001      10.590     11.872     8.499      -0.004     0.021      0.730      1.019      16.214     0.120      0.093      0.136      0.118      3.769      4317.951   2.567      2662.297   227.611    4981.505  
5014.075   8.500      71.370     0.013      0.264      0.000      0.001      0.055      0.001      0.009      0.049      0.001      10.969     12.492     8.499      -0.006     0.006      0.679      1.133      65.532     0.145      0.120      0.157      0.119      3.755      7062.985   2.570      5103.959   321.569    4981.656  
5014.227   8.500      71.517     0.007      0.305      0.000      0.001      0.034      0.001      0.009      0.043      0.000      9.467      13.363     8.501      -0.011     0.005      0.828      1.178      110.961    0.159      0.131      0.164      0.142      3.823      4710.899   2.530      2400.508   460.750    4981.807  
5014.380   8.500      71.529     0.008      0.320      0.000      0.001      0.026      0.000      0.011      0.038      0.000      9.545      13.745     8.505      -0.016     0.011      0.945      1.168      140.295    0.166      0.135      0.167      0.167      3.897      4686.539   2.472      2330.335   623.422    4981.959  
5014.532   8.500      71.348     0.008      0.317      0.001      0.001      0.031      0.000      0.012      0.030      0.000      11.900     13.857     8.505      -0.021     0.029      1.092      1.093      233.205    0.167      0.141      0.167      0.166      4.097      4688.690   2.385      2340.662   744.214    4982.110  
5014.684   8.500      71.225     0.009      0.309      0.001      0.000      0.040      0.000      0.012      0.025      0.000      12.780     13.954     8.502      -0.021     0.036      1.115      1.084      444.280    0.167      0.148      0.167      0.165      4.261      4462.856   2.370      2232.226   800.052    4982.261  
5014.837   8.500      70.395     0.012      0.309      0.000      0.000      0.040      0.000      0.010      0.022      0.000      12.664     13.804     8.502      -0.022     0.067      1.169      0.994      384.547    0.169      0.147      0.169      0.167      4.407      5586.130   2.369      3780.911   747.608    4982.412  
5014.989   8.500      68.641     0.016      0.311      0.000      0.000      0.036      0.000      0.008      0.022      0.000      12.461     13.712     8.504      -0.023     0.088      1.283      0.904      216.899    0.173      0.144      0.173      0.168      4.425      5103.161   2.363      3605.594   639.299    4982.564  
5015.142   8.500      66.779     0.013      0.331      0.000      0.001      0.025      0.001      0.004      0.023      0.000      12.673     13.668     8.511      -0.024     0.121      1.349      0.817      158.395    0.176      0.143      0.179      0.176      4.441      5044.725   2.356      3554.612   522.928    4982.715  
5015.294   8.500      64.719     0.007      0.353      0.000      0.001      0.016      0.001      0.003      0.020      0.000      13.220     13.343     8.511      -0.025     0.158      1.337      0.721      151.630    0.175      0.144      0.183      0.178      4.391      5006.659   2.347      3546.652   404.600    4982.866  
5015.446   8.500      62.968     0.005      0.370      0.000      0.001      0.005      0.001      0.003      0.020      0.000      13.138     13.282     8.509      -0.028     0.178      1.274      0.702      164.964    0.167      0.143      0.179      0.173      4.330      4004.426   2.341      2854.858   333.790    4983.017  
5015.599   8.500      61.706     0.009      0.360      0.000      0.001      0.008      0.001      0.004      0.021      0.000      13.302     13.744     8.505      -0.031     0.185      1.238      0.753      194.950    0.161      0.140      0.169      0.172      4.361      2599.310   2.339      2186.241   324.508    4983.168  
5015.751   8.500      61.490     0.010      0.340      0.000      0.000      0.018      0.001      0.004      0.027      0.000      14.630     14.810     8.509      -0.030     0.178      1.432      0.814      81.254     0.152      0.121      0.153      0.166      4.457      864.620    2.345      987.484    348.512    4983.320  
5015.904   8.500      61.274     0.012      0.320      0.000      0.000      0.029      0.001      0.006      0.029      0.000      17.449     16.314     8.513      -0.024     0.194      1.707      0.853      35.377     0.143      0.107      0.143      0.130      4.533      391.653    2.356      342.145    350.069    4983.471  
5016.056   8.500      60.904     0.015      0.314      0.000      0.001      0.030      0.001      0.008      0.031      0.001      20.716     17.905     8.510      -0.015     0.242      1.958      0.854      20.055     0.132      0.095      0.132      0.097      4.577      262.077    2.370      201.192    345.676    4983.622  
5016.208   8.500      60.725     0.017      0.303      0.001      0.001      0.034      0.001      0.008      0.033      0.001      21.906     18.999     8.508      -0.008     0.302      2.163      0.796      11.873     0.120      0.086      0.124      0.090      4.599      195.206    2.401      162.280    299.655    4983.773  
5016.361   8.500      60.093     0.012      0.304      0.001      0.002      0.034      0.001      0.008      0.038      0.001      22.750     19.435     8.504      -0.003     0.357      2.162      0.748      10.916     0.110      0.084      0.121      0.092      4.637      159.456    2.481      141.360    218.840    4983.925  
5016.513   8.500      60.049     0.009      0.303      0.001      0.002      0.035      0.001      0.008      0.039      0.001      21.435     19.505     8.506      -0.001     0.363      2.147      0.749      15.330     0.102      0.087      0.118      0.092      4.646      148.131    2.542      145.436    189.748    4984.076  
5016.666   8.500      60.519     0.008      0.297      0.001      0.003      0.040      0.001      0.007      0.041      0.001      17.599     19.145     8.503      -0.003     0.338      2.165      0.747      21.156     0.098      0.087      0.110      0.094      4.568      169.859    2.557      164.471    249.144    4984.227  
5016.818   8.500      61.235     0.011      0.277      0.001      0.002      0.054      0.001      0.005      0.040      0.001      14.399     18.295     8.503      -0.010     0.278      2.134      0.769      19.721     0.095      0.082      0.100      0.098      4.441      184.016    2.547      183.212    399.851    4984.378  
5016.970   8.500      61.730     0.015      0.259      0.001      0.002      0.066      0.001      0.006      0.036      0.000      14.657     17.780     8.503      -0.014     0.225      2.040      0.841      14.264     0.092      0.076      0.093      0.103      4.422      190.945    2.541      193.643    523.185    4984.529  
5017.123   8.500      61.987     0.016      0.254      0.001      0.001      0.071      0.001      0.008      0.032      0.000      15.029     16.604     8.500      -0.019     0.168      1.929      0.851      12.485     0.092      0.075      0.093      0.095      4.416      200.433    2.543      208.063    441.680    4984.681  
5017.275   8.500      62.167     0.014      0.255      0.001      0.001      0.071      0.001      0.008      0.032      0.000      14.556     15.827     8.498      -0.021     0.148      1.767      0.858      10.142     0.095      0.076      0.101      0.089      4.440      224.737    2.551      237.950    267.307    4984.832  
5017.428   8.500      62.480     0.010      0.262      0.002      0.000      0.069      0.001      0.008      0.032      0.000      13.232     14.947     8.500      -0.020     0.104      1.622      0.890      6.897      0.096      0.075      0.110      0.088      4.433      301.738    2.563      256.066    162.344    4984.983  
