~Version
 VERS              .         2.0                           : CWLS LOG ASCII STANDARD - VERSION 2.0
 WRAP              .         NO                            : ONE LINE PER DEPTH STEP
 DLM               .         SPACE                         : DELIMITING CHARACTER(SPACE TAB OR COMMA)
~Well Information
#_______________________________________________________________________________
#
#PARAMETER_NAME    .UNIT     VALUE                         : DESCRIPTION
#_______________________________________________________________________________
STRT               .M        4949.000                      : First reference value
STOP               .M        5060.404                      : Last reference value
STEP               .M        0.152                         : Step increment
NULL               .         -9999                         : Missing value
COMP               .         PETROBRAS                     : Company
WELL               .         7-SPH-22-SPS                  : Well name
FLD                .         SAPINHOA                      : Field
LOC                .                                       : Location
CNTY               .                                       : County
STAT               .         SAO PAULO                     : State
CTRY               .         BR                            : Country
SRVC               .                                       : Service Company
DATE               .         25/07/2016                    : Date
API                .         863160046800                  : API number
APD                .M        26.0                          : ABOVE PERMANENT DATUM
BHT                .degF     140.0                         : BOTTOMHOLE TEMPERATURE
BLI                .M        5055.8                        : BOTTOM LOGGED INTERVAL
BS                 .in       8.5                           : BIT SIZE
CBDR               .M        4981                          : Casing Bottom (Driller)
CBLO               .M        4981                          : Casing Bottom of Logger
CSIZ               .in       10.75                         : Casing Outer Diameter
CWEI               .lb/ft    85.3                          : Casing Weight
DCS                .         23/07/2016                    : DATE CIRCULATION STOPPED
DFD                .lb/gal   9.7                           : DRILLING FLUID DENSITY
DFT                .         CATIONICO_SCOL (BASE AGUA)    : DRILLING FLUID TYPE
DLAB               .         25/07/2016                    : DATE LOGGING ON BOTTOM
EDF                .M        26.0                          : ELEVATION OF DRILLING FLOOR
EGL                .M        -2144.0                       : ELEVATION OF GROUND LEVEL
EKB                .M        -999.25                       : ELEVATION OF KELLY BUSHING
EPD                .M        0.0                           : ELEVATATION OF PERMANENT DATUM
GDAT               .                                       : Geodetic Datum
LMF                .         MR                            : LOG MEASURED FROM
LUL                .         MCE                           : LOGGING UNIT LOCATION
LUN                .         10898943                      : LOGGING UNIT NUMBER
LATI               .         -25_48_08.320                 : Latitude
LONG               .         -43_13_44,430                 : LONGITUDE
MCST               .degF     66.1                          : MUDCAKE SAMPLE TEMPERATURE
MFST               .degF     66.4                          : MUD FILTRATE SAMPLE TEMPERATURE
MRT                .degF     140.0                         : MAXIMUM RECORDED TEMPERATURE
MST                .degF     65.8                          : MUD SAMPLE TEMPERATURE
ORIGINALWELLNAME   .         7SPH 0022  SPS                : 
PDAT               .         NM                            : PERMANENT DATUM
PRODUCER-CODE      .         280                           : 
PRODUCER-NAME      .         Halliburton                   : 
RMB                .ohm.m    0.040                         : RESISTIVITY OF MUD - BHT
RMCS               .ohm.m    0.140                         : RESISTIVITY OF MUDCAKE SAMPLE
RMFS               .ohm.m    0.012                         : RESISTIVITY OF MUD FILTRATE SAMPLE
RMS                .ohm.m    0.080                         : RESISTIVITY OF MUD SAMPLE
RUN                .         01                            : RUN NUMBER 1
TCS                .h        19_00                         : TIME CIRCULATION STOPPED
TDD                .M        5058.0                        : DRILLERS DEPTH
TDL                .M        5057.1                        : LOGGERS DEPTH
TLAB               .h        07_15                         : TIME LOGGING ON BOTTOM
TLI                .M        4950.0                        : TOP LOGGED INTERVAL
X                  .M        677550.00000000               : X or East-West coordinate
Y                  .M        7145014.00000000              : Y or North South coordinate
~Parameter Information Block
#_______________________________________________________________________________
#
#PARAMETER_NAME    .UNIT     VALUE                         : DESCRIPTION
#_______________________________________________________________________________
SET                .         BASE                          : 
TLFamily_BS        .         Bit Size                      : 
TLFamily_DT        .         Compressional Slowness        : 
TLFamily_DWAL      .         Aluminum Weight Fraction      : 
TLFamily_DWCA      .         Calcium Weight Fraction       : 
TLFamily_DWFE      .         Iron Weight Fraction          : 
TLFamily_DWK       .         Potassium Weight Fraction     : 
TLFamily_DWMG      .         Magnesium Weight Fraction     : 
TLFamily_DWMN      .         Manganese Weight Fraction     : 
TLFamily_DWS       .         Sulfur Weight Fraction        : 
TLFamily_DWSI      .         Silicon Weight Fraction       : 
TLFamily_DWTI      .         Titanium Weight Fraction      : 
TLFamily_GR        .         Gamma Ray                     : 
TLFamily_GRt       .         Gamma Ray                     : 
TLFamily_HCAL      .         Caliper                       : 
TLFamily_HDRA      .         Bulk Density Correction       : 
TLFamily_HFK       .         Potassium Concentration       : 
TLFamily_HTHO      .         Thorium Concentration         : 
TLFamily_HURA      .         Uranium Concentration         : 
TLFamily_MD        .         Measured Depth                : 
TLFamily_MPERM     .         NMR Permeability              : 
TLFamily_NMRE_Final .         NMR Bound Fluid Volume Fraction: 
TLFamily_NMRFL_Final .         NMR Free Fluids               : 
TLFamily_NMRT_Final .         NMR Porosity                  : 
TLFamily_NPHI      .         Neutron Porosity              : 
TLFamily_PE        .         Photoelectric Factor          : 
TLFamily_RD        .         Resistivity - Deep            : 
TLFamily_RHOB      .         Bulk Density                  : 
TLFamily_RS        .         Resistivity - Shallow         : 
TLFamily_T2LM      .         NMR T2 Logarithmic Mean       : 
TLFamily_TVDSS     .         True Vertical Depth Sub Sea   : 
~Curve Information
#_______________________________________________________________________________
#
#LOGNAME           .UNIT     LOG_ID                        : DESCRIPTION
#_______________________________________________________________________________
DEPTH              .M                                      :  
BS                 .in                                     : BS/Bit Size 
DT                 .us/ft                                  : SONICO COMPRESSIONAL (COMPOSICAO DE CURVAS CABO E/OU LWD) 
DWAL               .kg/kg                                  : DAL/DryrockAlWF 
DWCA               .kg/kg                                  : DCA/DryrockCaWF 
DWFE               .kg/kg                                  : DFE/DryrockFeWF 
DWK                .kg/kg                                  : DK/DryrockKWF 
DWMG               .kg/kg                                  : DMG/DryrockMgWF 
DWMN               .kg/kg                                  : DMN/DryrockMnWF 
DWS                .kg/kg                                  : DSUL/DryrockSuWF 
DWSI               .kg/kg                                  : DSI/DryrockSiWF 
DWTI               .kg/kg                                  : DTI/DryrockTiWF 
GR                 .gAPI                                   : GR/Gamma API 
GRt                .gAPI                                   : GKUT/GammaKUT 
HCAL               .in                                     : CALI/Caliper 
HDRA               .g/cm3                                  : DRHO/DensityCorr 
HFK                .%                                      : POTA/Potassium 
HTHO               .ppm                                    : THOR/Thorium 
HURA               .ppm                                    : URAN/Uranium 
MPERM              .mD                                     : MPERMT2/MrilT2KCoat 
NMRE_Final         .m3/m3                                  : MPHIT2/TA-grp T2 Effective Por 
NMRFL_Final        .unitless                               : MFFIT2/TA-grp T2 FreeFluid Ind 
NMRT_Final         .frac                                   : MSIGT2/TA-grp T2 Total Por. 
NPHI               .frac                                   : NPHI/Neutron Porosity 
PE                 .b/e                                    : PE/Pe 
RD                 .ohm.m                                  : LLD/LLD 
RHOB               .g/cm3                                  : RHOB/Density 
RS                 .ohm.m                                  : LLS/LLS 
T2LM               .ms                                     : T2LM/T2 Log Mean 
TVDSS              .M                                      :  
~Ascii
# ...
5002.340   8.500      70.396     0.009      0.317      0.000      0.002      0.000      0.001      0.012      0.079      0.001      9.115      9.955      8.503      -0.013     0.022      1.631      0.477      480.070    0.181      0.161      0.187      0.166      4.141      829.668    2.397      724.056    585.114    4970.012  
5002.492   8.500      72.144     0.007      0.308      0.000      0.002      0.000      0.001      0.012      0.092      0.001      8.268      9.657      8.502      -0.017     0.028      1.429      0.506      1811.617   0.189      0.175      0.190      0.190      3.766      1340.678   2.384      1271.225   784.515    4970.163  
5002.645   8.500      73.910     0.007      0.280      0.000      0.002      0.016      0.001      0.009      0.100      0.001      7.388      9.283      8.502      -0.022     0.045      1.175      0.527      5373.719   0.196      0.188      0.196      0.197      3.700      2443.624   2.354      2433.594   837.344    4970.314  
5002.797   8.500      74.633     0.005      0.258      0.000      0.002      0.038      0.001      0.007      0.094      0.001      6.825      8.948      8.505      -0.027     0.074      0.999      0.501      5945.799   0.201      0.196      0.201      0.192      3.722      5099.811   2.306      7283.514   860.860    4970.465  
5002.950   8.500      74.144     0.004      0.241      0.000      0.002      0.064      0.001      0.004      0.074      0.001      7.103      8.933      8.505      -0.024     0.088      0.875      0.521      5936.859   0.201      0.196      0.201      0.203      3.759      10396.409  2.281      20432.873  874.799    4970.617  
5003.102   8.500      73.130     0.008      0.244      0.000      0.002      0.069      0.001      0.003      0.060      0.001      7.743      8.963      8.506      -0.017     0.090      0.769      0.560      5475.570   0.197      0.191      0.198      0.198      3.844      29278.441  2.281      39574.848  849.857    4970.768  
5003.254   8.500      72.394     0.010      0.242      0.000      0.002      0.074      0.001      0.002      0.051      0.001      8.517      9.526      8.508      -0.015     0.075      0.652      0.691      2575.949   0.191      0.178      0.192      0.195      4.069      21382.527  2.287      17557.588  784.461    4970.919  
5003.407   8.500      71.962     0.010      0.242      0.000      0.002      0.075      0.001      0.002      0.049      0.000      9.295      10.210     8.505      -0.016     0.056      0.598      0.820      744.656    0.183      0.164      0.184      0.176      4.280      20450.313  2.304      14376.742  728.615    4971.070  
5003.559   8.500      71.657     0.014      0.255      0.000      0.002      0.062      0.001      0.003      0.050      0.000      9.888      10.618     8.503      -0.013     0.064      0.697      0.816      333.242    0.175      0.150      0.175      0.159      4.262      20698.344  2.343      15841.670  693.440    4971.222  
5003.712   8.500      71.612     0.017      0.280      0.000      0.002      0.039      0.001      0.005      0.054      0.000      10.111     10.699     8.501      -0.010     0.093      0.923      0.692      245.837    0.167      0.142      0.167      0.153      4.119      17126.525  2.368      14522.302  672.401    4971.373  
5003.864   8.500      71.465     0.015      0.300      0.000      0.001      0.023      0.001      0.006      0.060      0.000      10.066     10.427     8.501      -0.011     0.123      1.129      0.533      263.929    0.164      0.141      0.164      0.154      4.042      8354.162   2.366      6987.453   658.431    4971.524  
5004.016   8.500      70.893     0.011      0.320      0.000      0.001      0.010      0.001      0.006      0.062      0.000      10.056     9.852      8.500      -0.012     0.150      1.328      0.350      318.873    0.165      0.144      0.166      0.156      4.154      4455.596   2.351      2257.216   620.250    4971.675  
5004.169   8.500      70.044     0.009      0.346      0.000      0.001      0.002      0.001      0.005      0.048      0.000      9.705      9.524      8.501      -0.012     0.159      1.248      0.326      314.233    0.167      0.147      0.172      0.164      4.276      4398.348   2.358      2205.923   542.187    4971.827  
5004.321   8.500      69.721     0.009      0.358      0.000      0.001      0.001      0.001      0.006      0.035      0.000      8.989      9.184      8.500      -0.012     0.151      0.999      0.393      258.546    0.170      0.150      0.181      0.175      4.357      4255.301   2.388      2315.096   462.417    4971.978  
5004.474   8.500      70.022     0.009      0.362      0.000      0.001      0.001      0.001      0.007      0.029      0.000      9.021      9.264      8.502      -0.013     0.134      0.837      0.491      229.436    0.176      0.153      0.189      0.179      4.336      4201.054   2.392      2937.465   437.947    4972.129  
5004.626   8.500      70.283     0.012      0.364      0.000      0.001      0.001      0.001      0.008      0.021      0.001      9.211      9.252      8.506      -0.015     0.122      0.710      0.557      253.385    0.183      0.156      0.192      0.167      4.331      5030.618   2.380      3803.981   468.679    4972.280  
5004.778   8.500      69.956     0.011      0.363      0.000      0.001      0.005      0.001      0.009      0.017      0.001      8.798      9.299      8.503      -0.016     0.122      0.756      0.545      354.678    0.186      0.159      0.189      0.169      4.327      5053.131   2.372      3813.614   524.849    4972.431  
5004.931   8.500      69.338     0.006      0.352      0.000      0.001      0.019      0.001      0.010      0.012      0.001      8.453      9.288      8.513      -0.018     0.103      0.794      0.564      448.963    0.182      0.158      0.183      0.154      4.361      2991.861   2.389      1946.899   555.550    4972.583  
5005.083   8.500      68.617     0.005      0.349      0.000      0.002      0.024      0.001      0.010      0.008      0.001      8.572      9.066      8.508      -0.018     0.091      0.812      0.553      322.060    0.173      0.149      0.174      0.131      4.500      3032.668   2.416      1667.672   560.550    4972.734  
5005.236   8.500      68.154     0.006      0.329      0.000      0.002      0.036      0.001      0.008      0.013      0.001      8.025      8.860      8.513      -0.017     0.068      0.806      0.573      169.848    0.164      0.137      0.165      0.128      4.740      6012.722   2.436      4295.583   582.675    4972.885  
5005.388   8.500      68.235     0.006      0.316      0.000      0.002      0.044      0.001      0.006      0.015      0.001      7.451      8.671      8.512      -0.019     0.060      0.850      0.550      98.711     0.159      0.127      0.160      0.132      4.750      6767.409   2.429      4869.734   619.129    4973.036  
5005.540   8.500      68.760     0.009      0.296      0.000      0.002      0.055      0.001      0.006      0.018      0.001      7.990      8.364      8.510      -0.023     0.066      0.990      0.454      78.402     0.159      0.124      0.159      0.137      4.712      8157.475   2.416      5443.455   635.413    4973.188  
5005.693   8.500      69.083     0.015      0.297      0.000      0.002      0.048      0.001      0.007      0.021      0.001      9.417      8.353      8.508      -0.025     0.090      1.125      0.362      80.641     0.161      0.125      0.161      0.144      4.713      12862.740  2.405      9451.808   607.228    4973.339  
5005.845   8.500      68.610     0.023      0.321      0.000      0.002      0.021      0.000      0.009      0.027      0.001      9.327      8.383      8.519      -0.026     0.110      1.152      0.320      89.563     0.165      0.128      0.165      0.146      4.661      15634.094  2.397      10278.946  545.975    4973.490  
5005.998   8.500      68.093     0.025      0.335      0.000      0.002      0.008      0.000      0.010      0.028      0.001      8.272      8.702      8.519      -0.026     0.114      1.125      0.358      126.753    0.167      0.134      0.167      0.146      4.541      15515.759  2.388      7467.523   505.475    4973.641  
