~Version
 VERS              .         2.0                           : CWLS LOG ASCII STANDARD - VERSION 2.0
 WRAP              .         NO                            : ONE LINE PER DEPTH STEP
 DLM               .         SPACE                         : DELIMITING CHARACTER(SPACE TAB OR COMMA)
~Well Information
#_______________________________________________________________________________
#
#PARAMETER_NAME    .UNIT     VALUE                         : DESCRIPTION
#_______________________________________________________________________________
STRT               .M        4938.217                      : First reference value
STOP               .M        5227.625                      : Last reference value
STEP               .M        0.152                         : Step increment
NULL               .         -9999                         : Missing value
COMP               .         PETROBRAS                     : Company
WELL               .         7-SPH-17-SPS                  : Well name
FLD                .         SAPINHOA                      : Field
LOC                .                                       : Location
CNTY               .                                       : County
STAT               .         86316027948                   : State
CTRY               .         Brasil                        : Country
SRVC               .                                       : Service Company
DATE               .                                       : Date
API                .                                       : API number
APD                .M        25                            : Elevation of Depth Reference (LMF) Above Permanent Datum
BHS                .         OPEN                          : Borehole Status (Open or Cased Hole)
BHT                .degF     144                           : Bottom Hole Temperature
BLI                .M        5222.59                       : Bottom Log Interval
BS                 .in       12.25                         : Bit Size
CBDR               .M        5017                          : Casing Bottom (Driller)
CBLO               .M        5020.6                        : Casing Bottom (Logger)
CSIZ               .in       14                            : Casing Outer Diameter
CWEI               .lbm/ft   114                           : Casing Weight
DCS                .         04/01/2015                    : Date Circulation Stopped
DFD                .lb/gal   9.6                           : Drilling Fluid Density
DFT                .         BR-MUL                        : Drilling Fluid Type
DLAB               .         06/01/2015                    : Date Logging on Bottom
EDF                .M        25                            : Elevation of Drill Floor
EGL                .M        -2131                         : Elevation of Ground Level
EKB                .M        25                            : Elevation of Kelly Bushing
EPD                .M        0                             : Elevation of Permanent Datum (PDAT) above Mean Sea Level
LMF                .         MR                            : Logging Measured From (Name of Logging Elevation Reference)
LUL                .         BRMA                          : Logging Unit Location
LUN                .         7806                          : Logging Unit Number
LONG               .         -43_09_42,450                 : Longitude
MCST               .degF     -999.25                       : Mudcake Sample Temperature
MFST               .degF     -999.25                       : Mud Filtrate Sample Temperature
MRT                .degF     144                           : Maximum Recorded Temperature
MST                .degF     -999.25                       : Mud Sample Temperature
PDAT               .         NM                            : Permanent Datum
PRODUCER-CODE      .         440                           : 
PRODUCER-NAME      .         Schlumberger                  : 
RMB                .ohm.m    -999.25                       : Resistivity of Mud at Bottom Hole Temperature
RMCS               .ohm.m    -999.25                       : Resistivity of Mud Cake Sample
RMFS               .ohm.m    -999.25                       : Resistivity of Mud Filtrate Sample
RMS                .ohm.m    -999.25                       : Resistivity of Mud Sample
RUN                .         02                            : Run Number
TCS                .h        17_30                         : Time Circulation Stopped
TDD                .M        5221                          : Total Depth (Driller)
TDL                .M        5225                          : Logger Total Depth
TLAB               .h        09_25                         : Time Logging on Bottom
TLI                .M        5020.6                        : Top Log Interval
X                  .M        684517.00000000               : 
Y                  .M        7161201.00000000              : 
~Parameter Information Block
#_______________________________________________________________________________
#
#PARAMETER_NAME    .UNIT     VALUE                         : DESCRIPTION
#_______________________________________________________________________________
SET                .         BASE                          : 
TLFamily_BS        .         Bit Size                      : 
TLFamily_DT        .         Compressional Slowness        : 
TLFamily_DWAL      .         Aluminum Weight Fraction      : 
TLFamily_DWCA      .         Calcium Weight Fraction       : 
TLFamily_DWFE      .         Iron Weight Fraction          : 
TLFamily_DWGD      .         Gadolinium Weight Fraction    : 
TLFamily_DWS       .         Sulfur Weight Fraction        : 
TLFamily_DWSI      .         Silicon Weight Fraction       : 
TLFamily_DWTI      .         Titanium Weight Fraction      : 
TLFamily_GR        .         Gamma Ray                     : 
TLFamily_GRt       .         Gamma Ray                     : 
TLFamily_HCAL      .         Caliper                       : 
TLFamily_HDRA      .         Bulk Density Correction       : 
TLFamily_HFK       .         Potassium Concentration       : 
TLFamily_HTHO      .         Thorium Concentration         : 
TLFamily_HURA      .         Uranium Concentration         : 
TLFamily_KSDR      .         NMR Permeability              : 
TLFamily_KTIM      .         NMR Permeability              : 
TLFamily_MD        .         Measured Depth                : 
TLFamily_NMRE_Final .         NMR Bound Fluid Volume Fraction: 
TLFamily_NMRFL_Final .         NMR Free Fluids               : 
TLFamily_NMRT_Final .         NMR Porosity                  : 
TLFamily_NPHI      .         Neutron Porosity              : 
TLFamily_PE        .         Photoelectric Factor          : 
TLFamily_RD        .         Resistivity - Deep            : 
TLFamily_RHOB      .         Bulk Density                  : 
TLFamily_RM        .         Resistivity - Medium          : 
TLFamily_RS        .         Resistivity - Shallow         : 
TLFamily_T2LM      .         NMR T2 Logarithmic Mean       : 
TLFamily_TVDSS     .         True Vertical Depth Sub Sea   : 
~Curve Information
#_______________________________________________________________________________
#
#LOGNAME           .UNIT     LOG_ID                        : DESCRIPTION
#_______________________________________________________________________________
DEPTH              .M                                      :  
BS                 .in                                     : Bit Size 
DT                 .us/ft                                  : Delta-T Compressional 
DWAL               .kg/kg                                  : Dry Weight Fraction Pseudo Aluminum (SpectroLith WALK2 Model) 
DWCA               .kg/kg                                  : Dry Weight Fraction Calcium (SpectroLith WALK2 Model) 
DWFE               .kg/kg                                  : Dry Weight Fraction Iron + 0.14 Aluminum (SpectroLith WALK2 Model) 
DWGD               .ppm                                    : Dry Weight Fraction Gadolinium (SpectroLith WALK2 Model) 
DWS                .kg/kg                                  : Dry Weight Fraction Sulfur (SpectroLith WALK2 Model) 
DWSI               .kg/kg                                  : Dry Weight Fraction Silicon (SpectroLith WALK2 Model) 
DWTI               .kg/kg                                  : Dry Weight Fraction Titanium (SpectroLith WALK2 Model) 
GR                 .gAPI                                   : Gamma Ray 
GRt                .gAPI                                   : HNGS Standard Gamma-Ray 
HCAL               .in                                     : HRCC Caliper Calibrated 
HDRA               .g/cm3                                  : Density Standoff Correction 
HFK                .%                                      : HNGS Formation Potassium Concentration 
HTHO               .ppm                                    : HNGS Formation Thorium Concentration 
HURA               .ppm                                    : HNGS Formation Uranium Concentration 
KSDR               .mD                                     : SDR Permeability 
KTIM               .mD                                     : Timur/Coates Permeability 
NMRE_Final         .m3/m3                                  : CMR Porosity with T2 values greater than 3 ms 
NMRFL_Final        .unitless                               : CMR Free Fluid 
NMRT_Final         .frac                                   : Total CMR Porosity 
NPHI               .frac                                   : Enhanced Thermal Neutron Porosity in Selected Lithology 
PE                 .b/e                                    : Standard Resolution Formation Photoelectric Factor 
RD                 .ohm.m                                  : Array Induction Two Foot Resistivity A90 
RHOB               .g/cm3                                  : Standard Resolution Formation Density 
RM                 .ohm.m                                  : Array Induction Two Foot Resistivity A30 
RS                 .ohm.m                                  : Array Induction Two Foot Resistivity A10 
T2LM               .ms                                     : T2 Logarithmic Mean 
TVDSS              .M                                      :  
~Ascii
# ...
5140.147   12.250     61.902     0.004      0.300      0.003      1.718      0.010      0.103      0.000      24.008     24.924     12.291     0.013      0.237      1.611      1.970      2.618      1.553      0.095      0.056      0.107      0.083      4.716      46.347     2.634      37.749     36.959     70.089     5114.863  
5140.300   12.250     61.495     0.010      0.281      0.007      0.386      0.006      0.117      0.000      25.293     27.626     12.269     0.009      0.241      1.791      2.256      1.336      0.787      0.085      0.047      0.100      0.112      4.718      35.566     2.628      31.106     30.438     58.383     5115.016  
5140.452   12.250     61.136     0.013      0.270      0.008      0.000      0.000      0.129      0.000      27.423     30.884     12.291     0.002      0.244      1.877      2.604      0.752      0.360      0.073      0.038      0.087      0.145      4.641      28.306     2.605      26.128     24.585     57.739     5115.168  
5140.604   12.250     61.087     0.012      0.273      0.008      0.000      0.000      0.126      0.000      30.420     33.930     12.291     -0.002     0.275      2.109      2.814      1.830      0.671      0.081      0.045      0.089      0.102      4.570      19.425     2.590      18.084     18.832     85.093     5115.320  
5140.757   12.250     61.357     0.008      0.302      0.005      0.622      0.000      0.101      0.000      32.207     34.124     12.312     0.005      0.280      1.884      2.917      11.023     4.149      0.099      0.068      0.103      0.129      4.652      16.277     2.602      15.679     18.709     157.657    5115.473  
5140.909   12.250     61.596     0.005      0.333      0.003      1.102      0.000      0.071      0.000      31.165     33.510     12.312     0.013      0.270      1.915      2.828      57.840     30.149     0.120      0.096      0.121      0.157      4.782      21.807     2.607      20.726     27.684     260.095    5115.625  
5141.062   12.250     62.078     0.003      0.351      0.002      0.950      0.000      0.053      0.000      27.864     32.755     12.333     0.015      0.255      1.860      2.809      163.695    126.564    0.138      0.120      0.138      0.151      4.946      43.773     2.579      38.676     41.336     335.617    5115.777  
5141.214   12.250     62.394     0.004      0.356      0.002      0.640      0.000      0.045      0.000      27.525     32.704     12.312     0.008      0.216      1.855      2.897      271.635    209.584    0.149      0.136      0.150      0.154      5.088      110.434    2.524      85.888     89.206     368.621    5115.930  
5141.366   12.250     62.734     0.003      0.358      0.002      0.587      0.000      0.043      0.000      27.490     32.532     12.270     0.002      0.194      1.865      2.954      260.292    238.021    0.151      0.138      0.153      0.161      5.111      244.508    2.484      214.230    219.915    346.569    5116.082  
5141.519   12.250     63.669     0.002      0.360      0.001      0.001      0.000      0.043      0.000      28.073     31.583     12.269     0.001      0.175      1.750      2.915      257.869    283.677    0.153      0.139      0.157      0.150      5.101      333.704    2.468      375.676    441.791    324.076    5116.235  
5141.671   12.250     64.073     0.001      0.364      0.000      0.000      0.000      0.041      0.000      28.761     31.554     12.291     0.001      0.188      1.663      2.928      246.035    271.655    0.155      0.141      0.164      0.185      5.062      542.122    2.472      337.319    560.572    293.031    5116.387  
5141.824   12.250     64.275     0.001      0.364      0.000      0.000      0.000      0.041      0.002      28.755     31.050     12.269     -0.008     0.179      1.605      2.875      220.985    217.175    0.157      0.142      0.169      0.156      5.042      437.954    2.476      407.102    576.049    258.944    5116.539  
5141.976   12.250     64.427     0.003      0.360      0.001      0.000      0.000      0.043      0.002      30.254     31.015     12.269     -0.006     0.178      1.654      2.859      191.930    205.142    0.156      0.142      0.172      0.150      5.058      504.420    2.492      549.664    721.681    235.242    5116.692  
5142.128   12.250     64.572     0.007      0.352      0.003      0.153      0.000      0.045      0.002      28.963     30.666     12.290     -0.007     0.192      1.628      2.803      189.010    257.137    0.153      0.142      0.166      0.178      5.078      767.279    2.498      776.134    747.702    248.768    5116.844  
5142.281   12.250     64.621     0.009      0.349      0.005      0.000      0.000      0.045      0.001      29.569     29.899     12.291     0.000      0.189      1.504      2.765      186.680    276.316    0.150      0.139      0.161      0.178      5.103      1448.401   2.507      746.328    814.177    264.628    5116.997  
5142.433   12.250     64.659     0.011      0.346      0.006      0.000      0.000      0.045      0.000      28.941     29.663     12.270     0.001      0.186      1.530      2.717      185.743    244.194    0.150      0.136      0.158      0.175      5.081      1733.725   2.507      839.442    829.065    273.394    5117.149  
5142.586   12.250     64.572     0.009      0.342      0.006      0.000      0.000      0.051      0.000      29.955     30.359     12.290     0.002      0.185      1.527      2.807      182.516    189.135    0.151      0.134      0.158      0.180      5.036      1949.517   2.497      881.243    911.058    269.464    5117.301  
5142.738   12.250     64.728     0.008      0.340      0.005      0.003      0.000      0.057      0.000      28.869     30.784     12.290     0.000      0.183      1.463      2.873      169.578    151.824    0.150      0.133      0.160      0.172      5.088      1850.616   2.470      908.597    873.590    253.212    5117.454  
5142.890   12.250     64.730     0.003      0.345      0.002      0.939      0.006      0.056      0.000      28.767     30.493     12.269     -0.005     0.166      1.403      2.904      187.621    186.004    0.148      0.134      0.159      0.161      5.139      1312.622   2.444      770.226    776.741    269.436    5117.606  
5143.043   12.250     64.792     0.003      0.353      0.002      2.510      0.003      0.049      0.000      27.064     28.808     12.269     -0.009     0.161      1.346      2.720      173.590    228.540    0.143      0.135      0.156      0.179      5.193      1573.781   2.431      793.498    836.584    270.286    5117.759  
5143.195   12.250     65.029     0.005      0.356      0.003      4.293      0.000      0.043      0.000      26.881     28.614     12.291     -0.009     0.163      1.445      2.668      154.039    244.968    0.140      0.135      0.153      0.171      5.112      1476.962   2.440      880.045    1083.405   264.186    5117.911  
5143.348   12.250     65.223     0.008      0.351      0.005      3.849      0.000      0.044      0.000      26.842     29.299     12.290     -0.009     0.167      1.648      2.653      143.658    230.309    0.139      0.134      0.152      0.173      5.066      1219.731   2.443      871.915    1144.695   259.443    5118.063  
5143.500   12.250     65.221     0.007      0.351      0.004      3.376      0.000      0.045      0.000      29.216     30.135     12.291     -0.007     0.163      1.819      2.754      147.260    220.423    0.141      0.131      0.152      0.169      5.023      1001.076   2.449      818.944    1122.196   263.257    5118.216  
5143.652   12.250     65.150     0.006      0.352      0.004      1.786      0.000      0.046      0.000      30.640     30.819     12.291     -0.006     0.159      1.839      2.841      154.057    139.022    0.142      0.127      0.152      0.178      5.043      922.443    2.446      740.623    1116.173   266.876    5118.368  
5143.805   12.250     65.027     0.004      0.355      0.003      1.304      0.002      0.045      0.000      30.796     31.828     12.291     -0.001     0.182      2.059      2.817      163.488    109.169    0.142      0.125      0.152      0.215      5.029      808.337    2.455      661.383    1153.272   275.485    5118.521  
