~Version
 VERS              .         2.0                           : CWLS LOG ASCII STANDARD - VERSION 2.0
 WRAP              .         NO                            : ONE LINE PER DEPTH STEP
 DLM               .         SPACE                         : DELIMITING CHARACTER(SPACE TAB OR COMMA)
~Well Information
#_______________________________________________________________________________
#
#PARAMETER_NAME    .UNIT     VALUE                         : DESCRIPTION
#_______________________________________________________________________________
STRT               .M        4938.217                      : First reference value
STOP               .M        5227.625                      : Last reference value
STEP               .M        0.152                         : Step increment
NULL               .         -9999                         : Missing value
COMP               .         PETROBRAS                     : Company
WELL               .         7-SPH-17-SPS                  : Well name
FLD                .         SAPINHOA                      : Field
LOC                .                                       : Location
CNTY               .                                       : County
STAT               .         86316027948                   : State
CTRY               .         Brasil                        : Country
SRVC               .                                       : Service Company
DATE               .                                       : Date
API                .                                       : API number
APD                .M        25                            : Elevation of Depth Reference (LMF) Above Permanent Datum
BHS                .         OPEN                          : Borehole Status (Open or Cased Hole)
BHT                .degF     144                           : Bottom Hole Temperature
BLI                .M        5222.59                       : Bottom Log Interval
BS                 .in       12.25                         : Bit Size
CBDR               .M        5017                          : Casing Bottom (Driller)
CBLO               .M        5020.6                        : Casing Bottom (Logger)
CSIZ               .in       14                            : Casing Outer Diameter
CWEI               .lbm/ft   114                           : Casing Weight
DCS                .         04/01/2015                    : Date Circulation Stopped
DFD                .lb/gal   9.6                           : Drilling Fluid Density
DFT                .         BR-MUL                        : Drilling Fluid Type
DLAB               .         06/01/2015                    : Date Logging on Bottom
EDF                .M        25                            : Elevation of Drill Floor
EGL                .M        -2131                         : Elevation of Ground Level
EKB                .M        25                            : Elevation of Kelly Bushing
EPD                .M        0                             : Elevation of Permanent Datum (PDAT) above Mean Sea Level
LMF                .         MR                            : Logging Measured From (Name of Logging Elevation Reference)
LUL                .         BRMA                          : Logging Unit Location
LUN                .         7806                          : Logging Unit Number
LONG               .         -43_09_42,450                 : Longitude
MCST               .degF     -999.25                       : Mudcake Sample Temperature
MFST               .degF     -999.25                       : Mud Filtrate Sample Temperature
MRT                .degF     144                           : Maximum Recorded Temperature
MST                .degF     -999.25                       : Mud Sample Temperature
PDAT               .         NM                            : Permanent Datum
PRODUCER-CODE      .         440                           : 
PRODUCER-NAME      .         Schlumberger                  : 
RMB                .ohm.m    -999.25                       : Resistivity of Mud at Bottom Hole Temperature
RMCS               .ohm.m    -999.25                       : Resistivity of Mud Cake Sample
RMFS               .ohm.m    -999.25                       : Resistivity of Mud Filtrate Sample
RMS                .ohm.m    -999.25                       : Resistivity of Mud Sample
RUN                .         02                            : Run Number
TCS                .h        17_30                         : Time Circulation Stopped
TDD                .M        5221                          : Total Depth (Driller)
TDL                .M        5225                          : Logger Total Depth
TLAB               .h        09_25                         : Time Logging on Bottom
TLI                .M        5020.6                        : Top Log Interval
X                  .M        684517.00000000               : 
Y                  .M        7161201.00000000              : 
~Parameter Information Block
#_______________________________________________________________________________
#
#PARAMETER_NAME    .UNIT     VALUE                         : DESCRIPTION
#_______________________________________________________________________________
SET                .         BASE                          : 
TLFamily_BS        .         Bit Size                      : 
TLFamily_DT        .         Compressional Slowness        : 
TLFamily_DWAL      .         Aluminum Weight Fraction      : 
TLFamily_DWCA      .         Calcium Weight Fraction       : 
TLFamily_DWFE      .         Iron Weight Fraction          : 
TLFamily_DWGD      .         Gadolinium Weight Fraction    : 
TLFamily_DWS       .         Sulfur Weight Fraction        : 
TLFamily_DWSI      .         Silicon Weight Fraction       : 
TLFamily_DWTI      .         Titanium Weight Fraction      : 
TLFamily_GR        .         Gamma Ray                     : 
TLFamily_GRt       .         Gamma Ray                     : 
TLFamily_HCAL      .         Caliper                       : 
TLFamily_HDRA      .         Bulk Density Correction       : 
TLFamily_HFK       .         Potassium Concentration       : 
TLFamily_HTHO      .         Thorium Concentration         : 
TLFamily_HURA      .         Uranium Concentration         : 
TLFamily_KSDR      .         NMR Permeability              : 
TLFamily_KTIM      .         NMR Permeability              : 
TLFamily_MD        .         Measured Depth                : 
TLFamily_NMRE_Final .         NMR Bound Fluid Volume Fraction: 
TLFamily_NMRFL_Final .         NMR Free Fluids               : 
TLFamily_NMRT_Final .         NMR Porosity                  : 
TLFamily_NPHI      .         Neutron Porosity              : 
TLFamily_PE        .         Photoelectric Factor          : 
TLFamily_RD        .         Resistivity - Deep            : 
TLFamily_RHOB      .         Bulk Density                  : 
TLFamily_RM        .         Resistivity - Medium          : 
TLFamily_RS        .         Resistivity - Shallow         : 
TLFamily_T2LM      .         NMR T2 Logarithmic Mean       : 
TLFamily_TVDSS     .         True Vertical Depth Sub Sea   : 
~Curve Information
#_______________________________________________________________________________
#
#LOGNAME           .UNIT     LOG_ID                        : DESCRIPTION
#_______________________________________________________________________________
DEPTH              .M                                      :  
BS                 .in                                     : Bit Size 
DT                 .us/ft                                  : Delta-T Compressional 
DWAL               .kg/kg                                  : Dry Weight Fraction Pseudo Aluminum (SpectroLith WALK2 Model) 
DWCA               .kg/kg                                  : Dry Weight Fraction Calcium (SpectroLith WALK2 Model) 
DWFE               .kg/kg                                  : Dry Weight Fraction Iron + 0.14 Aluminum (SpectroLith WALK2 Model) 
DWGD               .ppm                                    : Dry Weight Fraction Gadolinium (SpectroLith WALK2 Model) 
DWS                .kg/kg                                  : Dry Weight Fraction Sulfur (SpectroLith WALK2 Model) 
DWSI               .kg/kg                                  : Dry Weight Fraction Silicon (SpectroLith WALK2 Model) 
DWTI               .kg/kg                                  : Dry Weight Fraction Titanium (SpectroLith WALK2 Model) 
GR                 .gAPI                                   : Gamma Ray 
GRt                .gAPI                                   : HNGS Standard Gamma-Ray 
HCAL               .in                                     : HRCC Caliper Calibrated 
HDRA               .g/cm3                                  : Density Standoff Correction 
HFK                .%                                      : HNGS Formation Potassium Concentration 
HTHO               .ppm                                    : HNGS Formation Thorium Concentration 
HURA               .ppm                                    : HNGS Formation Uranium Concentration 
KSDR               .mD                                     : SDR Permeability 
KTIM               .mD                                     : Timur/Coates Permeability 
NMRE_Final         .m3/m3                                  : CMR Porosity with T2 values greater than 3 ms 
NMRFL_Final        .unitless                               : CMR Free Fluid 
NMRT_Final         .frac                                   : Total CMR Porosity 
NPHI               .frac                                   : Enhanced Thermal Neutron Porosity in Selected Lithology 
PE                 .b/e                                    : Standard Resolution Formation Photoelectric Factor 
RD                 .ohm.m                                  : Array Induction Two Foot Resistivity A90 
RHOB               .g/cm3                                  : Standard Resolution Formation Density 
RM                 .ohm.m                                  : Array Induction Two Foot Resistivity A30 
RS                 .ohm.m                                  : Array Induction Two Foot Resistivity A10 
T2LM               .ms                                     : T2 Logarithmic Mean 
TVDSS              .M                                      :  
~Ascii
# ...
5208.727   12.250     71.552     0.021      0.195      0.013      0.000      0.000      0.202      0.000      33.330     38.015     12.290     0.001      0.038      2.108      4.196      95.446     64.799     0.155      0.119      0.157      0.171      4.325      1.236      2.447      1.658      2.548      203.740    5183.439  
5208.880   12.250     71.552     0.019      0.198      0.012      0.000      0.000      0.202      0.000      33.665     40.791     12.205     0.004      0.045      2.137      4.560      83.031     37.375     0.157      0.112      0.158      0.172      4.467      1.288      2.431      1.638      2.538      185.134    5183.592  
5209.032   12.250     71.552     0.016      0.203      0.009      0.000      0.000      0.203      0.000      34.043     41.430     12.226     0.014      0.052      1.895      4.725      50.548     15.583     0.151      0.096      0.154      0.205      4.588      1.280      2.430      1.660      2.443      156.511    5183.744  
5209.184   12.250     71.552     0.008      0.218      0.004      0.000      0.000      0.199      0.000      33.697     42.038     12.269     0.022      0.076      1.789      4.801      49.893     14.292     0.149      0.094      0.154      0.204      4.585      1.311      2.424      1.651      2.395      159.950    5183.897  
5209.337   12.250     71.552     0.006      0.218      0.003      0.000      0.000      0.203      0.000      33.159     41.768     12.163     0.019      0.089      1.795      4.701      66.817     19.732     0.158      0.102      0.181      0.227      4.602      1.378      2.401      1.722      2.394      162.158    5184.049  
5209.489   12.250     71.552     0.007      0.224      0.004      0.000      0.000      0.194      0.000      32.817     42.470     12.194     0.010      0.078      2.005      4.780      78.342     23.578     0.163      0.107      0.189      0.248      4.592      1.548      2.387      1.909      3.200      139.616    5184.201  
5209.642   12.250     71.552     0.006      0.223      0.003      0.000      0.000      0.197      0.000      31.909     43.528     12.331     0.001      0.080      1.816      4.962      70.798     20.490     0.166      0.106      0.191      0.227      4.579      1.885      2.384      2.325      4.214      99.622     5184.354  
5209.794   12.250     71.552     0.006      0.228      0.003      0.002      0.000      0.191      0.000      31.710     43.545     12.270     -0.001     0.081      1.972      4.907      59.253     15.913     0.168      0.098      0.192      0.204      4.525      2.136      2.382      2.631      6.297      65.538     5184.506  
5209.946   12.250     71.552     0.000      0.229      0.000      0.628      0.000      0.200      0.000      31.014     43.673     12.259     -0.002     0.111      2.032      4.851      48.923     11.792     0.176      0.085      0.199      0.233      4.522      2.180      2.369      2.609      5.025      44.962     5184.659  
5210.099   12.250     71.552     0.000      0.240      0.000      1.513      0.000      0.187      0.000      31.922     43.852     12.333     0.002      0.073      1.773      5.075      45.086     9.906      0.173      0.078      0.197      0.246      4.642      2.095      2.373      2.428      3.962      38.345     5184.811  
5210.251   12.250     71.552     0.000      0.243      0.000      0.002      0.000      0.184      0.000      32.135     43.755     12.228     -0.001     0.054      1.919      5.066      48.973     10.571     0.168      0.081      0.193      0.259      4.896      1.994      2.381      2.251      3.582      41.666     5184.963  
5210.404   12.250     71.552     0.001      0.259      0.000      0.000      0.000      0.163      0.000      32.060     44.045     12.269     -0.004     0.073      2.165      4.919      65.831     15.456     0.169      0.095      0.194      0.273      5.214      1.917      2.378      2.154      3.264      57.117     5185.116  
5210.556   12.250     71.552     0.006      0.258      0.003      0.000      0.000      0.156      0.000      30.967     43.597     12.227     -0.008     0.059      2.119      4.933      114.833    32.371     0.174      0.119      0.197      0.227      5.428      1.807      2.372      2.129      3.279      94.792     5185.268  
5210.708   12.250     71.552     0.008      0.263      0.005      0.003      0.000      0.146      0.000      30.417     44.334     12.248     -0.005     0.033      2.242      5.018      283.471    108.694    0.167      0.149      0.190      0.229      5.433      1.828      2.386      2.227      3.585      172.816    5185.421  
5210.861   12.250     71.552     0.009      0.255      0.005      1.066      0.000      0.153      0.000      30.021     43.971     12.206     -0.002     0.050      2.314      4.846      394.918    206.093    0.163      0.156      0.177      0.204      5.286      1.812      2.407      2.297      3.768      245.744    5185.573  
5211.013   12.250     71.552     0.010      0.246      0.005      0.003      0.000      0.163      0.000      30.019     43.828     12.226     -0.002     0.038      2.231      4.917      320.222    190.120    0.159      0.144      0.171      0.202      5.107      1.821      2.418      2.431      4.123      294.429    5185.725  
5211.166   12.250     71.552     0.012      0.245      0.007      0.000      0.000      0.161      0.000      30.019     42.923     12.184     -0.005     0.032      2.035      4.860      178.525    98.172     0.146      0.121      0.166      0.208      4.933      1.792      2.414      2.325      3.924      311.850    5185.878  
5211.318   12.250     71.552     0.012      0.256      0.007      0.000      0.000      0.148      0.000      30.019     42.394     12.194     -0.007     0.023      1.936      4.845      92.516     43.541     0.127      0.102      0.127      0.199      4.778      1.778      2.412      2.292      3.708      297.448    5186.030  
5211.470   12.250     71.552     0.009      0.277      0.005      0.132      0.000      0.128      0.000      30.019     43.138     12.206     -0.009     0.043      2.223      4.720      89.784     45.388     0.132      0.105      0.132      0.231      4.690      1.691      2.416      2.174      3.401      273.027    5186.182  
5211.623   12.250     71.552     0.006      0.285      0.004      3.141      0.000      0.124      0.000      30.019     43.756     12.226     -0.009     0.065      1.971      4.787      96.080     52.190     0.138      0.109      0.138      0.210      4.716      1.698      2.407      2.188      3.420      256.720    5186.335  
5211.775   12.250     71.552     0.005      0.282      0.003      5.364      0.000      0.130      0.000      30.019     44.221     12.226     -0.009     0.099      2.398      4.577      86.803     61.023     0.139      0.112      0.140      0.182      4.802      1.834      2.383      2.430      3.805      238.994    5186.487  
5211.928   12.250     71.552     0.007      0.268      0.004      6.160      0.000      0.143      0.000      30.019     43.698     12.217     -0.006     -0.046     2.233      5.049      84.198     89.274     0.137      0.116      0.140      0.174      4.833      2.049      2.365      2.816      4.702      234.051    5186.640  
5212.080   12.250     71.552     0.010      0.255      0.005      4.636      0.000      0.153      0.000      30.019     43.696     12.271     -0.004     -0.047     2.232      5.051      185.771    268.168    0.151      0.136      0.156      0.148      4.806      2.270      2.365      3.243      6.159      281.783    5186.792  
5212.232   12.250     71.552     0.007      0.243      0.006      0.663      0.013      0.163      0.000      30.019     43.696     12.291     -0.004     -0.047     2.232      5.051      574.026    772.144    0.182      0.168      0.185      0.173      4.753      2.430      2.376      3.536      7.627      353.509    5186.944  
5212.385   12.250     71.552     0.002      0.248      0.001      0.002      0.011      0.169      0.000      30.019     43.696     12.291     -0.006     -0.047     2.232      5.051      1368.162   1934.225   0.211      0.198      0.214      0.197      4.743      2.543      2.374      3.724      8.442      406.342    5187.097  
