~Version
 VERS              .         2.0                           : CWLS LOG ASCII STANDARD - VERSION 2.0
 WRAP              .         NO                            : ONE LINE PER DEPTH STEP
 DLM               .         SPACE                         : DELIMITING CHARACTER(SPACE TAB OR COMMA)
~Well Information
#_______________________________________________________________________________
#
#PARAMETER_NAME    .UNIT     VALUE                         : DESCRIPTION
#_______________________________________________________________________________
STRT               .M        4938.217                      : First reference value
STOP               .M        5227.625                      : Last reference value
STEP               .M        0.152                         : Step increment
NULL               .         -9999                         : Missing value
COMP               .         PETROBRAS                     : Company
WELL               .         7-SPH-17-SPS                  : Well name
FLD                .         SAPINHOA                      : Field
LOC                .                                       : Location
CNTY               .                                       : County
STAT               .         86316027948                   : State
CTRY               .         Brasil                        : Country
SRVC               .                                       : Service Company
DATE               .                                       : Date
API                .                                       : API number
APD                .M        25                            : Elevation of Depth Reference (LMF) Above Permanent Datum
BHS                .         OPEN                          : Borehole Status (Open or Cased Hole)
BHT                .degF     144                           : Bottom Hole Temperature
BLI                .M        5222.59                       : Bottom Log Interval
BS                 .in       12.25                         : Bit Size
CBDR               .M        5017                          : Casing Bottom (Driller)
CBLO               .M        5020.6                        : Casing Bottom (Logger)
CSIZ               .in       14                            : Casing Outer Diameter
CWEI               .lbm/ft   114                           : Casing Weight
DCS                .         04/01/2015                    : Date Circulation Stopped
DFD                .lb/gal   9.6                           : Drilling Fluid Density
DFT                .         BR-MUL                        : Drilling Fluid Type
DLAB               .         06/01/2015                    : Date Logging on Bottom
EDF                .M        25                            : Elevation of Drill Floor
EGL                .M        -2131                         : Elevation of Ground Level
EKB                .M        25                            : Elevation of Kelly Bushing
EPD                .M        0                             : Elevation of Permanent Datum (PDAT) above Mean Sea Level
LMF                .         MR                            : Logging Measured From (Name of Logging Elevation Reference)
LUL                .         BRMA                          : Logging Unit Location
LUN                .         7806                          : Logging Unit Number
LONG               .         -43_09_42,450                 : Longitude
MCST               .degF     -999.25                       : Mudcake Sample Temperature
MFST               .degF     -999.25                       : Mud Filtrate Sample Temperature
MRT                .degF     144                           : Maximum Recorded Temperature
MST                .degF     -999.25                       : Mud Sample Temperature
PDAT               .         NM                            : Permanent Datum
PRODUCER-CODE      .         440                           : 
PRODUCER-NAME      .         Schlumberger                  : 
RMB                .ohm.m    -999.25                       : Resistivity of Mud at Bottom Hole Temperature
RMCS               .ohm.m    -999.25                       : Resistivity of Mud Cake Sample
RMFS               .ohm.m    -999.25                       : Resistivity of Mud Filtrate Sample
RMS                .ohm.m    -999.25                       : Resistivity of Mud Sample
RUN                .         02                            : Run Number
TCS                .h        17_30                         : Time Circulation Stopped
TDD                .M        5221                          : Total Depth (Driller)
TDL                .M        5225                          : Logger Total Depth
TLAB               .h        09_25                         : Time Logging on Bottom
TLI                .M        5020.6                        : Top Log Interval
X                  .M        684517.00000000               : 
Y                  .M        7161201.00000000              : 
~Parameter Information Block
#_______________________________________________________________________________
#
#PARAMETER_NAME    .UNIT     VALUE                         : DESCRIPTION
#_______________________________________________________________________________
SET                .         BASE                          : 
TLFamily_BS        .         Bit Size                      : 
TLFamily_DT        .         Compressional Slowness        : 
TLFamily_DWAL      .         Aluminum Weight Fraction      : 
TLFamily_DWCA      .         Calcium Weight Fraction       : 
TLFamily_DWFE      .         Iron Weight Fraction          : 
TLFamily_DWGD      .         Gadolinium Weight Fraction    : 
TLFamily_DWS       .         Sulfur Weight Fraction        : 
TLFamily_DWSI      .         Silicon Weight Fraction       : 
TLFamily_DWTI      .         Titanium Weight Fraction      : 
TLFamily_GR        .         Gamma Ray                     : 
TLFamily_GRt       .         Gamma Ray                     : 
TLFamily_HCAL      .         Caliper                       : 
TLFamily_HDRA      .         Bulk Density Correction       : 
TLFamily_HFK       .         Potassium Concentration       : 
TLFamily_HTHO      .         Thorium Concentration         : 
TLFamily_HURA      .         Uranium Concentration         : 
TLFamily_KSDR      .         NMR Permeability              : 
TLFamily_KTIM      .         NMR Permeability              : 
TLFamily_MD        .         Measured Depth                : 
TLFamily_NMRE_Final .         NMR Bound Fluid Volume Fraction: 
TLFamily_NMRFL_Final .         NMR Free Fluids               : 
TLFamily_NMRT_Final .         NMR Porosity                  : 
TLFamily_NPHI      .         Neutron Porosity              : 
TLFamily_PE        .         Photoelectric Factor          : 
TLFamily_RD        .         Resistivity - Deep            : 
TLFamily_RHOB      .         Bulk Density                  : 
TLFamily_RM        .         Resistivity - Medium          : 
TLFamily_RS        .         Resistivity - Shallow         : 
TLFamily_T2LM      .         NMR T2 Logarithmic Mean       : 
TLFamily_TVDSS     .         True Vertical Depth Sub Sea   : 
~Curve Information
#_______________________________________________________________________________
#
#LOGNAME           .UNIT     LOG_ID                        : DESCRIPTION
#_______________________________________________________________________________
DEPTH              .M                                      :  
BS                 .in                                     : Bit Size 
DT                 .us/ft                                  : Delta-T Compressional 
DWAL               .kg/kg                                  : Dry Weight Fraction Pseudo Aluminum (SpectroLith WALK2 Model) 
DWCA               .kg/kg                                  : Dry Weight Fraction Calcium (SpectroLith WALK2 Model) 
DWFE               .kg/kg                                  : Dry Weight Fraction Iron + 0.14 Aluminum (SpectroLith WALK2 Model) 
DWGD               .ppm                                    : Dry Weight Fraction Gadolinium (SpectroLith WALK2 Model) 
DWS                .kg/kg                                  : Dry Weight Fraction Sulfur (SpectroLith WALK2 Model) 
DWSI               .kg/kg                                  : Dry Weight Fraction Silicon (SpectroLith WALK2 Model) 
DWTI               .kg/kg                                  : Dry Weight Fraction Titanium (SpectroLith WALK2 Model) 
GR                 .gAPI                                   : Gamma Ray 
GRt                .gAPI                                   : HNGS Standard Gamma-Ray 
HCAL               .in                                     : HRCC Caliper Calibrated 
HDRA               .g/cm3                                  : Density Standoff Correction 
HFK                .%                                      : HNGS Formation Potassium Concentration 
HTHO               .ppm                                    : HNGS Formation Thorium Concentration 
HURA               .ppm                                    : HNGS Formation Uranium Concentration 
KSDR               .mD                                     : SDR Permeability 
KTIM               .mD                                     : Timur/Coates Permeability 
NMRE_Final         .m3/m3                                  : CMR Porosity with T2 values greater than 3 ms 
NMRFL_Final        .unitless                               : CMR Free Fluid 
NMRT_Final         .frac                                   : Total CMR Porosity 
NPHI               .frac                                   : Enhanced Thermal Neutron Porosity in Selected Lithology 
PE                 .b/e                                    : Standard Resolution Formation Photoelectric Factor 
RD                 .ohm.m                                  : Array Induction Two Foot Resistivity A90 
RHOB               .g/cm3                                  : Standard Resolution Formation Density 
RM                 .ohm.m                                  : Array Induction Two Foot Resistivity A30 
RS                 .ohm.m                                  : Array Induction Two Foot Resistivity A10 
T2LM               .ms                                     : T2 Logarithmic Mean 
TVDSS              .M                                      :  
~Ascii
# ...
5166.817   12.250     61.557     0.008      0.317      0.006      0.000      0.009      0.078      0.000      32.894     32.871     12.291     -0.003     0.183      1.512      3.187      5.388      3.261      0.098      0.064      0.098      0.133      4.548      12.047     2.559      9.652      52.818     120.473    5141.532  
5166.970   12.250     61.518     0.007      0.327      0.005      0.000      0.003      0.071      0.000      31.578     33.085     12.269     -0.003     0.206      1.584      3.127      7.130      5.046      0.109      0.072      0.109      0.175      4.499      8.652      2.549      7.579      35.580     113.626    5141.684  
5167.122   12.250     62.271     0.005      0.334      0.003      0.004      0.000      0.068      0.000      29.091     31.216     12.269     -0.002     0.212      1.544      2.873      15.873     12.331     0.127      0.087      0.127      0.175      4.412      6.169      2.537      6.203      22.248     124.172    5141.837  
5167.274   12.250     63.570     0.002      0.339      0.001      1.169      0.000      0.069      0.000      26.661     28.567     12.249     -0.002     0.201      1.617      2.518      40.917     33.316     0.145      0.107      0.145      0.163      4.283      4.910      2.525      5.664      15.381     152.775    5141.989  
5167.427   12.250     63.800     0.004      0.327      0.002      1.867      0.000      0.080      0.000      24.475     25.722     12.280     -0.002     0.194      1.566      2.187      88.177     84.295     0.160      0.125      0.160      0.191      4.174      4.102      2.512      4.653      12.288     183.448    5142.142  
5167.579   12.250     64.592     0.005      0.314      0.003      0.004      0.000      0.091      0.000      23.118     24.565     12.269     -0.002     0.187      1.688      2.009      168.105    195.353    0.173      0.142      0.173      0.217      4.085      3.552      2.500      4.619      9.784      217.445    5142.294  
5167.732   12.250     65.533     0.007      0.295      0.004      0.000      0.000      0.110      0.000      21.248     23.342     12.269     -0.000     0.174      1.634      1.933      282.971    395.773    0.182      0.156      0.182      0.209      3.929      2.857      2.498      3.983      7.342      254.103    5142.446  
5167.884   12.250     66.140     0.006      0.290      0.003      0.000      0.000      0.119      0.000      20.876     23.466     12.312     -0.000     0.204      1.793      1.798      395.900    652.117    0.185      0.164      0.186      0.164      3.798      2.339      2.483      3.202      5.821      288.639    5142.599  
5168.036   12.250     66.976     0.007      0.299      0.004      0.000      0.000      0.107      0.001      20.145     23.519     12.333     -0.002     0.208      1.765      1.792      432.678    636.410    0.180      0.160      0.180      0.202      3.836      1.985      2.443      2.706      4.641      321.978    5142.751  
5168.189   12.250     67.215     0.005      0.320      0.003      0.000      0.000      0.085      0.000      20.982     24.089     12.333     -0.003     0.219      1.975      1.742      389.782    464.033    0.170      0.151      0.170      0.258      4.121      1.763      2.397      2.323      3.819      340.059    5142.904  
5168.341   12.250     67.759     0.004      0.339      0.003      0.215      0.000      0.065      0.000      18.824     21.845     12.343     -0.005     0.194      1.715      1.634      269.453    244.683    0.159      0.138      0.160      0.241      4.499      1.689      2.375      2.096      3.275      320.434    5143.056  
5168.494   12.250     68.107     0.003      0.322      0.002      0.801      0.000      0.086      0.000      17.741     19.872     12.312     -0.004     0.186      1.475      1.475      141.645    97.608     0.149      0.123      0.153      0.273      4.738      1.675      2.388      2.017      2.932      255.138    5143.208  
5168.646   12.250     69.170     0.005      0.278      0.003      0.002      0.000      0.134      0.000      14.583     17.346     12.292     -0.006     0.184      1.324      1.219      59.855     33.387     0.145      0.109      0.154      0.207      4.731      1.682      2.405      1.951      2.750      163.514    5143.361  
5168.798   12.250     69.304     0.010      0.216      0.005      0.000      0.000      0.198      0.000      12.807     14.986     12.312     -0.005     0.160      1.290      1.011      43.625     21.506     0.154      0.104      0.168      0.195      4.451      1.750      2.414      1.946      2.758      117.830    5143.513  
5168.951   12.250     69.494     0.015      0.162      0.007      0.000      0.000      0.253      0.000      10.720     12.642     12.333     -0.004     0.143      1.143      0.811      43.483     19.593     0.159      0.104      0.177      0.199      4.071      1.898      2.404      2.060      3.023      105.617    5143.666  
5169.103   12.250     69.423     0.017      0.143      0.008      0.000      0.000      0.272      0.000      10.353     10.584     12.312     -0.004     0.125      1.022      0.644      53.749     22.486     0.160      0.107      0.180      0.205      3.793      2.035      2.382      2.143      3.275      113.071    5143.818  
5169.256   12.250     69.800     0.015      0.152      0.007      0.000      0.000      0.266      0.000      10.304     10.855     12.322     -0.004     0.131      1.146      0.614      76.707     29.963     0.159      0.113      0.179      0.232      3.724      2.066      2.373      2.115      3.253      137.373    5143.970  
5169.408   12.250     70.313     0.011      0.178      0.005      0.000      0.000      0.242      0.000      10.425     11.905     12.355     -0.002     0.136      1.239      0.672      120.539    44.103     0.162      0.120      0.176      0.227      3.731      2.077      2.395      2.087      3.101      178.019    5144.123  
5169.560   12.250     70.999     0.011      0.196      0.006      0.000      0.000      0.220      0.000      10.575     13.054     12.291     -0.001     0.140      1.294      0.812      223.777    101.970    0.171      0.135      0.179      0.227      3.748      2.034      2.427      2.037      2.972      234.613    5144.275  
5169.713   12.250     71.405     0.014      0.216      0.008      0.901      0.000      0.190      0.000      12.406     14.234     12.270     -0.002     0.148      1.439      0.863      354.384    232.063    0.184      0.152      0.188      0.211      3.797      1.986      2.433      2.010      2.982      267.997    5144.428  
5169.865   12.250     71.959     0.021      0.236      0.013      4.144      0.000      0.154      0.000      14.107     15.649     12.290     -0.001     0.148      1.591      1.000      459.943    472.320    0.194      0.166      0.195      0.208      3.893      1.926      2.416      1.989      2.829      280.993    5144.580  
5170.018   12.250     71.932     0.022      0.257      0.014      2.838      0.000      0.127      0.000      16.445     17.491     12.312     -0.002     0.177      1.646      1.138      514.977    792.511    0.198      0.175      0.200      0.275      4.029      1.907      2.384      2.000      2.788      284.393    5144.732  
5170.170   12.250     71.466     0.020      0.268      0.012      1.957      0.004      0.116      0.000      17.814     18.302     12.291     -0.004     0.185      1.775      1.173      573.106    1025.032   0.201      0.180      0.203      0.300      4.143      1.916      2.364      2.059      2.885      290.065    5144.885  
5170.322   12.250     71.105     0.011      0.271      0.008      0.003      0.013      0.123      0.000      18.302     18.338     12.269     -0.006     0.158      1.613      1.310      557.757    1134.467   0.198      0.178      0.199      0.297      4.151      1.928      2.367      2.122      3.106      297.163    5145.037  
5170.475   12.250     70.163     0.011      0.256      0.008      0.000      0.008      0.143      0.000      18.180     17.796     12.290     -0.005     0.168      1.391      1.282      379.947    670.830    0.181      0.162      0.181      0.282      3.989      2.002      2.390      2.261      3.600      298.650    5145.189  
