~Version
 VERS              .         2.0                           : CWLS LOG ASCII STANDARD - VERSION 2.0
 WRAP              .         NO                            : ONE LINE PER DEPTH STEP
 DLM               .         SPACE                         : DELIMITING CHARACTER(SPACE TAB OR COMMA)
~Well Information
#_______________________________________________________________________________
#
#PARAMETER_NAME    .UNIT     VALUE                         : DESCRIPTION
#_______________________________________________________________________________
STRT               .M        4949.000                      : First reference value
STOP               .M        5060.404                      : Last reference value
STEP               .M        0.152                         : Step increment
NULL               .         -9999                         : Missing value
COMP               .         PETROBRAS                     : Company
WELL               .         7-SPH-22-SPS                  : Well name
FLD                .         SAPINHOA                      : Field
LOC                .                                       : Location
CNTY               .                                       : County
STAT               .         SAO PAULO                     : State
CTRY               .         BR                            : Country
SRVC               .                                       : Service Company
DATE               .         25/07/2016                    : Date
API                .         863160046800                  : API number
APD                .M        26.0                          : ABOVE PERMANENT DATUM
BHT                .degF     140.0                         : BOTTOMHOLE TEMPERATURE
BLI                .M        5055.8                        : BOTTOM LOGGED INTERVAL
BS                 .in       8.5                           : BIT SIZE
CBDR               .M        4981                          : Casing Bottom (Driller)
CBLO               .M        4981                          : Casing Bottom of Logger
CSIZ               .in       10.75                         : Casing Outer Diameter
CWEI               .lb/ft    85.3                          : Casing Weight
DCS                .         23/07/2016                    : DATE CIRCULATION STOPPED
DFD                .lb/gal   9.7                           : DRILLING FLUID DENSITY
DFT                .         CATIONICO_SCOL (BASE AGUA)    : DRILLING FLUID TYPE
DLAB               .         25/07/2016                    : DATE LOGGING ON BOTTOM
EDF                .M        26.0                          : ELEVATION OF DRILLING FLOOR
EGL                .M        -2144.0                       : ELEVATION OF GROUND LEVEL
EKB                .M        -999.25                       : ELEVATION OF KELLY BUSHING
EPD                .M        0.0                           : ELEVATATION OF PERMANENT DATUM
GDAT               .                                       : Geodetic Datum
LMF                .         MR                            : LOG MEASURED FROM
LUL                .         MCE                           : LOGGING UNIT LOCATION
LUN                .         10898943                      : LOGGING UNIT NUMBER
LATI               .         -25_48_08.320                 : Latitude
LONG               .         -43_13_44,430                 : LONGITUDE
MCST               .degF     66.1                          : MUDCAKE SAMPLE TEMPERATURE
MFST               .degF     66.4                          : MUD FILTRATE SAMPLE TEMPERATURE
MRT                .degF     140.0                         : MAXIMUM RECORDED TEMPERATURE
MST                .degF     65.8                          : MUD SAMPLE TEMPERATURE
ORIGINALWELLNAME   .         7SPH 0022  SPS                : 
PDAT               .         NM                            : PERMANENT DATUM
PRODUCER-CODE      .         280                           : 
PRODUCER-NAME      .         Halliburton                   : 
RMB                .ohm.m    0.040                         : RESISTIVITY OF MUD - BHT
RMCS               .ohm.m    0.140                         : RESISTIVITY OF MUDCAKE SAMPLE
RMFS               .ohm.m    0.012                         : RESISTIVITY OF MUD FILTRATE SAMPLE
RMS                .ohm.m    0.080                         : RESISTIVITY OF MUD SAMPLE
RUN                .         01                            : RUN NUMBER 1
TCS                .h        19_00                         : TIME CIRCULATION STOPPED
TDD                .M        5058.0                        : DRILLERS DEPTH
TDL                .M        5057.1                        : LOGGERS DEPTH
TLAB               .h        07_15                         : TIME LOGGING ON BOTTOM
TLI                .M        4950.0                        : TOP LOGGED INTERVAL
X                  .M        677550.00000000               : X or East-West coordinate
Y                  .M        7145014.00000000              : Y or North South coordinate
~Parameter Information Block
#_______________________________________________________________________________
#
#PARAMETER_NAME    .UNIT     VALUE                         : DESCRIPTION
#_______________________________________________________________________________
SET                .         BASE                          : 
TLFamily_BS        .         Bit Size                      : 
TLFamily_DT        .         Compressional Slowness        : 
TLFamily_DWAL      .         Aluminum Weight Fraction      : 
TLFamily_DWCA      .         Calcium Weight Fraction       : 
TLFamily_DWFE      .         Iron Weight Fraction          : 
TLFamily_DWK       .         Potassium Weight Fraction     : 
TLFamily_DWMG      .         Magnesium Weight Fraction     : 
TLFamily_DWMN      .         Manganese Weight Fraction     : 
TLFamily_DWS       .         Sulfur Weight Fraction        : 
TLFamily_DWSI      .         Silicon Weight Fraction       : 
TLFamily_DWTI      .         Titanium Weight Fraction      : 
TLFamily_GR        .         Gamma Ray                     : 
TLFamily_GRt       .         Gamma Ray                     : 
TLFamily_HCAL      .         Caliper                       : 
TLFamily_HDRA      .         Bulk Density Correction       : 
TLFamily_HFK       .         Potassium Concentration       : 
TLFamily_HTHO      .         Thorium Concentration         : 
TLFamily_HURA      .         Uranium Concentration         : 
TLFamily_MD        .         Measured Depth                : 
TLFamily_MPERM     .         NMR Permeability              : 
TLFamily_NMRE_Final .         NMR Bound Fluid Volume Fraction: 
TLFamily_NMRFL_Final .         NMR Free Fluids               : 
TLFamily_NMRT_Final .         NMR Porosity                  : 
TLFamily_NPHI      .         Neutron Porosity              : 
TLFamily_PE        .         Photoelectric Factor          : 
TLFamily_RD        .         Resistivity - Deep            : 
TLFamily_RHOB      .         Bulk Density                  : 
TLFamily_RS        .         Resistivity - Shallow         : 
TLFamily_T2LM      .         NMR T2 Logarithmic Mean       : 
TLFamily_TVDSS     .         True Vertical Depth Sub Sea   : 
~Curve Information
#_______________________________________________________________________________
#
#LOGNAME           .UNIT     LOG_ID                        : DESCRIPTION
#_______________________________________________________________________________
DEPTH              .M                                      :  
BS                 .in                                     : BS/Bit Size 
DT                 .us/ft                                  : SONICO COMPRESSIONAL (COMPOSICAO DE CURVAS CABO E/OU LWD) 
DWAL               .kg/kg                                  : DAL/DryrockAlWF 
DWCA               .kg/kg                                  : DCA/DryrockCaWF 
DWFE               .kg/kg                                  : DFE/DryrockFeWF 
DWK                .kg/kg                                  : DK/DryrockKWF 
DWMG               .kg/kg                                  : DMG/DryrockMgWF 
DWMN               .kg/kg                                  : DMN/DryrockMnWF 
DWS                .kg/kg                                  : DSUL/DryrockSuWF 
DWSI               .kg/kg                                  : DSI/DryrockSiWF 
DWTI               .kg/kg                                  : DTI/DryrockTiWF 
GR                 .gAPI                                   : GR/Gamma API 
GRt                .gAPI                                   : GKUT/GammaKUT 
HCAL               .in                                     : CALI/Caliper 
HDRA               .g/cm3                                  : DRHO/DensityCorr 
HFK                .%                                      : POTA/Potassium 
HTHO               .ppm                                    : THOR/Thorium 
HURA               .ppm                                    : URAN/Uranium 
MPERM              .mD                                     : MPERMT2/MrilT2KCoat 
NMRE_Final         .m3/m3                                  : MPHIT2/TA-grp T2 Effective Por 
NMRFL_Final        .unitless                               : MFFIT2/TA-grp T2 FreeFluid Ind 
NMRT_Final         .frac                                   : MSIGT2/TA-grp T2 Total Por. 
NPHI               .frac                                   : NPHI/Neutron Porosity 
PE                 .b/e                                    : PE/Pe 
RD                 .ohm.m                                  : LLD/LLD 
RHOB               .g/cm3                                  : RHOB/Density 
RS                 .ohm.m                                  : LLS/LLS 
T2LM               .ms                                     : T2LM/T2 Log Mean 
TVDSS              .M                                      :  
~Ascii
# ...
4987.100   8.500      69.058     0.012      0.176      0.000      0.001      0.062      0.001      0.010      0.142      0.001      34.892     30.465     8.515      -0.010     0.037      2.261      2.504      32.194     0.131      0.107      0.149      0.139      2.894      232.084    2.413      181.421    175.190    4954.887  
4987.252   8.500      68.712     0.008      0.195      0.001      0.001      0.054      0.001      0.012      0.135      0.000      24.717     25.483     8.514      -0.010     0.030      2.354      1.928      26.667     0.125      0.102      0.140      0.142      3.154      257.006    2.424      204.515    231.041    4955.039  
4987.405   8.500      67.838     0.007      0.207      0.001      0.001      0.053      0.000      0.012      0.123      0.000      18.045     20.733     8.511      -0.020     0.016      2.089      1.520      23.307     0.121      0.096      0.128      0.149      3.394      299.985    2.455      260.223    322.759    4955.190  
4987.557   8.500      66.503     0.006      0.204      0.001      0.001      0.064      0.001      0.010      0.112      0.000      14.930     16.536     8.505      -0.023     0.040      1.474      1.234      23.051     0.118      0.092      0.119      0.122      3.551      808.240    2.515      1197.328   342.001    4955.341  
4987.710   8.500      62.195     0.007      0.204      0.001      0.001      0.064      0.001      0.010      0.110      0.000      11.776     14.217     8.503      -0.016     0.059      0.874      1.160      16.820     0.112      0.087      0.115      0.100      3.641      656.121    2.570      619.581    258.725    4955.492  
4987.862   8.500      60.300     0.012      0.198      0.000      0.001      0.065      0.001      0.010      0.112      0.000      13.299     14.632     8.500      -0.014     0.084      0.518      1.292      6.772      0.101      0.075      0.110      0.098      3.699      573.466    2.589      498.057    186.832    4955.644  
4988.014   8.500      59.910     0.013      0.197      0.000      0.001      0.060      0.001      0.010      0.118      0.001      18.938     16.165     8.501      -0.014     0.105      0.416      1.464      3.306      0.090      0.064      0.098      0.099      3.709      539.504    2.597      493.116    179.155    4955.795  
4988.167   8.500      63.240     0.012      0.198      0.001      0.001      0.056      0.001      0.010      0.123      0.002      23.857     18.338     8.509      -0.012     0.116      0.464      1.667      2.972      0.085      0.061      0.088      0.098      3.642      459.665    2.608      449.197    196.074    4955.946  
4988.319   8.500      67.482     0.010      0.199      0.001      0.001      0.058      0.002      0.011      0.122      0.002      25.821     22.197     8.505      -0.008     0.125      0.654      2.012      2.340      0.087      0.060      0.096      0.099      3.581      507.769    2.614      565.587    124.286    4956.097  
4988.472   8.500      66.705     0.007      0.208      0.001      0.001      0.051      0.002      0.013      0.125      0.002      25.623     24.598     8.505      -0.005     0.132      0.709      2.248      2.641      0.093      0.063      0.110      0.100      3.630      500.412    2.609      495.732    90.119     4956.249  
4988.624   8.500      62.709     0.004      0.221      0.001      0.001      0.035      0.002      0.015      0.136      0.003      29.368     29.436     8.507      -0.006     0.106      0.818      2.794      4.121      0.100      0.070      0.121      0.111      3.667      398.086    2.599      376.243    86.978     4956.400  
4988.776   8.500      63.000     0.004      0.222      0.001      0.001      0.030      0.002      0.016      0.144      0.003      36.218     32.586     8.506      -0.011     0.081      0.944      3.142      7.245      0.108      0.079      0.124      0.111      3.618      304.838    2.586      336.085    117.305    4956.551  
4988.929   8.500      67.348     0.004      0.215      0.001      0.000      0.036      0.002      0.013      0.144      0.002      47.047     37.660     8.500      -0.010     0.044      1.087      3.720      13.585     0.115      0.087      0.123      0.112      3.414      174.646    2.552      156.170    193.614    4956.702  
4989.081   8.500      69.465     0.003      0.217      0.000      0.001      0.038      0.002      0.009      0.141      0.002      48.478     38.957     8.500      -0.004     0.028      1.224      3.843      23.119     0.121      0.093      0.122      0.116      3.291      180.414    2.527      152.584    289.707    4956.854  
4989.234   8.500      69.071     0.003      0.229      0.000      0.001      0.040      0.001      0.008      0.125      0.002      43.552     36.656     8.500      -0.003     0.057      1.277      3.516      26.170     0.130      0.098      0.132      0.157      3.415      184.803    2.455      156.436    297.266    4957.005  
4989.386   8.500      68.406     0.006      0.239      0.000      0.001      0.049      0.001      0.008      0.096      0.002      35.189     33.014     8.499      -0.007     0.095      1.277      3.043      23.522     0.141      0.103      0.151      0.170      3.638      185.294    2.423      156.451    214.695    4957.156  
4989.538   8.500      67.425     0.011      0.247      0.000      0.001      0.059      0.001      0.007      0.066      0.002      18.434     24.908     8.497      -0.026     0.126      1.301      2.077      21.434     0.145      0.104      0.165      0.144      3.766      715.940    2.443      980.987    160.207    4957.307  
4989.691   8.500      69.107     0.015      0.245      0.000      0.001      0.068      0.001      0.006      0.049      0.002      13.944     20.726     8.502      -0.035     0.123      1.388      1.585      19.476     0.146      0.103      0.170      0.134      3.721      1211.692   2.465      1804.059   147.587    4957.459  
4989.843   8.500      70.173     0.015      0.253      0.000      0.002      0.058      0.001      0.006      0.056      0.001      13.321     18.309     8.500      -0.030     0.100      1.627      1.269      17.941     0.149      0.100      0.165      0.142      3.867      479.508    2.465      467.549    184.968    4957.610  
4989.996   8.500      70.054     0.017      0.255      0.000      0.002      0.051      0.001      0.006      0.063      0.001      12.780     18.351     8.502      -0.022     0.063      1.860      1.256      18.324     0.149      0.100      0.161      0.157      4.221      429.976    2.454      398.484    215.273    4957.761  
4990.148   8.500      69.713     0.019      0.262      0.000      0.003      0.030      0.001      0.007      0.086      0.001      14.310     22.391     8.507      -0.032     0.058      1.912      1.695      27.950     0.144      0.104      0.147      0.156      4.411      382.073    2.459      349.039    311.368    4957.912  
4990.300   8.500      68.900     0.015      0.258      0.000      0.002      0.023      0.001      0.009      0.104      0.001      18.771     27.764     8.508      -0.042     0.104      1.835      2.240      47.434     0.136      0.107      0.136      0.148      4.325      350.035    2.473      308.013    368.191    4958.064  
4990.453   8.500      68.194     0.009      0.249      0.001      0.002      0.019      0.001      0.009      0.129      0.001      26.959     33.236     8.508      -0.032     0.154      1.424      2.911      50.523     0.134      0.107      0.134      0.146      4.072      336.157    2.487      295.489    367.965    4958.215  
4990.605   8.500      68.274     0.006      0.235      0.001      0.001      0.023      0.001      0.011      0.142      0.001      37.523     36.969     8.508      -0.019     0.179      0.958      3.451      50.935     0.128      0.104      0.128      0.140      3.844      306.647    2.493      268.839    358.933    4958.366  
4990.758   8.500      68.185     0.006      0.212      0.000      0.001      0.041      0.001      0.011      0.140      0.001      46.431     36.381     8.505      -0.011     0.155      0.547      3.578      42.266     0.121      0.099      0.121      0.138      3.743      573.761    2.507      557.761    358.168    4958.517  
