~Version
 VERS              .         2.0                           : CWLS LOG ASCII STANDARD - VERSION 2.0
 WRAP              .         NO                            : ONE LINE PER DEPTH STEP
 DLM               .         SPACE                         : DELIMITING CHARACTER(SPACE TAB OR COMMA)
~Well Information
#_______________________________________________________________________________
#
#PARAMETER_NAME    .UNIT     VALUE                         : DESCRIPTION
#_______________________________________________________________________________
STRT               .M        5014.000                      : First reference value
STOP               .M        5322.763                      : Last reference value
STEP               .M        0.152                         : Step increment
NULL               .         -9999                         : Missing value
COMP               .         PETROBRAS                     : Company
WELL               .         7-SPH-20D-SPS                 : Well name
FLD                .         SAPINHOA                      : Field
LOC                .                                       : Location
CNTY               .                                       : County
STAT               .         SAO PAULO                     : State
CTRY               .         BRASIL                        : Country
SRVC               .                                       : Service Company
DATE               .                                       : Date
API                .         863160046300                  : API number
APD                .M        26.0                          : ABOVE PERMANENT DATUM
BHT                .degF     140.0                         : BOTTOMHOLE TEMPERATURE
BLI                .M        5313.7                        : BOTTOM LOGGED INTERVAL
BS                 .in       12.25                         : BIT SIZE
DCS                .         31/01/2016                    : DATE CIRCULATION STOPPED
DFD                .lb/gal   9.7                           : DRILLING FLUID DENSITY
DFT                .         OLEDRILL(BASE OLEFINA)        : DRILLING FLUID TYPE
DLAB               .         01/02/2016                    : DATE LOGGING ON BOTTOM
EDF                .M        26.0                          : ELEVATION OF DRILLING FLOOR
EGL                .M        -2129.0                       : ELEVATION OF GROUND LEVEL
EKB                .M        26.0                          : ELEVATION OF KELLY BUSHING
EPD                .M        0                             : ELEVATATION OF PERMANENT DATUM
GDAT               .         SIRGAS2000                    : Geodetic Datum
LMF                .         MR                            : LOG MEASURED FROM
LUL                .         MCE                           : LOGGING UNIT LOCATION
LUN                .         11792307                      : LOGGING UNIT NUMBER
LATI               .         -25_41_36.136                 : Latitude
LONG               .         -43_10_30,988                 : LONGITUDE
MCST               .degF     -999.25                       : MUDCAKE SAMPLE TEMPERATURE
MFST               .degF     -999.25                       : MUD FILTRATE SAMPLE TEMPERATURE
MRT                .degF     140.0                         : MAXIMUM RECORDED TEMPERATURE
MST                .degF     -999.25                       : MUD SAMPLE TEMPERATURE
ORIGINALWELLNAME   .         7SPH 0020D SPS                : 
PDAT               .         NM                            : PERMANENT DATUM
PRODUCER-CODE      .         280                           : 
PRODUCER-NAME      .         Halliburton                   : 
RMB                .ohm.m    -999.25                       : RESISTIVITY OF MUD - BHT
RMCS               .ohm.m    -999.25                       : RESISTIVITY OF MUDCAKE SAMPLE
RMFS               .ohm.m    -999.25                       : RESISTIVITY OF MUD FILTRATE SAMPLE
RMS                .ohm.m    -999.25                       : RESISTIVITY OF MUD SAMPLE
RUN                .         01                            : RUN NUMBER 1
TCS                .h        09_00                         : TIME CIRCULATION STOPPED
TDD                .M        5315.0                        : DRILLERS DEPTH
TDL                .M        5316.9                        : LOGGERS DEPTH
TLAB               .h        08_00                         : TIME LOGGING ON BOTTOM
TLI                .M        5013.8                        : TOP LOGGED INTERVAL
X                  .M        683110.00000000               : X UTM Coordinate
Y                  .M        7157356.00000000              : Y UTM Coordinate
~Parameter Information Block
#_______________________________________________________________________________
#
#PARAMETER_NAME    .UNIT     VALUE                         : DESCRIPTION
#_______________________________________________________________________________
SET                .         BASE                          : 
TLFamily_BS        .         Bit Size                      : 
TLFamily_DT        .         Compressional Slowness        : 
TLFamily_DWAL      .         Aluminum Weight Fraction      : 
TLFamily_DWCA      .         Calcium Weight Fraction       : 
TLFamily_DWFE      .         Iron Weight Fraction          : 
TLFamily_DWGD      .         Gadolinium Weight Fraction    : 
TLFamily_DWK       .         Potassium Weight Fraction     : 
TLFamily_DWMG      .         Magnesium Weight Fraction     : 
TLFamily_DWMN      .         Manganese Weight Fraction     : 
TLFamily_DWS       .         Sulfur Weight Fraction        : 
TLFamily_DWSI      .         Silicon Weight Fraction       : 
TLFamily_DWTI      .         Titanium Weight Fraction      : 
TLFamily_GR        .         Gamma Ray                     : 
TLFamily_GRt       .         Gamma Ray                     : 
TLFamily_HCAL      .         Caliper                       : 
TLFamily_HDRA      .         Bulk Density Correction       : 
TLFamily_HFK       .         Potassium Concentration       : 
TLFamily_HTHO      .         Thorium Concentration         : 
TLFamily_HURA      .         Uranium Concentration         : 
TLFamily_MD        .         Measured Depth                : 
TLFamily_MPERM     .         NMR Permeability              : 
TLFamily_NMRE_Final .         NMR Bound Fluid Volume Fraction: 
TLFamily_NMRFL_Final .         NMR Free Fluids               : 
TLFamily_NMRT_Final .         NMR Porosity                  : 
TLFamily_NPHI      .         Neutron Porosity              : 
TLFamily_PE        .         Photoelectric Factor          : 
TLFamily_RD        .         Resistivity - Deep            : 
TLFamily_RHOB      .         Bulk Density                  : 
TLFamily_RM        .         Resistivity - Medium          : 
TLFamily_RS        .         Resistivity - Shallow         : 
TLFamily_T2LM      .         NMR T2 Logarithmic Mean       : 
TLFamily_TVDSS     .         True Vertical Depth Sub Sea   : 
~Curve Information
#_______________________________________________________________________________
#
#LOGNAME           .UNIT     LOG_ID                        : DESCRIPTION
#_______________________________________________________________________________
DEPTH              .M                                      :  
BS                 .in                                     : BS/Bit Size 
DT                 .us/ft                                  : DTC/MonoDeltaT 
DWAL               .kg/kg                                  : DAL/DryrockAlWF 
DWCA               .kg/kg                                  : DCA/DryrockCaWF 
DWFE               .kg/kg                                  : DFE/DryrockFeWF 
DWGD               .ppm                                    : DGD/DryrockGdWF 
DWK                .kg/kg                                  : DK/DryrockKWF 
DWMG               .kg/kg                                  : DMG/DryrockMgWF 
DWMN               .kg/kg                                  : DMN/DryrockMnWF 
DWS                .kg/kg                                  : DSUL/DryrockSuWF 
DWSI               .kg/kg                                  : DSI/DryrockSiWF 
DWTI               .kg/kg                                  : DTI/DryrockTiWF 
GR                 .gAPI                                   : GR/Gamma API 
GRt                .gAPI                                   : GKUT/GammaKUT 
HCAL               .in                                     : CALI/Caliper 
HDRA               .g/cm3                                  : Density Delta Rho Filtered 
HFK                .%                                      : POTA/Potassium 
HTHO               .ppm                                    : THOR/Thorium 
HURA               .ppm                                    : URAN/Uranium 
MPERM              .mD                                     : MPERMT2/MrilT2KCoat 
NMRE_Final         .m3/m3                                  : MPHIT2/TA-grp T2 Effective Por 
NMRFL_Final        .unitless                               : MFFIT2/TA-grp T2 FreeFluid Ind 
NMRT_Final         .frac                                   : MSIGT2/TA-grp T2 Total Por. 
NPHI               .frac                                   : POROSIDADE NEUTRONICA (COMPOSICAO DE CURVAS CABO E/OU LWD) 
PE                 .b/e                                    : Density PE Filtered 
RD                 .ohm.m                                  : RT90/90in Resistivity 2ft Res 
RHOB               .g/cm3                                  : DENSIDADE (COMPOSICAO DE CURVAS CABO E/OU LWD ) 
RM                 .ohm.m                                  : RT30/30in Resistivity 2ft Res 
RS                 .ohm.m                                  : RT10/10in Resistivity 2ft Res 
T2LM               .ms                                     : T2LM/T2 Log Mean 
TVDSS              .M                                      :  
~Ascii
# ...
5161.219   12.250     67.470     0.014      0.252      0.001      0.000      0.017      0.000      0.000      0.003      0.149      0.001      29.981     37.530     13.807     0.077      0.246      0.988      3.360      7.671      0.120      0.079      0.121      0.137      7.762      1114.777   2.367      969.958    902.423    193.242    5037.372  
5161.371   12.250     67.682     0.013      0.273      0.000      0.000      0.016      0.000      0.001      0.007      0.124      0.001      31.244     37.459     13.788     0.088      0.278      1.263      3.190      4.431      0.116      0.071      0.117      0.125      8.030      856.565    2.336      741.011    725.391    176.052    5037.513  
5161.523   12.250     67.137     0.012      0.276      0.001      0.000      0.015      0.000      0.001      0.010      0.121      0.001      31.535     37.617     13.739     0.099      0.304      1.281      3.155      1.919      0.109      0.059      0.110      0.108      8.179      668.105    2.324      575.661    558.489    140.857    5037.653  
5161.676   12.250     66.219     0.014      0.266      0.002      0.000      0.017      0.000      0.001      0.012      0.127      0.001      30.329     38.052     13.571     0.116      0.356      0.985      3.220      0.785      0.097      0.047      0.103      0.097      8.415      421.262    2.348      378.397    384.739    98.451     5037.793  
5161.828   12.250     64.540     0.015      0.257      0.002      0.000      0.019      0.000      0.001      0.012      0.135      0.001      29.289     39.133     13.393     0.128      0.390      0.719      3.378      0.543      0.089      0.043      0.097      0.104      8.722      258.947    2.389      246.382    267.819    83.389     5037.933  
5161.981   12.250     63.008     0.017      0.247      0.003      0.000      0.021      0.000      0.001      0.012      0.144      0.002      31.981     40.676     13.159     0.137      0.386      0.313      3.710      0.491      0.086      0.042      0.091      0.122      8.936      143.836    2.444      143.749    162.690    90.303     5038.073  
5162.133   12.250     62.715     0.017      0.238      0.004      0.000      0.021      0.000      0.001      0.012      0.153      0.002      37.118     41.639     13.029     0.153      0.367      0.147      3.915      0.623      0.085      0.044      0.088      0.134      9.042      101.007    2.488      102.215    118.239    95.881     5038.213  
5162.285   12.250     63.674     0.018      0.236      0.004      0.000      0.022      0.000      0.000      0.011      0.155      0.003      40.173     42.274     12.931     0.165      0.332      0.314      3.987      1.444      0.086      0.054      0.089      0.142      8.863      83.841     2.508      85.868     100.991    101.260    5038.353  
5162.438   12.250     65.512     0.017      0.244      0.003      0.000      0.022      0.000      0.000      0.009      0.148      0.003      36.991     41.680     12.899     0.161      0.320      0.601      3.836      3.292      0.091      0.063      0.092      0.158      8.439      88.123     2.505      91.385     111.509    123.279    5038.493  
5162.590   12.250     67.000     0.017      0.258      0.001      0.000      0.021      0.000      0.000      0.006      0.135      0.003      32.525     40.743     12.913     0.120      0.310      0.905      3.635      6.285      0.099      0.071      0.099      0.182      7.874      98.137     2.485      103.863    136.097    159.703    5038.633  
5162.743   12.250     68.658     0.017      0.264      0.001      0.000      0.021      0.000      0.000      0.005      0.129      0.003      31.789     40.545     12.919     0.083      0.289      1.024      3.608      11.307     0.107      0.080      0.107      0.201      7.479      90.511     2.467      96.015     126.798    182.505    5038.773  
5162.895   12.250     68.994     0.015      0.277      0.001      0.000      0.019      0.000      0.000      0.002      0.118      0.002      31.657     40.521     12.923     0.065      0.281      1.109      3.588      20.936     0.117      0.090      0.117      0.207      7.297      68.767     2.456      72.176     91.849     193.962    5038.914  
5163.047   12.250     67.949     0.016      0.292      0.000      0.000      0.020      0.000      0.000      0.001      0.101      0.001      31.816     41.204     12.937     0.060      0.280      0.966      3.719      36.444     0.126      0.101      0.129      0.193      7.218      59.701     2.452      62.260     77.801     186.068    5039.054  
5163.200   12.250     66.883     0.016      0.308      0.000      0.000      0.020      0.000      0.000      0.000      0.082      0.001      33.686     41.676     12.941     0.063      0.295      0.913      3.764      42.400     0.128      0.106      0.135      0.174      7.210      55.425     2.455      57.572     71.423     168.519    5039.194  
5163.352   12.250     66.402     0.021      0.330      0.000      0.000      0.027      0.000      0.000      0.000      0.048      0.002      34.422     42.531     12.923     0.066      0.338      1.038      3.734      39.880     0.127      0.105      0.136      0.169      7.235      60.486     2.468      62.823     79.481     169.530    5039.334  
5163.505   12.250     66.183     0.021      0.339      0.000      0.000      0.027      0.000      0.000      0.000      0.038      0.002      34.311     43.148     12.903     0.068      0.364      1.127      3.723      44.880     0.126      0.105      0.133      0.171      7.277      71.251     2.472      74.196     96.532     195.115    5039.474  
5163.657   12.250     66.448     0.020      0.351      0.000      0.000      0.023      0.000      0.000      0.001      0.026      0.002      34.641     44.377     12.904     0.070      0.407      1.368      3.691      69.016     0.126      0.107      0.129      0.173      7.307      97.929     2.454      102.113    138.626    228.679    5039.614  
5163.809   12.250     66.700     0.018      0.353      0.001      0.000      0.020      0.002      0.000      0.002      0.024      0.002      37.233     45.570     12.925     0.070      0.395      1.309      3.868      107.241    0.125      0.109      0.126      0.171      7.379      122.804    2.434      127.557    177.522    252.290    5039.754  
5163.962   12.250     67.300     0.014      0.335      0.001      0.000      0.016      0.021      0.000      0.005      0.018      0.002      38.851     46.722     12.946     0.068      0.345      1.016      4.197      92.544     0.125      0.107      0.125      0.169      7.575      182.259    2.424      186.123    263.479    260.812    5039.894  
5164.114   12.250     68.010     0.013      0.325      0.001      0.000      0.016      0.031      0.000      0.004      0.014      0.002      39.267     47.495     12.897     0.066      0.284      0.795      4.476      51.780     0.126      0.103      0.126      0.168      7.742      239.846    2.420      237.949    308.363    260.175    5040.035  
5164.267   12.250     68.521     0.013      0.325      0.000      0.000      0.016      0.031      0.000      0.003      0.015      0.002      39.208     48.444     12.851     0.063      0.158      0.334      4.983      30.792     0.129      0.099      0.129      0.167      7.781      335.890    2.414      306.858    350.591    247.434    5040.175  
5164.419   12.250     68.723     0.014      0.331      0.000      0.000      0.018      0.019      0.001      0.003      0.026      0.002      38.701     48.432     12.874     0.056      0.102      0.174      5.143      17.477     0.136      0.095      0.138      0.166      7.736      393.723    2.407      340.867    346.532    198.696    5040.315  
5164.571   12.250     68.419     0.015      0.330      0.001      0.000      0.019      0.006      0.001      0.002      0.047      0.002      37.230     48.372     12.886     0.050      0.035      0.101      5.285      11.166     0.141      0.089      0.147      0.163      7.685      462.540    2.407      377.626    367.746    144.952    5040.455  
