~Version
 VERS              .         2.0                           : CWLS LOG ASCII STANDARD - VERSION 2.0
 WRAP              .         NO                            : ONE LINE PER DEPTH STEP
 DLM               .         SPACE                         : DELIMITING CHARACTER(SPACE TAB OR COMMA)
~Well Information
#_______________________________________________________________________________
#
#PARAMETER_NAME    .UNIT     VALUE                         : DESCRIPTION
#_______________________________________________________________________________
STRT               .M        4938.217                      : First reference value
STOP               .M        5227.625                      : Last reference value
STEP               .M        0.152                         : Step increment
NULL               .         -9999                         : Missing value
COMP               .         PETROBRAS                     : Company
WELL               .         7-SPH-17-SPS                  : Well name
FLD                .         SAPINHOA                      : Field
LOC                .                                       : Location
CNTY               .                                       : County
STAT               .         86316027948                   : State
CTRY               .         Brasil                        : Country
SRVC               .                                       : Service Company
DATE               .                                       : Date
API                .                                       : API number
APD                .M        25                            : Elevation of Depth Reference (LMF) Above Permanent Datum
BHS                .         OPEN                          : Borehole Status (Open or Cased Hole)
BHT                .degF     144                           : Bottom Hole Temperature
BLI                .M        5222.59                       : Bottom Log Interval
BS                 .in       12.25                         : Bit Size
CBDR               .M        5017                          : Casing Bottom (Driller)
CBLO               .M        5020.6                        : Casing Bottom (Logger)
CSIZ               .in       14                            : Casing Outer Diameter
CWEI               .lbm/ft   114                           : Casing Weight
DCS                .         04/01/2015                    : Date Circulation Stopped
DFD                .lb/gal   9.6                           : Drilling Fluid Density
DFT                .         BR-MUL                        : Drilling Fluid Type
DLAB               .         06/01/2015                    : Date Logging on Bottom
EDF                .M        25                            : Elevation of Drill Floor
EGL                .M        -2131                         : Elevation of Ground Level
EKB                .M        25                            : Elevation of Kelly Bushing
EPD                .M        0                             : Elevation of Permanent Datum (PDAT) above Mean Sea Level
LMF                .         MR                            : Logging Measured From (Name of Logging Elevation Reference)
LUL                .         BRMA                          : Logging Unit Location
LUN                .         7806                          : Logging Unit Number
LONG               .         -43_09_42,450                 : Longitude
MCST               .degF     -999.25                       : Mudcake Sample Temperature
MFST               .degF     -999.25                       : Mud Filtrate Sample Temperature
MRT                .degF     144                           : Maximum Recorded Temperature
MST                .degF     -999.25                       : Mud Sample Temperature
PDAT               .         NM                            : Permanent Datum
PRODUCER-CODE      .         440                           : 
PRODUCER-NAME      .         Schlumberger                  : 
RMB                .ohm.m    -999.25                       : Resistivity of Mud at Bottom Hole Temperature
RMCS               .ohm.m    -999.25                       : Resistivity of Mud Cake Sample
RMFS               .ohm.m    -999.25                       : Resistivity of Mud Filtrate Sample
RMS                .ohm.m    -999.25                       : Resistivity of Mud Sample
RUN                .         02                            : Run Number
TCS                .h        17_30                         : Time Circulation Stopped
TDD                .M        5221                          : Total Depth (Driller)
TDL                .M        5225                          : Logger Total Depth
TLAB               .h        09_25                         : Time Logging on Bottom
TLI                .M        5020.6                        : Top Log Interval
X                  .M        684517.00000000               : 
Y                  .M        7161201.00000000              : 
~Parameter Information Block
#_______________________________________________________________________________
#
#PARAMETER_NAME    .UNIT     VALUE                         : DESCRIPTION
#_______________________________________________________________________________
SET                .         BASE                          : 
TLFamily_BS        .         Bit Size                      : 
TLFamily_DT        .         Compressional Slowness        : 
TLFamily_DWAL      .         Aluminum Weight Fraction      : 
TLFamily_DWCA      .         Calcium Weight Fraction       : 
TLFamily_DWFE      .         Iron Weight Fraction          : 
TLFamily_DWGD      .         Gadolinium Weight Fraction    : 
TLFamily_DWS       .         Sulfur Weight Fraction        : 
TLFamily_DWSI      .         Silicon Weight Fraction       : 
TLFamily_DWTI      .         Titanium Weight Fraction      : 
TLFamily_GR        .         Gamma Ray                     : 
TLFamily_GRt       .         Gamma Ray                     : 
TLFamily_HCAL      .         Caliper                       : 
TLFamily_HDRA      .         Bulk Density Correction       : 
TLFamily_HFK       .         Potassium Concentration       : 
TLFamily_HTHO      .         Thorium Concentration         : 
TLFamily_HURA      .         Uranium Concentration         : 
TLFamily_KSDR      .         NMR Permeability              : 
TLFamily_KTIM      .         NMR Permeability              : 
TLFamily_MD        .         Measured Depth                : 
TLFamily_NMRE_Final .         NMR Bound Fluid Volume Fraction: 
TLFamily_NMRFL_Final .         NMR Free Fluids               : 
TLFamily_NMRT_Final .         NMR Porosity                  : 
TLFamily_NPHI      .         Neutron Porosity              : 
TLFamily_PE        .         Photoelectric Factor          : 
TLFamily_RD        .         Resistivity - Deep            : 
TLFamily_RHOB      .         Bulk Density                  : 
TLFamily_RM        .         Resistivity - Medium          : 
TLFamily_RS        .         Resistivity - Shallow         : 
TLFamily_T2LM      .         NMR T2 Logarithmic Mean       : 
TLFamily_TVDSS     .         True Vertical Depth Sub Sea   : 
~Curve Information
#_______________________________________________________________________________
#
#LOGNAME           .UNIT     LOG_ID                        : DESCRIPTION
#_______________________________________________________________________________
DEPTH              .M                                      :  
BS                 .in                                     : Bit Size 
DT                 .us/ft                                  : Delta-T Compressional 
DWAL               .kg/kg                                  : Dry Weight Fraction Pseudo Aluminum (SpectroLith WALK2 Model) 
DWCA               .kg/kg                                  : Dry Weight Fraction Calcium (SpectroLith WALK2 Model) 
DWFE               .kg/kg                                  : Dry Weight Fraction Iron + 0.14 Aluminum (SpectroLith WALK2 Model) 
DWGD               .ppm                                    : Dry Weight Fraction Gadolinium (SpectroLith WALK2 Model) 
DWS                .kg/kg                                  : Dry Weight Fraction Sulfur (SpectroLith WALK2 Model) 
DWSI               .kg/kg                                  : Dry Weight Fraction Silicon (SpectroLith WALK2 Model) 
DWTI               .kg/kg                                  : Dry Weight Fraction Titanium (SpectroLith WALK2 Model) 
GR                 .gAPI                                   : Gamma Ray 
GRt                .gAPI                                   : HNGS Standard Gamma-Ray 
HCAL               .in                                     : HRCC Caliper Calibrated 
HDRA               .g/cm3                                  : Density Standoff Correction 
HFK                .%                                      : HNGS Formation Potassium Concentration 
HTHO               .ppm                                    : HNGS Formation Thorium Concentration 
HURA               .ppm                                    : HNGS Formation Uranium Concentration 
KSDR               .mD                                     : SDR Permeability 
KTIM               .mD                                     : Timur/Coates Permeability 
NMRE_Final         .m3/m3                                  : CMR Porosity with T2 values greater than 3 ms 
NMRFL_Final        .unitless                               : CMR Free Fluid 
NMRT_Final         .frac                                   : Total CMR Porosity 
NPHI               .frac                                   : Enhanced Thermal Neutron Porosity in Selected Lithology 
PE                 .b/e                                    : Standard Resolution Formation Photoelectric Factor 
RD                 .ohm.m                                  : Array Induction Two Foot Resistivity A90 
RHOB               .g/cm3                                  : Standard Resolution Formation Density 
RM                 .ohm.m                                  : Array Induction Two Foot Resistivity A30 
RS                 .ohm.m                                  : Array Induction Two Foot Resistivity A10 
T2LM               .ms                                     : T2 Logarithmic Mean 
TVDSS              .M                                      :  
~Ascii
# ...
5124.907   12.250     73.744     0.000      0.380      0.000      1.042      0.000      0.023      0.000      30.876     33.001     12.291     -0.004     0.172      1.420      3.264      643.821    782.959    0.199      0.174      0.199      0.226      5.149      1787.710   2.354      1227.246   1918.789   321.545    5099.624  
5125.060   12.250     71.820     0.000      0.375      0.000      1.491      0.000      0.030      0.000      30.410     30.524     12.312     -0.004     0.156      1.353      3.004      663.993    899.390    0.197      0.175      0.197      0.225      5.041      1714.268   2.372      1171.459   1757.219   332.353    5099.776  
5125.212   12.250     70.923     0.000      0.372      0.000      1.674      0.000      0.033      0.000      29.146     28.484     12.312     -0.002     0.163      1.440      2.700      658.225    1062.757   0.194      0.175      0.194      0.199      4.905      1640.104   2.381      1137.866   1582.356   341.744    5099.928  
5125.364   12.250     63.601     0.000      0.366      0.000      1.027      0.000      0.041      0.000      26.720     25.691     12.291     -0.001     0.164      1.363      2.349      580.586    918.984    0.189      0.172      0.189      0.221      4.753      1563.500   2.383      1107.071   1919.217   336.338    5100.081  
5125.517   12.250     62.104     0.000      0.349      0.000      0.001      0.003      0.058      0.000      23.554     23.954     12.291     -0.000     0.156      1.467      2.107      417.564    715.075    0.182      0.166      0.186      0.229      4.592      1489.715   2.397      1059.304   1949.862   296.231    5100.233  
5125.669   12.250     62.263     0.000      0.335      0.000      0.000      0.001      0.077      0.000      22.536     23.244     12.291     -0.002     0.150      1.398      2.067      276.000    452.945    0.176      0.159      0.185      0.215      4.531      1428.358   2.415      994.113    1758.858   243.338    5100.386  
5125.822   12.250     64.508     0.002      0.324      0.001      0.000      0.000      0.086      0.000      21.494     22.753     12.291     -0.005     0.160      1.405      1.964      199.832    283.384    0.174      0.155      0.187      0.173      4.518      1383.186   2.434      932.929    1479.342   202.785    5100.538  
5125.974   12.250     66.755     0.006      0.317      0.004      0.443      0.000      0.087      0.000      22.152     23.174     12.312     -0.007     0.158      1.401      2.034      200.303    284.733    0.175      0.157      0.191      0.169      4.574      1377.788   2.445      897.704    1367.352   194.773    5100.690  
5126.126   12.250     65.141     0.006      0.316      0.004      0.001      0.000      0.087      0.000      21.176     22.604     12.322     -0.006     0.153      1.485      1.941      268.558    346.570    0.181      0.161      0.193      0.167      4.555      1328.734   2.462      901.062    1098.170   220.133    5100.843  
5126.279   12.250     66.490     0.003      0.321      0.002      0.000      0.000      0.087      0.000      21.669     23.870     12.291     -0.004     0.149      1.569      2.067      444.358    592.150    0.188      0.167      0.193      0.196      4.543      1340.515   2.472      930.468    1052.160   284.400    5100.995  
5126.431   12.250     68.107     0.000      0.330      0.000      0.000      0.000      0.082      0.000      21.968     24.395     12.290     -0.002     0.145      1.462      2.162      620.087    855.684    0.195      0.172      0.195      0.220      4.485      1271.272   2.476      949.787    991.329    329.110    5101.148  
5126.584   12.250     69.046     0.000      0.333      0.000      0.000      0.000      0.078      0.000      22.639     25.378     12.312     -0.004     0.132      1.424      2.351      678.883    991.324    0.199      0.177      0.199      0.224      4.471      1063.895   2.457      934.189    854.363    328.363    5101.300  
5126.736   12.250     69.984     0.002      0.331      0.001      0.000      0.000      0.079      0.000      22.574     24.856     12.312     -0.005     0.150      1.330      2.284      736.015    1365.533   0.202      0.182      0.202      0.226      4.400      1039.275   2.446      780.658    742.152    333.375    5101.452  
5126.888   12.250     71.168     0.007      0.320      0.004      0.000      0.002      0.080      0.000      23.321     24.177     12.301     -0.006     0.143      1.253      2.256      592.849    1071.699   0.199      0.178      0.199      0.203      4.274      765.883    2.456      735.720    700.459    307.371    5101.605  
5127.041   12.250     71.909     0.008      0.314      0.005      0.000      0.006      0.083      0.000      24.769     24.686     12.312     -0.004     0.170      1.356      2.231      484.841    859.064    0.196      0.174      0.196      0.168      4.133      825.248    2.491      724.683    920.087    285.396    5101.757  
5127.193   12.250     72.105     0.008      0.314      0.006      0.000      0.008      0.083      0.000      24.474     25.559     12.291     -0.002     0.206      1.334      2.242      383.054    567.249    0.191      0.166      0.191      0.114      4.102      698.836    2.520      597.579    1264.212   268.062    5101.910  
5127.346   12.250     70.367     0.005      0.320      0.004      0.000      0.006      0.080      0.000      23.372     26.008     12.280     0.001      0.232      1.494      2.152      295.177    307.094    0.182      0.153      0.182      0.110      4.220      323.458    2.524      401.632    333.355    258.922    5102.062  
5127.498   12.250     68.830     0.006      0.329      0.004      0.001      0.000      0.072      0.000      23.763     25.975     12.312     0.002      0.234      1.560      2.128      237.443    167.524    0.170      0.139      0.171      0.124      4.315      183.452    2.512      173.063    209.662    264.555    5102.214  
5127.650   12.250     68.311     0.006      0.331      0.004      0.224      0.000      0.070      0.000      23.617     25.107     12.291     0.004      0.232      1.438      2.069      114.249    54.231     0.146      0.114      0.146      0.150      4.316      125.214    2.520      117.648    137.051    250.990    5102.367  
5127.803   12.250     64.641     0.007      0.319      0.004      1.780      0.000      0.083      0.000      23.090     23.645     12.290     0.003      0.200      1.343      2.019      38.870     16.498     0.123      0.091      0.126      0.175      4.227      110.863    2.547      107.005    111.170    198.686    5102.519  
5127.955   12.250     62.917     0.004      0.303      0.002      1.827      0.000      0.106      0.000      20.268     21.228     12.290     0.002      0.202      1.270      1.713      13.562     6.446      0.108      0.075      0.113      0.188      4.102      104.364    2.589      105.663    104.186    143.726    5102.672  
5128.108   12.250     62.415     0.001      0.299      0.001      1.946      0.000      0.117      0.000      19.376     19.386     12.290     0.001      0.187      1.250      1.518      7.699      4.541      0.103      0.071      0.111      0.160      3.978      100.459    2.622      104.278    106.425    111.848    5102.824  
5128.260   12.250     62.174     0.000      0.307      0.000      0.612      0.003      0.108      0.000      18.183     18.433     12.290     -0.001     0.196      1.252      1.357      12.304     8.304      0.110      0.080      0.122      0.105      3.953      112.553    2.622      119.186    157.548    118.311    5102.976  
5128.412   12.250     62.098     0.000      0.321      0.000      0.526      0.010      0.086      0.000      17.276     17.957     12.291     -0.000     0.175      1.266      1.350      30.680     23.955     0.121      0.098      0.134      0.126      4.055      144.300    2.607      167.240    213.085    154.955    5103.129  
5128.565   12.250     62.157     0.001      0.328      0.001      0.000      0.012      0.076      0.000      16.204     17.653     12.291     -0.002     0.175      1.229      1.319      72.405     63.096     0.133      0.114      0.145      0.117      4.268      187.740    2.575      256.589    334.300    203.634    5103.281  
