~Version
 VERS              .         2.0                           : CWLS LOG ASCII STANDARD - VERSION 2.0
 WRAP              .         NO                            : ONE LINE PER DEPTH STEP
 DLM               .         SPACE                         : DELIMITING CHARACTER(SPACE TAB OR COMMA)
~Well Information
#_______________________________________________________________________________
#
#PARAMETER_NAME    .UNIT     VALUE                         : DESCRIPTION
#_______________________________________________________________________________
STRT               .M        5082.700                      : First reference value
STOP               .M        5352.753                      : Last reference value
STEP               .M        0.152                         : Step increment
NULL               .         -9999                         : Missing value
COMP               .         PETROBRAS                     : Company
WELL               .         7-SPH-16D-SPS                 : Well name
FLD                .         SAPINHOA                      : Field
LOC                .                                       : Location
CNTY               .                                       : County
STAT               .         SP                            : State
CTRY               .                                       : Country
SRVC               .                                       : Service Company
DATE               .                                       : Date
API                .                                       : API number
APD                .M        24.0                          : ABOVE PERMANENT DATUM
BHT                .degF     144.0                         : BOTTOMHOLE TEMPERATURE
BLI                .M        5312.4                        : BOTTOM LOGGED INTERVAL
BS                 .in       12.25                         : BIT SIZE
DCS                .         04/09/2014                    : DATE CIRCULATION STOPPED
DFD                .lb/gal   9.5                           : DRILLING FLUID DENSITY
DFT                .         BR-MUL                        : DRILLING FLUID TYPE
DLAB               .         05/09/2014                    : DATE LOGGING ON BOTTOM
EDF                .M        24.0                          : ELEVATION OF DRILLING FLOOR
EGL                .M        -2125.0                       : ELEVATION OF GROUND LEVEL
EKB                .M        -999.25                       : ELEVATION OF KELLY BUSHING
EPD                .M        0.0                           : ELEVATATION OF PERMANENT DATUM
LMF                .         MR                            : LOG MEASURED FROM
LUL                .         MCE                           : LOGGING UNIT LOCATION
LUN                .         11202303                      : LOGGING UNIT NUMBER
LONG               .         -43_10_06.229                 : LONGITUDE
MCST               .degF     -999.25                       : MUDCAKE SAMPLE TEMPERATURE
MFST               .degF     -999.25                       : MUD FILTRATE SAMPLE TEMPERATURE
MRT                .degF     144.0                         : MAXIMUM RECORDED TEMPERATURE
MST                .degF     -999.25                       : MUD SAMPLE TEMPERATURE
PDAT               .         NM                            : PERMANENT DATUM
PRODUCER-CODE      .         280                           : 
PRODUCER-NAME      .         Halliburton                   : 
RMB                .ohm.m    -999.25                       : RESISTIVITY OF MUD - BHT
RMCS               .ohm.m    -999.25                       : RESISTIVITY OF MUDCAKE SAMPLE
RMFS               .ohm.m    -999.25                       : RESISTIVITY OF MUD FILTRATE SAMPLE
RMS                .ohm.m    -999.25                       : RESISTIVITY OF MUD SAMPLE
RUN                .         01                            : RUN NUMBER 1
TCS                .h        05_30                         : TIME CIRCULATION STOPPED
TDD                .M        5343.0                        : DRILLERS DEPTH
TDL                .M        5345.0                        : LOGGERS DEPTH
TLAB               .h        16_45                         : TIME LOGGING ON BOTTOM
TLI                .M        5135.0                        : TOP LOGGED INTERVAL
X                  .M        683789.99900000               : X UTM Coordinate
Y                  .M        7152001.99900000              : Y UTM Coordinate
~Parameter Information Block
#_______________________________________________________________________________
#
#PARAMETER_NAME    .UNIT     VALUE                         : DESCRIPTION
#_______________________________________________________________________________
SET                .         BASE                          : 
TLFamily_BS        .         Bit Size                      : 
TLFamily_DT        .         Compressional Slowness        : 
TLFamily_DWAL      .         Aluminum Weight Fraction      : 
TLFamily_DWCA      .         Calcium Weight Fraction       : 
TLFamily_DWFE      .         Iron Weight Fraction          : 
TLFamily_DWGD      .         Gadolinium Weight Fraction    : 
TLFamily_DWK       .         Potassium Weight Fraction     : 
TLFamily_DWMG      .         Magnesium Weight Fraction     : 
TLFamily_DWMN      .         Manganese Weight Fraction     : 
TLFamily_DWS       .         Sulfur Weight Fraction        : 
TLFamily_DWSI      .         Silicon Weight Fraction       : 
TLFamily_DWTI      .         Titanium Weight Fraction      : 
TLFamily_GR        .         Gamma Ray                     : 
TLFamily_GRt       .         Gamma Ray                     : 
TLFamily_HCAL      .         Caliper                       : 
TLFamily_HDRA      .         Bulk Density Correction       : 
TLFamily_HFK       .         Potassium Concentration       : 
TLFamily_HTHO      .         Thorium Concentration         : 
TLFamily_HURA      .         Uranium Concentration         : 
TLFamily_MD        .         Measured Depth                : 
TLFamily_MPERM     .         NMR Permeability              : 
TLFamily_NMRE_Final .         NMR Bound Fluid Volume Fraction: 
TLFamily_NMRFL_Final .         NMR Free Fluids               : 
TLFamily_NMRT_Final .         NMR Porosity                  : 
TLFamily_NPHI      .         Neutron Porosity              : 
TLFamily_PE        .         Photoelectric Factor          : 
TLFamily_RD        .         Resistivity - Deep            : 
TLFamily_RHOB      .         Bulk Density                  : 
TLFamily_RM        .         Resistivity - Medium          : 
TLFamily_RS        .         Resistivity - Shallow         : 
TLFamily_T2LM      .         NMR T2 Logarithmic Mean       : 
TLFamily_TVDSS     .         True Vertical Depth Sub Sea   : 
~Curve Information
#_______________________________________________________________________________
#
#LOGNAME           .UNIT     LOG_ID                        : DESCRIPTION
#_______________________________________________________________________________
DEPTH              .M                                      :  
BS                 .in                                     : BS/Bit Size 
DT                 .us/ft                                  : DT/DTC 
DWAL               .kg/kg                                  : DAL/DryrockAlWF 
DWCA               .kg/kg                                  : DCA/DryrockCaWF 
DWFE               .kg/kg                                  : DFE/DryrockFeWF 
DWGD               .ppm                                    : DGD/DryrockGdWF 
DWK                .kg/kg                                  : DK/DryrockKWF 
DWMG               .kg/kg                                  : DMG/DryrockMgWF 
DWMN               .kg/kg                                  : DMN/DryrockMnWF 
DWS                .kg/kg                                  : DSUL/DryrockSuWF 
DWSI               .kg/kg                                  : DSI/DryrockSiWF 
DWTI               .kg/kg                                  : DTI/DryrockTiWF 
GR                 .gAPI                                   : GR/Gamma API 
GRt                .gAPI                                   : GKUT/GKUT 
HCAL               .in                                     : CALI/Caliper 
HDRA               .g/cm3                                  : DRHO/DensityCorr 
HFK                .%                                      : POTA/Potassium 
HTHO               .ppm                                    : THOR/Thorium 
HURA               .ppm                                    : URAN/Uranium 
MPERM              .mD                                     : MPERMT2/MrilT2KCoat 
NMRE_Final         .m3/m3                                  : MPHIT2/TA-grp T2 Effective Por 
NMRFL_Final        .unitless                               : MFFIT2/TA-grp T2 FreeFluid Ind 
NMRT_Final         .frac                                   : MSIGT2/TA-grp T2 Total Por. 
NPHI               .frac                                   : NPHI/Neutron Porosity 
PE                 .b/e                                    : PE/Pe 
RD                 .ohm.m                                  : RT90/90in Resistivity 2ft Res 
RHOB               .g/cm3                                  : RHOB/Density 
RM                 .ohm.m                                  : RT30/30in Resistivity 2ft Res 
RS                 .ohm.m                                  : RT10/10in Resistivity 2ft Res 
T2LM               .ms                                     : T2LM/T2 Log Mean 
TVDSS              .M                                      :  
~Ascii
# ...
5100.226   -9999.000  -9999.000  0.105      0.056      0.279      0.000      0.102      0.010      0.000      0.023      0.011      0.009      9.365      11.698     12.353     -9999.000  0.203      1.699      0.259      -9999.000  -9999.000  -9999.000  -9999.000  0.013      -9999.000  -9999.000  -9999.000  -9999.000  -9999.000  -9999.000  4961.429  
5100.379   -9999.000  -9999.000  0.101      0.044      0.296      0.000      0.105      0.009      0.000      0.030      0.014      0.010      9.231      12.021     12.345     -9999.000  0.167      1.682      0.185      -9999.000  -9999.000  -9999.000  -9999.000  0.013      -9999.000  -9999.000  -9999.000  -9999.000  -9999.000  -9999.000  4961.570  
5100.531   -9999.000  -9999.000  0.092      0.047      0.307      0.000      0.106      0.010      0.001      0.032      0.009      0.010      8.897      12.294     12.350     -9999.000  0.121      1.866      0.200      -9999.000  -9999.000  -9999.000  -9999.000  0.013      -9999.000  -9999.000  -9999.000  -9999.000  -9999.000  -9999.000  4961.710  
5100.683   -9999.000  -9999.000  0.086      0.058      0.312      0.000      0.101      0.009      0.001      0.034      0.002      0.009      9.313      12.460     12.354     -9999.000  0.113      2.022      0.316      -9999.000  -9999.000  -9999.000  -9999.000  0.014      -9999.000  -9999.000  -9999.000  -9999.000  -9999.000  -9999.000  4961.850  
5100.836   -9999.000  -9999.000  0.078      0.061      0.320      0.000      0.097      0.009      0.001      0.038      0.000      0.008      10.144     12.452     12.393     -9999.000  0.129      2.002      0.473      -9999.000  -9999.000  -9999.000  -9999.000  0.017      -9999.000  -9999.000  -9999.000  -9999.000  -9999.000  -9999.000  4961.991  
5100.988   -9999.000  -9999.000  0.067      0.068      0.331      0.000      0.084      0.006      0.000      0.050      0.000      0.008      10.821     12.348     12.404     -9999.000  0.155      1.768      0.614      -9999.000  -9999.000  -9999.000  -9999.000  0.019      -9999.000  -9999.000  -9999.000  -9999.000  -9999.000  -9999.000  4962.131  
5101.141   -9999.000  -9999.000  0.064      0.071      0.334      0.000      0.080      0.004      0.000      0.055      0.000      0.008      10.598     12.284     12.402     -9999.000  0.195      1.472      0.750      -9999.000  -9999.000  -9999.000  -9999.000  0.019      -9999.000  -9999.000  -9999.000  -9999.000  -9999.000  -9999.000  4962.272  
5101.293   -9999.000  -9999.000  0.063      0.079      0.333      0.000      0.078      0.000      0.000      0.054      0.000      0.007      10.601     12.226     12.399     -9999.000  0.201      1.233      0.739      -9999.000  -9999.000  -9999.000  -9999.000  0.018      -9999.000  -9999.000  -9999.000  -9999.000  -9999.000  -9999.000  4962.412  
5101.445   -9999.000  -9999.000  0.070      0.078      0.324      0.000      0.080      0.001      0.000      0.051      0.000      0.007      10.863     12.323     12.370     -9999.000  0.209      1.074      0.571      -9999.000  -9999.000  -9999.000  -9999.000  0.016      -9999.000  -9999.000  -9999.000  -9999.000  -9999.000  -9999.000  4962.553  
5101.598   -9999.000  -9999.000  0.072      0.078      0.321      0.001      0.081      0.001      0.000      0.050      0.000      0.007      10.156     12.360     12.364     -9999.000  0.212      1.125      0.434      -9999.000  -9999.000  -9999.000  -9999.000  0.013      -9999.000  -9999.000  -9999.000  -9999.000  -9999.000  -9999.000  4962.693  
5101.750   -9999.000  -9999.000  0.086      0.082      0.292      0.504      0.059      0.000      0.000      0.052      0.007      0.006      9.593      12.587     12.345     -9999.000  0.222      1.527      0.311      -9999.000  -9999.000  -9999.000  -9999.000  0.013      -9999.000  -9999.000  -9999.000  -9999.000  -9999.000  -9999.000  4962.833  
5101.903   -9999.000  -9999.000  0.111      0.086      0.233      1.326      0.020      0.000      0.001      0.050      0.033      0.004      8.889      12.871     12.339     -1.737     0.242      1.774      0.343      -9999.000  -9999.000  -9999.000  -9999.000  0.014      11.833     -9999.000  -9999.000  -9999.000  -9999.000  -9999.000  4962.974  
5102.055   -9999.000  -9999.000  0.124      0.085      0.208      1.678      0.003      0.001      0.002      0.047      0.045      0.003      9.121      13.175     12.335     -1.731     0.254      1.982      0.442      -9999.000  -9999.000  -9999.000  -9999.000  0.015      11.750     -9999.000  -9999.000  -9999.000  -9999.000  -9999.000  4963.114  
5102.207   -9999.000  -9999.000  0.123      0.079      0.206      1.696      0.003      0.001      0.002      0.047      0.054      0.003      9.550      13.383     12.334     -1.718     0.262      1.943      0.527      -9999.000  -9999.000  -9999.000  -9999.000  0.015      11.814     -9999.000  1.470      -9999.000  -9999.000  -9999.000  4963.255  
5102.360   -9999.000  -9999.000  0.124      0.073      0.207      1.722      0.003      0.001      0.002      0.049      0.058      0.003      9.440      13.556     12.337     -1.714     0.251      1.730      0.613      -9999.000  -9999.000  -9999.000  -9999.000  0.014      11.696     -9999.000  1.463      -9999.000  -9999.000  -9999.000  4963.395  
5102.512   -9999.000  -9999.000  0.128      0.068      0.211      1.799      0.004      0.001      0.002      0.051      0.055      0.004      9.502      13.517     12.361     -1.712     0.237      1.549      0.627      -9999.000  -9999.000  -9999.000  -9999.000  0.013      11.485     -9999.000  1.461      -9999.000  -9999.000  -9999.000  4963.535  
5102.665   -9999.000  -9999.000  0.142      0.062      0.220      1.996      0.004      0.001      0.002      0.050      0.040      0.004      9.718      13.404     12.395     -1.709     0.244      1.318      0.623      -9999.000  -9999.000  -9999.000  -9999.000  0.013      10.935     -9999.000  1.464      -9999.000  -9999.000  -9999.000  4963.676  
5102.817   -9999.000  -9999.000  0.145      0.060      0.225      2.028      0.004      0.001      0.002      0.047      0.037      0.004      9.817      13.102     12.403     -1.709     0.260      1.180      0.594      -9999.000  -9999.000  -9999.000  -9999.000  0.012      10.441     -9999.000  1.479      -9999.000  -9999.000  -9999.000  4963.816  
5102.969   -9999.000  -9999.000  0.140      0.064      0.228      1.939      0.003      0.001      0.002      0.051      0.032      0.005      10.272     12.703     12.366     -1.709     0.282      1.092      0.539      -9999.000  -9999.000  -9999.000  -9999.000  0.011      10.057     -9999.000  1.491      -9999.000  -9999.000  -9999.000  4963.957  
5103.122   -9999.000  -9999.000  0.137      0.072      0.224      1.865      0.003      0.001      0.002      0.055      0.028      0.005      10.043     12.317     12.360     -1.706     0.268      1.048      0.497      -9999.000  -9999.000  -9999.000  -9999.000  0.010      9.807      -9999.000  1.495      -9999.000  -9999.000  -9999.000  4964.097  
5103.274   -9999.000  -9999.000  0.130      0.078      0.217      1.764      0.004      0.001      0.002      0.058      0.032      0.006      8.975      11.973     12.347     -1.694     0.209      1.150      0.451      -9999.000  -9999.000  -9999.000  -9999.000  0.007      9.239      -9999.000  1.489      -9999.000  -9999.000  -9999.000  4964.238  
5103.427   -9999.000  -9999.000  0.128      0.079      0.215      1.730      0.004      0.001      0.002      0.058      0.035      0.005      8.829      12.039     12.344     -1.683     0.152      1.200      0.457      -9999.000  -9999.000  -9999.000  -9999.000  0.006      8.621      -9999.000  1.488      -9999.000  -9999.000  -9999.000  4964.378  
5103.579   -9999.000  -9999.000  0.129      0.082      0.216      1.743      0.004      0.001      0.002      0.059      0.029      0.005      9.095      12.172     12.343     -1.675     0.099      1.175      0.511      -9999.000  -9999.000  -9999.000  -9999.000  0.006      7.919      -9999.000  1.495      -9999.000  -9999.000  -9999.000  4964.518  
