~Version
 VERS              .         2.0                           : CWLS LOG ASCII STANDARD - VERSION 2.0
 WRAP              .         NO                            : ONE LINE PER DEPTH STEP
 DLM               .         SPACE                         : DELIMITING CHARACTER(SPACE TAB OR COMMA)
~Well Information
#_______________________________________________________________________________
#
#PARAMETER_NAME    .UNIT     VALUE                         : DESCRIPTION
#_______________________________________________________________________________
STRT               .M        5014.000                      : First reference value
STOP               .M        5322.763                      : Last reference value
STEP               .M        0.152                         : Step increment
NULL               .         -9999                         : Missing value
COMP               .         PETROBRAS                     : Company
WELL               .         7-SPH-20D-SPS                 : Well name
FLD                .         SAPINHOA                      : Field
LOC                .                                       : Location
CNTY               .                                       : County
STAT               .         SAO PAULO                     : State
CTRY               .         BRASIL                        : Country
SRVC               .                                       : Service Company
DATE               .                                       : Date
API                .         863160046300                  : API number
APD                .M        26.0                          : ABOVE PERMANENT DATUM
BHT                .degF     140.0                         : BOTTOMHOLE TEMPERATURE
BLI                .M        5313.7                        : BOTTOM LOGGED INTERVAL
BS                 .in       12.25                         : BIT SIZE
DCS                .         31/01/2016                    : DATE CIRCULATION STOPPED
DFD                .lb/gal   9.7                           : DRILLING FLUID DENSITY
DFT                .         OLEDRILL(BASE OLEFINA)        : DRILLING FLUID TYPE
DLAB               .         01/02/2016                    : DATE LOGGING ON BOTTOM
EDF                .M        26.0                          : ELEVATION OF DRILLING FLOOR
EGL                .M        -2129.0                       : ELEVATION OF GROUND LEVEL
EKB                .M        26.0                          : ELEVATION OF KELLY BUSHING
EPD                .M        0                             : ELEVATATION OF PERMANENT DATUM
GDAT               .         SIRGAS2000                    : Geodetic Datum
LMF                .         MR                            : LOG MEASURED FROM
LUL                .         MCE                           : LOGGING UNIT LOCATION
LUN                .         11792307                      : LOGGING UNIT NUMBER
LATI               .         -25_41_36.136                 : Latitude
LONG               .         -43_10_30,988                 : LONGITUDE
MCST               .degF     -999.25                       : MUDCAKE SAMPLE TEMPERATURE
MFST               .degF     -999.25                       : MUD FILTRATE SAMPLE TEMPERATURE
MRT                .degF     140.0                         : MAXIMUM RECORDED TEMPERATURE
MST                .degF     -999.25                       : MUD SAMPLE TEMPERATURE
ORIGINALWELLNAME   .         7SPH 0020D SPS                : 
PDAT               .         NM                            : PERMANENT DATUM
PRODUCER-CODE      .         280                           : 
PRODUCER-NAME      .         Halliburton                   : 
RMB                .ohm.m    -999.25                       : RESISTIVITY OF MUD - BHT
RMCS               .ohm.m    -999.25                       : RESISTIVITY OF MUDCAKE SAMPLE
RMFS               .ohm.m    -999.25                       : RESISTIVITY OF MUD FILTRATE SAMPLE
RMS                .ohm.m    -999.25                       : RESISTIVITY OF MUD SAMPLE
RUN                .         01                            : RUN NUMBER 1
TCS                .h        09_00                         : TIME CIRCULATION STOPPED
TDD                .M        5315.0                        : DRILLERS DEPTH
TDL                .M        5316.9                        : LOGGERS DEPTH
TLAB               .h        08_00                         : TIME LOGGING ON BOTTOM
TLI                .M        5013.8                        : TOP LOGGED INTERVAL
X                  .M        683110.00000000               : X UTM Coordinate
Y                  .M        7157356.00000000              : Y UTM Coordinate
~Parameter Information Block
#_______________________________________________________________________________
#
#PARAMETER_NAME    .UNIT     VALUE                         : DESCRIPTION
#_______________________________________________________________________________
SET                .         BASE                          : 
TLFamily_BS        .         Bit Size                      : 
TLFamily_DT        .         Compressional Slowness        : 
TLFamily_DWAL      .         Aluminum Weight Fraction      : 
TLFamily_DWCA      .         Calcium Weight Fraction       : 
TLFamily_DWFE      .         Iron Weight Fraction          : 
TLFamily_DWGD      .         Gadolinium Weight Fraction    : 
TLFamily_DWK       .         Potassium Weight Fraction     : 
TLFamily_DWMG      .         Magnesium Weight Fraction     : 
TLFamily_DWMN      .         Manganese Weight Fraction     : 
TLFamily_DWS       .         Sulfur Weight Fraction        : 
TLFamily_DWSI      .         Silicon Weight Fraction       : 
TLFamily_DWTI      .         Titanium Weight Fraction      : 
TLFamily_GR        .         Gamma Ray                     : 
TLFamily_GRt       .         Gamma Ray                     : 
TLFamily_HCAL      .         Caliper                       : 
TLFamily_HDRA      .         Bulk Density Correction       : 
TLFamily_HFK       .         Potassium Concentration       : 
TLFamily_HTHO      .         Thorium Concentration         : 
TLFamily_HURA      .         Uranium Concentration         : 
TLFamily_MD        .         Measured Depth                : 
TLFamily_MPERM     .         NMR Permeability              : 
TLFamily_NMRE_Final .         NMR Bound Fluid Volume Fraction: 
TLFamily_NMRFL_Final .         NMR Free Fluids               : 
TLFamily_NMRT_Final .         NMR Porosity                  : 
TLFamily_NPHI      .         Neutron Porosity              : 
TLFamily_PE        .         Photoelectric Factor          : 
TLFamily_RD        .         Resistivity - Deep            : 
TLFamily_RHOB      .         Bulk Density                  : 
TLFamily_RM        .         Resistivity - Medium          : 
TLFamily_RS        .         Resistivity - Shallow         : 
TLFamily_T2LM      .         NMR T2 Logarithmic Mean       : 
TLFamily_TVDSS     .         True Vertical Depth Sub Sea   : 
~Curve Information
#_______________________________________________________________________________
#
#LOGNAME           .UNIT     LOG_ID                        : DESCRIPTION
#_______________________________________________________________________________
DEPTH              .M                                      :  
BS                 .in                                     : BS/Bit Size 
DT                 .us/ft                                  : DTC/MonoDeltaT 
DWAL               .kg/kg                                  : DAL/DryrockAlWF 
DWCA               .kg/kg                                  : DCA/DryrockCaWF 
DWFE               .kg/kg                                  : DFE/DryrockFeWF 
DWGD               .ppm                                    : DGD/DryrockGdWF 
DWK                .kg/kg                                  : DK/DryrockKWF 
DWMG               .kg/kg                                  : DMG/DryrockMgWF 
DWMN               .kg/kg                                  : DMN/DryrockMnWF 
DWS                .kg/kg                                  : DSUL/DryrockSuWF 
DWSI               .kg/kg                                  : DSI/DryrockSiWF 
DWTI               .kg/kg                                  : DTI/DryrockTiWF 
GR                 .gAPI                                   : GR/Gamma API 
GRt                .gAPI                                   : GKUT/GammaKUT 
HCAL               .in                                     : CALI/Caliper 
HDRA               .g/cm3                                  : Density Delta Rho Filtered 
HFK                .%                                      : POTA/Potassium 
HTHO               .ppm                                    : THOR/Thorium 
HURA               .ppm                                    : URAN/Uranium 
MPERM              .mD                                     : MPERMT2/MrilT2KCoat 
NMRE_Final         .m3/m3                                  : MPHIT2/TA-grp T2 Effective Por 
NMRFL_Final        .unitless                               : MFFIT2/TA-grp T2 FreeFluid Ind 
NMRT_Final         .frac                                   : MSIGT2/TA-grp T2 Total Por. 
NPHI               .frac                                   : POROSIDADE NEUTRONICA (COMPOSICAO DE CURVAS CABO E/OU LWD) 
PE                 .b/e                                    : Density PE Filtered 
RD                 .ohm.m                                  : RT90/90in Resistivity 2ft Res 
RHOB               .g/cm3                                  : DENSIDADE (COMPOSICAO DE CURVAS CABO E/OU LWD ) 
RM                 .ohm.m                                  : RT30/30in Resistivity 2ft Res 
RS                 .ohm.m                                  : RT10/10in Resistivity 2ft Res 
T2LM               .ms                                     : T2LM/T2 Log Mean 
TVDSS              .M                                      :  
~Ascii
# ...
5199.776   12.250     67.288     0.010      0.284      0.001      0.000      0.012      0.000      0.001      0.002      0.119      0.001      21.755     27.509     12.642     0.027      0.096      0.749      2.610      4.064      0.094      0.068      0.107      0.134      7.134      1446.998   2.441      1203.789   1061.485   124.832    5072.920  
5199.928   12.250     67.513     0.010      0.283      0.001      0.000      0.012      0.000      0.001      0.002      0.120      0.001      21.681     29.029     12.666     0.024      0.040      0.630      2.924      2.757      0.092      0.063      0.106      0.126      6.830      1427.159   2.467      1190.305   1046.546   111.015    5073.061  
5200.081   12.250     67.642     0.011      0.276      0.001      0.000      0.014      0.000      0.000      0.003      0.125      0.001      22.997     32.189     12.692     0.025      0.060      0.772      3.187      2.919      0.093      0.063      0.101      0.122      6.546      1400.545   2.487      1174.154   1025.604   150.288    5073.201  
5200.233   12.250     67.492     0.011      0.273      0.001      0.000      0.014      0.000      0.000      0.004      0.128      0.001      26.368     34.879     12.714     0.028      0.095      1.042      3.322      4.766      0.094      0.067      0.096      0.122      6.553      1387.661   2.498      1171.878   1014.507   224.305    5073.342  
5200.385   12.250     66.467     0.011      0.272      0.001      0.000      0.014      0.001      0.000      0.005      0.127      0.001      32.303     38.381     12.748     0.031      0.159      1.473      3.434      7.465      0.095      0.072      0.095      0.128      6.771      1392.929   2.494      1200.141   1015.557   286.943    5073.483  
5200.538   12.250     65.448     0.010      0.267      0.001      0.000      0.013      0.008      0.001      0.006      0.122      0.001      34.044     40.061     12.773     0.031      0.182      1.641      3.518      10.951     0.098      0.076      0.098      0.136      6.984      1415.206   2.477      1244.572   1029.808   300.794    5073.624  
5200.690   12.250     65.003     0.008      0.267      0.001      0.000      0.010      0.014      0.001      0.006      0.116      0.001      35.656     42.022     12.762     0.030      0.186      1.601      3.743      16.448     0.101      0.081      0.102      0.139      7.180      1473.341   2.463      1342.066   1069.337   283.932    5073.765  
5200.843   12.250     65.719     0.006      0.268      0.001      0.000      0.008      0.016      0.001      0.006      0.115      0.001      36.908     42.760     12.743     0.032      0.193      1.415      3.882      16.189     0.104      0.083      0.105      0.139      7.197      1514.358   2.454      1408.407   1096.121   261.440    5073.906  
5200.995   12.250     66.943     0.008      0.265      0.001      0.000      0.010      0.015      0.001      0.005      0.117      0.001      36.608     43.086     12.740     0.038      0.203      1.114      4.012      14.187     0.106      0.083      0.110      0.142      7.161      1485.762   2.452      1396.145   1049.670   222.007    5074.046  
5201.147   12.250     67.783     0.009      0.253      0.001      0.000      0.012      0.021      0.001      0.004      0.120      0.001      35.621     43.007     12.764     0.042      0.216      1.000      4.024      10.864     0.103      0.081      0.111      0.142      7.148      1367.233   2.451      1271.227   930.289    173.135    5074.187  
5201.300   12.250     68.286     0.012      0.250      0.001      0.000      0.014      0.018      0.001      0.003      0.126      0.001      34.383     42.489     12.767     0.044      0.243      0.919      3.947      6.242      0.099      0.074      0.111      0.142      7.128      1182.327   2.454      1073.624   767.988    138.378    5074.328  
5201.452   12.250     68.327     0.014      0.236      0.001      0.000      0.017      0.022      0.001      0.003      0.132      0.001      33.225     41.653     12.741     0.045      0.233      0.908      3.876      2.277      0.096      0.061      0.106      0.146      7.069      435.425    2.467      345.083    260.105    121.354    5074.469  
5201.605   12.250     68.250     0.017      0.226      0.001      0.000      0.021      0.029      0.000      0.003      0.128      0.002      32.168     41.517     12.711     0.047      0.228      0.953      3.853      1.193      0.093      0.052      0.102      0.156      7.006      187.799    2.493      159.484    139.747    108.151    5074.610  
5201.757   12.250     68.780     0.021      0.225      0.001      0.000      0.027      0.032      0.000      0.001      0.118      0.002      32.201     41.880     12.665     0.050      0.222      0.971      3.897      0.977      0.092      0.050      0.100      0.170      6.910      85.018     2.517      72.437     68.476     102.872    5074.751  
5201.909   12.250     69.411     0.021      0.224      0.001      0.000      0.026      0.043      0.000      0.001      0.103      0.002      32.159     42.895     12.653     0.053      0.224      0.956      4.013      1.194      0.098      0.052      0.103      0.184      6.683      64.396     2.528      55.165     53.387     121.976    5074.891  
5202.062   12.250     69.287     0.019      0.227      0.000      0.000      0.024      0.055      0.000      0.001      0.082      0.002      34.090     45.838     12.671     0.047      0.209      0.829      4.416      2.389      0.112      0.062      0.114      0.194      6.471      59.614     2.522      51.693     50.870     156.663    5075.032  
5202.214   12.250     69.390     0.018      0.232      0.001      0.000      0.022      0.054      0.000      0.003      0.079      0.002      37.009     48.170     12.685     0.037      0.187      0.625      4.791      5.859      0.124      0.076      0.125      0.200      6.257      70.981     2.498      62.214     61.435     185.066    5075.173  
5202.367   12.250     70.365     0.017      0.254      0.001      0.000      0.020      0.031      0.000      0.003      0.091      0.002      41.539     51.050     12.677     0.031      0.134      0.426      5.282      13.424     0.133      0.090      0.133      0.202      6.197      112.914    2.466      100.602    99.084     207.595    5075.314  
5202.519   12.250     70.865     0.016      0.262      0.001      0.000      0.019      0.018      0.000      0.002      0.104      0.002      43.335     51.996     12.665     0.025      0.109      0.370      5.454      21.494     0.138      0.098      0.138      0.198      6.215      173.446    2.428      155.306    151.209    222.174    5075.455  
5202.671   12.250     71.581     0.012      0.262      0.001      0.000      0.015      0.007      0.000      0.003      0.128      0.002      42.322     51.792     12.671     0.024      0.124      0.455      5.371      25.259     0.141      0.101      0.141      0.194      6.410      367.159    2.410      318.732    295.327    224.787    5075.596  
5202.824   12.250     72.783     0.012      0.258      0.001      0.000      0.015      0.006      0.000      0.003      0.136      0.002      39.992     50.843     12.692     0.025      0.167      0.688      5.101      30.689     0.145      0.106      0.146      0.192      6.676      644.373    2.402      572.675    515.498    214.496    5075.737  
5202.976   12.250     73.869     0.012      0.259      0.000      0.000      0.015      0.000      0.000      0.001      0.144      0.002      37.704     49.286     12.732     0.027      0.244      0.992      4.675      42.882     0.146      0.112      0.150      0.190      6.703      958.857    2.395      875.670    787.605    203.479    5075.877  
5203.129   12.250     74.925     0.012      0.261      0.000      0.000      0.015      0.000      0.000      0.002      0.141      0.002      37.282     47.903     12.757     0.030      0.309      1.140      4.349      76.026     0.148      0.120      0.152      0.187      6.629      1096.887   2.393      998.502    898.414    201.831    5076.018  
