~Version
 VERS              .         2.0                           : CWLS LOG ASCII STANDARD - VERSION 2.0
 WRAP              .         NO                            : ONE LINE PER DEPTH STEP
 DLM               .         SPACE                         : DELIMITING CHARACTER(SPACE TAB OR COMMA)
~Well Information
#_______________________________________________________________________________
#
#PARAMETER_NAME    .UNIT     VALUE                         : DESCRIPTION
#_______________________________________________________________________________
STRT               .M        5014.000                      : First reference value
STOP               .M        5322.763                      : Last reference value
STEP               .M        0.152                         : Step increment
NULL               .         -9999                         : Missing value
COMP               .         PETROBRAS                     : Company
WELL               .         7-SPH-20D-SPS                 : Well name
FLD                .         SAPINHOA                      : Field
LOC                .                                       : Location
CNTY               .                                       : County
STAT               .         SAO PAULO                     : State
CTRY               .         BRASIL                        : Country
SRVC               .                                       : Service Company
DATE               .                                       : Date
API                .         863160046300                  : API number
APD                .M        26.0                          : ABOVE PERMANENT DATUM
BHT                .degF     140.0                         : BOTTOMHOLE TEMPERATURE
BLI                .M        5313.7                        : BOTTOM LOGGED INTERVAL
BS                 .in       12.25                         : BIT SIZE
DCS                .         31/01/2016                    : DATE CIRCULATION STOPPED
DFD                .lb/gal   9.7                           : DRILLING FLUID DENSITY
DFT                .         OLEDRILL(BASE OLEFINA)        : DRILLING FLUID TYPE
DLAB               .         01/02/2016                    : DATE LOGGING ON BOTTOM
EDF                .M        26.0                          : ELEVATION OF DRILLING FLOOR
EGL                .M        -2129.0                       : ELEVATION OF GROUND LEVEL
EKB                .M        26.0                          : ELEVATION OF KELLY BUSHING
EPD                .M        0                             : ELEVATATION OF PERMANENT DATUM
GDAT               .         SIRGAS2000                    : Geodetic Datum
LMF                .         MR                            : LOG MEASURED FROM
LUL                .         MCE                           : LOGGING UNIT LOCATION
LUN                .         11792307                      : LOGGING UNIT NUMBER
LATI               .         -25_41_36.136                 : Latitude
LONG               .         -43_10_30,988                 : LONGITUDE
MCST               .degF     -999.25                       : MUDCAKE SAMPLE TEMPERATURE
MFST               .degF     -999.25                       : MUD FILTRATE SAMPLE TEMPERATURE
MRT                .degF     140.0                         : MAXIMUM RECORDED TEMPERATURE
MST                .degF     -999.25                       : MUD SAMPLE TEMPERATURE
ORIGINALWELLNAME   .         7SPH 0020D SPS                : 
PDAT               .         NM                            : PERMANENT DATUM
PRODUCER-CODE      .         280                           : 
PRODUCER-NAME      .         Halliburton                   : 
RMB                .ohm.m    -999.25                       : RESISTIVITY OF MUD - BHT
RMCS               .ohm.m    -999.25                       : RESISTIVITY OF MUDCAKE SAMPLE
RMFS               .ohm.m    -999.25                       : RESISTIVITY OF MUD FILTRATE SAMPLE
RMS                .ohm.m    -999.25                       : RESISTIVITY OF MUD SAMPLE
RUN                .         01                            : RUN NUMBER 1
TCS                .h        09_00                         : TIME CIRCULATION STOPPED
TDD                .M        5315.0                        : DRILLERS DEPTH
TDL                .M        5316.9                        : LOGGERS DEPTH
TLAB               .h        08_00                         : TIME LOGGING ON BOTTOM
TLI                .M        5013.8                        : TOP LOGGED INTERVAL
X                  .M        683110.00000000               : X UTM Coordinate
Y                  .M        7157356.00000000              : Y UTM Coordinate
~Parameter Information Block
#_______________________________________________________________________________
#
#PARAMETER_NAME    .UNIT     VALUE                         : DESCRIPTION
#_______________________________________________________________________________
SET                .         BASE                          : 
TLFamily_BS        .         Bit Size                      : 
TLFamily_DT        .         Compressional Slowness        : 
TLFamily_DWAL      .         Aluminum Weight Fraction      : 
TLFamily_DWCA      .         Calcium Weight Fraction       : 
TLFamily_DWFE      .         Iron Weight Fraction          : 
TLFamily_DWGD      .         Gadolinium Weight Fraction    : 
TLFamily_DWK       .         Potassium Weight Fraction     : 
TLFamily_DWMG      .         Magnesium Weight Fraction     : 
TLFamily_DWMN      .         Manganese Weight Fraction     : 
TLFamily_DWS       .         Sulfur Weight Fraction        : 
TLFamily_DWSI      .         Silicon Weight Fraction       : 
TLFamily_DWTI      .         Titanium Weight Fraction      : 
TLFamily_GR        .         Gamma Ray                     : 
TLFamily_GRt       .         Gamma Ray                     : 
TLFamily_HCAL      .         Caliper                       : 
TLFamily_HDRA      .         Bulk Density Correction       : 
TLFamily_HFK       .         Potassium Concentration       : 
TLFamily_HTHO      .         Thorium Concentration         : 
TLFamily_HURA      .         Uranium Concentration         : 
TLFamily_MD        .         Measured Depth                : 
TLFamily_MPERM     .         NMR Permeability              : 
TLFamily_NMRE_Final .         NMR Bound Fluid Volume Fraction: 
TLFamily_NMRFL_Final .         NMR Free Fluids               : 
TLFamily_NMRT_Final .         NMR Porosity                  : 
TLFamily_NPHI      .         Neutron Porosity              : 
TLFamily_PE        .         Photoelectric Factor          : 
TLFamily_RD        .         Resistivity - Deep            : 
TLFamily_RHOB      .         Bulk Density                  : 
TLFamily_RM        .         Resistivity - Medium          : 
TLFamily_RS        .         Resistivity - Shallow         : 
TLFamily_T2LM      .         NMR T2 Logarithmic Mean       : 
TLFamily_TVDSS     .         True Vertical Depth Sub Sea   : 
~Curve Information
#_______________________________________________________________________________
#
#LOGNAME           .UNIT     LOG_ID                        : DESCRIPTION
#_______________________________________________________________________________
DEPTH              .M                                      :  
BS                 .in                                     : BS/Bit Size 
DT                 .us/ft                                  : DTC/MonoDeltaT 
DWAL               .kg/kg                                  : DAL/DryrockAlWF 
DWCA               .kg/kg                                  : DCA/DryrockCaWF 
DWFE               .kg/kg                                  : DFE/DryrockFeWF 
DWGD               .ppm                                    : DGD/DryrockGdWF 
DWK                .kg/kg                                  : DK/DryrockKWF 
DWMG               .kg/kg                                  : DMG/DryrockMgWF 
DWMN               .kg/kg                                  : DMN/DryrockMnWF 
DWS                .kg/kg                                  : DSUL/DryrockSuWF 
DWSI               .kg/kg                                  : DSI/DryrockSiWF 
DWTI               .kg/kg                                  : DTI/DryrockTiWF 
GR                 .gAPI                                   : GR/Gamma API 
GRt                .gAPI                                   : GKUT/GammaKUT 
HCAL               .in                                     : CALI/Caliper 
HDRA               .g/cm3                                  : Density Delta Rho Filtered 
HFK                .%                                      : POTA/Potassium 
HTHO               .ppm                                    : THOR/Thorium 
HURA               .ppm                                    : URAN/Uranium 
MPERM              .mD                                     : MPERMT2/MrilT2KCoat 
NMRE_Final         .m3/m3                                  : MPHIT2/TA-grp T2 Effective Por 
NMRFL_Final        .unitless                               : MFFIT2/TA-grp T2 FreeFluid Ind 
NMRT_Final         .frac                                   : MSIGT2/TA-grp T2 Total Por. 
NPHI               .frac                                   : POROSIDADE NEUTRONICA (COMPOSICAO DE CURVAS CABO E/OU LWD) 
PE                 .b/e                                    : Density PE Filtered 
RD                 .ohm.m                                  : RT90/90in Resistivity 2ft Res 
RHOB               .g/cm3                                  : DENSIDADE (COMPOSICAO DE CURVAS CABO E/OU LWD ) 
RM                 .ohm.m                                  : RT30/30in Resistivity 2ft Res 
RS                 .ohm.m                                  : RT10/10in Resistivity 2ft Res 
T2LM               .ms                                     : T2LM/T2 Log Mean 
TVDSS              .M                                      :  
~Ascii
# ...
5087.609   12.250     69.367     0.014      0.341      0.001      0.000      0.017      0.000      0.000      0.003      0.046      0.001      12.066     15.702     12.901     0.065      0.179      0.914      1.082      116.740    0.158      0.128      0.158      0.180      7.864      1482.099   2.344      1502.331   1522.593   465.554    4970.454  
5087.762   12.250     68.098     0.012      0.331      0.000      0.000      0.015      0.000      0.000      0.002      0.060      0.001      12.256     15.955     12.884     0.068      0.119      0.713      1.293      73.833     0.149      0.119      0.149      0.213      7.878      1403.600   2.392      1434.957   1471.706   424.051    4970.591  
5087.914   12.250     67.440     0.011      0.323      0.001      0.000      0.014      0.001      0.000      0.003      0.070      0.001      12.392     15.753     12.899     0.066      0.087      0.621      1.365      39.913     0.138      0.106      0.138      0.242      7.816      1360.566   2.451      1398.543   1444.362   379.695    4970.727  
5088.067   12.250     67.755     0.010      0.310      0.001      0.000      0.013      0.005      0.000      0.002      0.079      0.001      12.345     15.397     12.958     0.060      0.054      0.545      1.413      28.281     0.131      0.100      0.134      0.246      7.683      1316.159   2.495      1361.266   1416.186   329.212    4970.864  
5088.219   12.250     68.724     0.010      0.306      0.000      0.000      0.013      0.008      0.000      0.002      0.079      0.001      12.528     15.113     12.998     0.061      0.063      0.610      1.340      27.407     0.131      0.100      0.136      0.237      7.590      1298.354   2.502      1346.038   1404.071   291.352    4971.000  
5088.371   12.250     70.109     0.011      0.315      0.000      0.000      0.014      0.006      0.000      0.000      0.073      0.001      12.260     14.708     13.023     0.075      0.131      0.816      1.095      44.177     0.143      0.110      0.145      0.224      7.493      1288.087   2.462      1336.156   1394.971   307.273    4971.137  
5088.524   12.250     71.258     0.012      0.324      0.000      0.000      0.015      0.004      0.000      0.000      0.063      0.002      11.638     14.666     13.039     0.087      0.182      0.948      0.948      105.551    0.159      0.128      0.159      0.213      7.398      1292.370   2.392      1338.315   1395.305   358.395    4971.274  
5088.676   12.250     71.969     0.014      0.340      0.000      0.000      0.018      0.000      0.000      0.000      0.048      0.002      11.886     14.433     13.077     0.085      0.243      1.036      0.779      315.445    0.176      0.150      0.176      0.208      7.182      1335.451   2.343      1373.714   1421.950   414.474    4971.410  
5088.829   12.250     72.131     0.014      0.349      0.000      0.000      0.018      0.000      0.000      0.000      0.037      0.002      12.731     14.447     13.116     0.075      0.276      1.005      0.731      582.820    0.185      0.162      0.185      0.206      6.899      1379.151   2.334      1409.976   1449.627   442.318    4971.547  
5088.981   12.250     71.754     0.012      0.350      0.000      0.000      0.015      0.005      0.000      0.000      0.032      0.001      12.550     14.667     13.174     0.067      0.281      0.843      0.808      724.214    0.186      0.165      0.186      0.206      6.969      1449.665   2.345      1469.511   1496.012   450.188    4971.683  
5089.133   12.250     70.504     0.009      0.353      0.000      0.000      0.012      0.006      0.000      0.002      0.030      0.001      11.892     15.039     13.213     0.061      0.270      0.674      0.932      783.286    0.182      0.163      0.182      0.206      7.166      1506.289   2.371      1518.070   1534.499   449.683    4971.820  
5089.286   12.250     69.519     0.007      0.352      0.001      0.000      0.008      0.006      0.000      0.004      0.032      0.000      12.135     15.836     13.253     0.065      0.248      0.566      1.102      873.695    0.175      0.159      0.175      0.208      7.308      1587.566   2.391      1589.422   1592.500   445.495    4971.957  
5089.438   12.250     69.195     0.005      0.342      0.001      0.000      0.005      0.015      0.000      0.005      0.033      0.000      12.605     16.391     13.266     0.079      0.216      0.545      1.229      923.871    0.170      0.155      0.170      0.211      7.482      1643.530   2.390      1639.660   1634.324   433.831    4972.093  
5089.591   12.250     69.120     0.005      0.338      0.001      0.000      0.005      0.018      0.000      0.003      0.035      0.000      12.377     16.649     13.290     0.091      0.188      0.563      1.302      754.909    0.167      0.152      0.167      0.213      7.611      1717.830   2.374      1708.406   1693.551   411.322    4972.230  
5089.743   12.250     68.873     0.006      0.345      0.001      0.000      0.008      0.009      0.000      0.002      0.038      0.001      12.044     16.338     13.315     0.103      0.177      0.671      1.247      375.014    0.167      0.147      0.169      0.214      7.773      1761.807   2.357      1750.163   1730.673   361.524    4972.367  
5089.895   12.250     68.826     0.010      0.336      0.000      0.000      0.012      0.006      0.000      0.001      0.049      0.001      12.144     15.471     13.335     0.107      0.162      0.885      1.097      243.537    0.167      0.144      0.172      0.218      7.869      1818.878   2.339      1805.674   1781.619   325.016    4972.503  
5090.048   12.250     69.022     0.013      0.319      0.000      0.000      0.016      0.013      0.000      0.000      0.053      0.002      12.424     14.926     13.332     0.106      0.156      1.044      0.987      354.812    0.168      0.149      0.172      0.225      7.911      1848.442   2.336      1835.022   1809.378   341.173    4972.640  
5090.200   12.250     69.696     0.012      0.302      0.000      0.000      0.015      0.024      0.000      0.000      0.055      0.002      12.539     14.458     13.326     0.101      0.137      1.190      0.915      970.518    0.169      0.156      0.171      0.233      7.855      1872.558   2.339      1859.259   1832.769   394.647    4972.777  
5090.353   12.250     70.702     0.011      0.297      0.000      0.000      0.014      0.028      0.000      0.001      0.056      0.002      12.627     14.474     13.332     0.097      0.090      1.204      0.997      1197.305   0.170      0.157      0.171      0.236      7.796      1901.537   2.339      1888.801   1862.109   437.620    4972.913  
5090.505   12.250     71.177     0.010      0.293      0.000      0.000      0.012      0.033      0.000      0.001      0.055      0.002      12.654     14.678     13.354     0.094      0.064      1.158      1.084      647.549    0.170      0.152      0.170      0.231      7.791      1913.769   2.327      1901.410   1874.998   467.130    4973.050  
5090.657   12.250     71.466     0.009      0.293      0.000      0.000      0.011      0.036      0.000      0.002      0.051      0.002      12.701     14.928     13.423     0.089      0.069      0.982      1.168      753.400    0.169      0.153      0.169      0.221      7.794      1924.626   2.307      1912.709   1887.013   513.958    4973.187  
5090.810   12.250     71.599     0.010      0.292      0.000      59.446     0.013      0.041      0.000      0.002      0.043      0.002      12.590     14.866     13.475     0.086      0.102      0.884      1.138      1060.089   0.170      0.157      0.171      0.209      7.815      1927.131   2.294      1915.352   1890.118   524.402    4973.323  
5090.962   12.250     71.293     0.011      0.313      0.000      619.301    0.013      0.030      0.000      0.002      0.034      0.002      12.488     14.554     13.520     0.088      0.165      0.798      1.021      571.054    0.173      0.157      0.178      0.201      7.900      1925.741   2.289      1913.933   1889.197   440.776    4973.460  
