~Version
 VERS              .         2.0                           : CWLS LOG ASCII STANDARD - VERSION 2.0
 WRAP              .         NO                            : ONE LINE PER DEPTH STEP
 DLM               .         SPACE                         : DELIMITING CHARACTER(SPACE TAB OR COMMA)
~Well Information
#_______________________________________________________________________________
#
#PARAMETER_NAME    .UNIT     VALUE                         : DESCRIPTION
#_______________________________________________________________________________
STRT               .M        5014.000                      : First reference value
STOP               .M        5322.763                      : Last reference value
STEP               .M        0.152                         : Step increment
NULL               .         -9999                         : Missing value
COMP               .         PETROBRAS                     : Company
WELL               .         7-SPH-20D-SPS                 : Well name
FLD                .         SAPINHOA                      : Field
LOC                .                                       : Location
CNTY               .                                       : County
STAT               .         SAO PAULO                     : State
CTRY               .         BRASIL                        : Country
SRVC               .                                       : Service Company
DATE               .                                       : Date
API                .         863160046300                  : API number
APD                .M        26.0                          : ABOVE PERMANENT DATUM
BHT                .degF     140.0                         : BOTTOMHOLE TEMPERATURE
BLI                .M        5313.7                        : BOTTOM LOGGED INTERVAL
BS                 .in       12.25                         : BIT SIZE
DCS                .         31/01/2016                    : DATE CIRCULATION STOPPED
DFD                .lb/gal   9.7                           : DRILLING FLUID DENSITY
DFT                .         OLEDRILL(BASE OLEFINA)        : DRILLING FLUID TYPE
DLAB               .         01/02/2016                    : DATE LOGGING ON BOTTOM
EDF                .M        26.0                          : ELEVATION OF DRILLING FLOOR
EGL                .M        -2129.0                       : ELEVATION OF GROUND LEVEL
EKB                .M        26.0                          : ELEVATION OF KELLY BUSHING
EPD                .M        0                             : ELEVATATION OF PERMANENT DATUM
GDAT               .         SIRGAS2000                    : Geodetic Datum
LMF                .         MR                            : LOG MEASURED FROM
LUL                .         MCE                           : LOGGING UNIT LOCATION
LUN                .         11792307                      : LOGGING UNIT NUMBER
LATI               .         -25_41_36.136                 : Latitude
LONG               .         -43_10_30,988                 : LONGITUDE
MCST               .degF     -999.25                       : MUDCAKE SAMPLE TEMPERATURE
MFST               .degF     -999.25                       : MUD FILTRATE SAMPLE TEMPERATURE
MRT                .degF     140.0                         : MAXIMUM RECORDED TEMPERATURE
MST                .degF     -999.25                       : MUD SAMPLE TEMPERATURE
ORIGINALWELLNAME   .         7SPH 0020D SPS                : 
PDAT               .         NM                            : PERMANENT DATUM
PRODUCER-CODE      .         280                           : 
PRODUCER-NAME      .         Halliburton                   : 
RMB                .ohm.m    -999.25                       : RESISTIVITY OF MUD - BHT
RMCS               .ohm.m    -999.25                       : RESISTIVITY OF MUDCAKE SAMPLE
RMFS               .ohm.m    -999.25                       : RESISTIVITY OF MUD FILTRATE SAMPLE
RMS                .ohm.m    -999.25                       : RESISTIVITY OF MUD SAMPLE
RUN                .         01                            : RUN NUMBER 1
TCS                .h        09_00                         : TIME CIRCULATION STOPPED
TDD                .M        5315.0                        : DRILLERS DEPTH
TDL                .M        5316.9                        : LOGGERS DEPTH
TLAB               .h        08_00                         : TIME LOGGING ON BOTTOM
TLI                .M        5013.8                        : TOP LOGGED INTERVAL
X                  .M        683110.00000000               : X UTM Coordinate
Y                  .M        7157356.00000000              : Y UTM Coordinate
~Parameter Information Block
#_______________________________________________________________________________
#
#PARAMETER_NAME    .UNIT     VALUE                         : DESCRIPTION
#_______________________________________________________________________________
SET                .         BASE                          : 
TLFamily_BS        .         Bit Size                      : 
TLFamily_DT        .         Compressional Slowness        : 
TLFamily_DWAL      .         Aluminum Weight Fraction      : 
TLFamily_DWCA      .         Calcium Weight Fraction       : 
TLFamily_DWFE      .         Iron Weight Fraction          : 
TLFamily_DWGD      .         Gadolinium Weight Fraction    : 
TLFamily_DWK       .         Potassium Weight Fraction     : 
TLFamily_DWMG      .         Magnesium Weight Fraction     : 
TLFamily_DWMN      .         Manganese Weight Fraction     : 
TLFamily_DWS       .         Sulfur Weight Fraction        : 
TLFamily_DWSI      .         Silicon Weight Fraction       : 
TLFamily_DWTI      .         Titanium Weight Fraction      : 
TLFamily_GR        .         Gamma Ray                     : 
TLFamily_GRt       .         Gamma Ray                     : 
TLFamily_HCAL      .         Caliper                       : 
TLFamily_HDRA      .         Bulk Density Correction       : 
TLFamily_HFK       .         Potassium Concentration       : 
TLFamily_HTHO      .         Thorium Concentration         : 
TLFamily_HURA      .         Uranium Concentration         : 
TLFamily_MD        .         Measured Depth                : 
TLFamily_MPERM     .         NMR Permeability              : 
TLFamily_NMRE_Final .         NMR Bound Fluid Volume Fraction: 
TLFamily_NMRFL_Final .         NMR Free Fluids               : 
TLFamily_NMRT_Final .         NMR Porosity                  : 
TLFamily_NPHI      .         Neutron Porosity              : 
TLFamily_PE        .         Photoelectric Factor          : 
TLFamily_RD        .         Resistivity - Deep            : 
TLFamily_RHOB      .         Bulk Density                  : 
TLFamily_RM        .         Resistivity - Medium          : 
TLFamily_RS        .         Resistivity - Shallow         : 
TLFamily_T2LM      .         NMR T2 Logarithmic Mean       : 
TLFamily_TVDSS     .         True Vertical Depth Sub Sea   : 
~Curve Information
#_______________________________________________________________________________
#
#LOGNAME           .UNIT     LOG_ID                        : DESCRIPTION
#_______________________________________________________________________________
DEPTH              .M                                      :  
BS                 .in                                     : BS/Bit Size 
DT                 .us/ft                                  : DTC/MonoDeltaT 
DWAL               .kg/kg                                  : DAL/DryrockAlWF 
DWCA               .kg/kg                                  : DCA/DryrockCaWF 
DWFE               .kg/kg                                  : DFE/DryrockFeWF 
DWGD               .ppm                                    : DGD/DryrockGdWF 
DWK                .kg/kg                                  : DK/DryrockKWF 
DWMG               .kg/kg                                  : DMG/DryrockMgWF 
DWMN               .kg/kg                                  : DMN/DryrockMnWF 
DWS                .kg/kg                                  : DSUL/DryrockSuWF 
DWSI               .kg/kg                                  : DSI/DryrockSiWF 
DWTI               .kg/kg                                  : DTI/DryrockTiWF 
GR                 .gAPI                                   : GR/Gamma API 
GRt                .gAPI                                   : GKUT/GammaKUT 
HCAL               .in                                     : CALI/Caliper 
HDRA               .g/cm3                                  : Density Delta Rho Filtered 
HFK                .%                                      : POTA/Potassium 
HTHO               .ppm                                    : THOR/Thorium 
HURA               .ppm                                    : URAN/Uranium 
MPERM              .mD                                     : MPERMT2/MrilT2KCoat 
NMRE_Final         .m3/m3                                  : MPHIT2/TA-grp T2 Effective Por 
NMRFL_Final        .unitless                               : MFFIT2/TA-grp T2 FreeFluid Ind 
NMRT_Final         .frac                                   : MSIGT2/TA-grp T2 Total Por. 
NPHI               .frac                                   : POROSIDADE NEUTRONICA (COMPOSICAO DE CURVAS CABO E/OU LWD) 
PE                 .b/e                                    : Density PE Filtered 
RD                 .ohm.m                                  : RT90/90in Resistivity 2ft Res 
RHOB               .g/cm3                                  : DENSIDADE (COMPOSICAO DE CURVAS CABO E/OU LWD ) 
RM                 .ohm.m                                  : RT30/30in Resistivity 2ft Res 
RS                 .ohm.m                                  : RT10/10in Resistivity 2ft Res 
T2LM               .ms                                     : T2LM/T2 Log Mean 
TVDSS              .M                                      :  
~Ascii
# ...
5070.083   12.250     63.734     0.020      0.209      0.002      0.000      0.013      0.020      0.001      0.000      0.163      0.001      13.951     16.792     12.989     0.105      0.277      0.252      1.273      7.271      0.092      0.070      0.092      0.147      7.140      1909.127   2.466      1900.542   1842.698   260.295    4954.807  
5070.236   12.250     63.424     0.019      0.189      0.002      0.000      0.012      0.017      0.001      0.001      0.192      0.001      13.529     16.158     12.934     0.118      0.368      0.404      0.981      5.070      0.078      0.062      0.078      0.123      6.902      1853.343   2.537      1845.818   1801.312   259.582    4954.943  
5070.388   12.250     64.324     0.014      0.193      0.003      0.000      0.012      0.006      0.000      0.005      0.207      0.002      12.546     15.788     12.835     0.121      0.421      0.724      0.724      5.905      0.077      0.062      0.078      0.105      6.543      1783.779   2.601      1779.241   1751.776   266.417    4955.079  
5070.541   12.250     67.424     0.010      0.209      0.003      0.000      0.012      0.002      0.000      0.007      0.198      0.002      11.845     15.780     12.821     0.112      0.405      0.998      0.649      8.213      0.090      0.071      0.092      0.120      6.000      1747.838   2.526      1745.367   1727.342   269.121    4955.214  
5070.693   12.250     71.213     0.010      0.245      0.003      0.000      0.013      0.001      0.000      0.009      0.156      0.002      12.021     16.074     12.926     0.089      0.345      1.393      0.644      9.311      0.108      0.079      0.111      0.162      5.558      1719.515   2.436      1718.811   1710.218   242.034    4955.350  
5070.845   12.250     74.906     0.013      0.274      0.004      0.000      0.016      0.002      0.000      0.008      0.117      0.002      12.700     16.349     12.976     0.058      0.287      1.542      0.723      8.291      0.131      0.082      0.134      0.209      5.369      1718.407   2.391      1717.578   1711.616   178.368    4955.485  
5070.998   12.250     77.852     0.014      0.297      0.004      0.000      0.018      0.007      0.000      0.010      0.079      0.002      13.285     16.683     13.005     0.057      0.240      1.621      0.816      7.735      0.145      0.083      0.148      0.231      6.180      1729.013   2.373      1727.217   1720.799   140.039    4955.621  
5071.150   12.250     79.506     0.018      0.328      0.006      0.000      0.022      0.008      0.000      0.011      0.033      0.002      12.921     17.385     13.047     0.065      0.204      1.589      0.972      9.237      0.151      0.086      0.154      0.238      7.406      1768.783   2.370      1764.305   1754.226   121.523    4955.757  
5071.303   12.250     80.140     0.019      0.337      0.006      0.000      0.024      0.009      0.000      0.012      0.017      0.002      12.186     17.847     13.066     0.069      0.197      1.399      1.106      11.705     0.153      0.091      0.155      0.240      8.006      1801.371   2.369      1795.279   1781.849   119.165    4955.892  
5071.455   12.250     78.875     0.022      0.349      0.007      0.000      0.027      0.004      0.000      0.013      0.007      0.002      12.458     17.951     13.052     0.072      0.224      1.165      1.156      10.133     0.154      0.088      0.156      0.236      8.419      1858.919   2.375      1851.263   1832.186   128.624    4956.028  
5071.607   12.250     77.213     0.023      0.350      0.008      0.000      0.029      0.002      0.000      0.014      0.006      0.003      12.944     17.733     13.063     0.073      0.250      0.993      1.150      7.325      0.158      0.082      0.158      0.232      8.477      1893.912   2.381      1886.079   1863.923   135.879    4956.164  
5071.760   12.250     76.054     0.025      0.345      0.008      0.000      0.031      0.000      0.000      0.011      0.014      0.003      13.046     17.241     13.084     0.075      0.306      0.848      1.047      6.701      0.161      0.080      0.161      0.231      8.492      1939.050   2.373      1931.979   1906.294   135.039    4956.299  
5071.912   12.250     75.183     0.025      0.337      0.007      0.000      0.031      0.000      0.000      0.010      0.024      0.003      13.466     17.093     13.119     0.075      0.313      0.859      1.014      7.862      0.166      0.084      0.166      0.240      8.566      1960.825   2.364      1954.666   1927.286   129.907    4956.435  
5072.065   12.250     74.824     0.026      0.327      0.005      0.000      0.032      0.000      0.000      0.010      0.036      0.003      14.526     17.592     13.157     0.073      0.279      0.841      1.137      9.546      0.171      0.088      0.172      0.256      8.708      1980.508   2.354      1975.853   1946.376   119.624    4956.571  
5072.217   12.250     74.633     0.027      0.321      0.004      0.000      0.033      0.000      0.000      0.010      0.042      0.003      14.746     18.354     13.158     0.073      0.233      0.787      1.326      11.773     0.175      0.093      0.184      0.258      8.747      1986.489   2.338      1982.899   1951.772   99.837     4956.706  
5072.369   12.250     74.558     0.026      0.310      0.003      0.000      0.033      0.000      0.000      0.010      0.056      0.003      14.395     19.724     13.153     0.075      0.143      0.731      1.662      16.145     0.176      0.100      0.191      0.245      8.658      1989.803   2.326      1987.646   1953.437   93.047     4956.842  
5072.522   12.250     74.196     0.024      0.303      0.003      0.000      0.030      0.000      0.000      0.010      0.068      0.003      14.216     20.480     13.156     0.075      0.118      0.574      1.851      24.425     0.177      0.110      0.191      0.234      8.495      1971.956   2.321      1969.938   1931.626   106.257    4956.978  
5072.674   12.250     73.658     0.022      0.291      0.002      0.000      0.027      0.000      0.000      0.009      0.087      0.003      14.071     20.799     13.195     0.072      0.099      0.399      1.987      28.289     0.179      0.112      0.184      0.238      8.355      1739.721   2.320      1731.410   1687.872   135.084    4957.113  
5072.827   12.250     73.266     0.020      0.282      0.002      0.000      0.025      0.000      0.000      0.006      0.102      0.002      13.614     20.491     13.213     0.069      0.098      0.288      1.997      22.673     0.178      0.107      0.179      0.240      8.174      1505.245   2.310      1492.518   1464.980   151.382    4957.249  
5072.979   12.250     73.277     0.020      0.276      0.001      0.000      0.023      0.000      0.001      0.002      0.113      0.002      13.389     19.439     13.069     0.067      0.109      0.204      1.891      21.264     0.176      0.105      0.177      0.233      7.962      1360.386   2.299      1350.691   1339.864   159.789    4957.385  
5073.131   12.250     73.134     0.020      0.278      0.000      0.000      0.022      0.000      0.001      0.000      0.113      0.001      13.325     18.650     12.923     0.066      0.115      0.246      1.776      28.037     0.176      0.111      0.179      0.224      7.603      1387.835   2.301      1382.813   1371.363   169.594    4957.521  
5073.284   12.250     73.323     0.018      0.287      0.000      0.000      0.022      0.000      0.001      0.000      0.104      0.001      12.531     18.370     12.910     0.067      0.109      0.485      1.667      48.326     0.178      0.123      0.182      0.216      7.310      1518.191   2.310      1518.553   1494.292   207.722    4957.656  
5073.436   12.250     73.755     0.017      0.298      0.000      0.000      0.022      0.000      0.000      0.000      0.093      0.001      12.488     18.579     12.947     0.066      0.108      0.718      1.604      99.426     0.183      0.138      0.185      0.211      7.032      1632.990   2.311      1634.974   1600.563   285.792    4957.792  
