~Version
 VERS              .         2.0                           : CWLS LOG ASCII STANDARD - VERSION 2.0
 WRAP              .         NO                            : ONE LINE PER DEPTH STEP
 DLM               .         SPACE                         : DELIMITING CHARACTER(SPACE TAB OR COMMA)
~Well Information
#_______________________________________________________________________________
#
#PARAMETER_NAME    .UNIT     VALUE                         : DESCRIPTION
#_______________________________________________________________________________
STRT               .M        5082.700                      : First reference value
STOP               .M        5352.753                      : Last reference value
STEP               .M        0.152                         : Step increment
NULL               .         -9999                         : Missing value
COMP               .         PETROBRAS                     : Company
WELL               .         7-SPH-16D-SPS                 : Well name
FLD                .         SAPINHOA                      : Field
LOC                .                                       : Location
CNTY               .                                       : County
STAT               .         SP                            : State
CTRY               .                                       : Country
SRVC               .                                       : Service Company
DATE               .                                       : Date
API                .                                       : API number
APD                .M        24.0                          : ABOVE PERMANENT DATUM
BHT                .degF     144.0                         : BOTTOMHOLE TEMPERATURE
BLI                .M        5312.4                        : BOTTOM LOGGED INTERVAL
BS                 .in       12.25                         : BIT SIZE
DCS                .         04/09/2014                    : DATE CIRCULATION STOPPED
DFD                .lb/gal   9.5                           : DRILLING FLUID DENSITY
DFT                .         BR-MUL                        : DRILLING FLUID TYPE
DLAB               .         05/09/2014                    : DATE LOGGING ON BOTTOM
EDF                .M        24.0                          : ELEVATION OF DRILLING FLOOR
EGL                .M        -2125.0                       : ELEVATION OF GROUND LEVEL
EKB                .M        -999.25                       : ELEVATION OF KELLY BUSHING
EPD                .M        0.0                           : ELEVATATION OF PERMANENT DATUM
LMF                .         MR                            : LOG MEASURED FROM
LUL                .         MCE                           : LOGGING UNIT LOCATION
LUN                .         11202303                      : LOGGING UNIT NUMBER
LONG               .         -43_10_06.229                 : LONGITUDE
MCST               .degF     -999.25                       : MUDCAKE SAMPLE TEMPERATURE
MFST               .degF     -999.25                       : MUD FILTRATE SAMPLE TEMPERATURE
MRT                .degF     144.0                         : MAXIMUM RECORDED TEMPERATURE
MST                .degF     -999.25                       : MUD SAMPLE TEMPERATURE
PDAT               .         NM                            : PERMANENT DATUM
PRODUCER-CODE      .         280                           : 
PRODUCER-NAME      .         Halliburton                   : 
RMB                .ohm.m    -999.25                       : RESISTIVITY OF MUD - BHT
RMCS               .ohm.m    -999.25                       : RESISTIVITY OF MUDCAKE SAMPLE
RMFS               .ohm.m    -999.25                       : RESISTIVITY OF MUD FILTRATE SAMPLE
RMS                .ohm.m    -999.25                       : RESISTIVITY OF MUD SAMPLE
RUN                .         01                            : RUN NUMBER 1
TCS                .h        05_30                         : TIME CIRCULATION STOPPED
TDD                .M        5343.0                        : DRILLERS DEPTH
TDL                .M        5345.0                        : LOGGERS DEPTH
TLAB               .h        16_45                         : TIME LOGGING ON BOTTOM
TLI                .M        5135.0                        : TOP LOGGED INTERVAL
X                  .M        683789.99900000               : X UTM Coordinate
Y                  .M        7152001.99900000              : Y UTM Coordinate
~Parameter Information Block
#_______________________________________________________________________________
#
#PARAMETER_NAME    .UNIT     VALUE                         : DESCRIPTION
#_______________________________________________________________________________
SET                .         BASE                          : 
TLFamily_BS        .         Bit Size                      : 
TLFamily_DT        .         Compressional Slowness        : 
TLFamily_DWAL      .         Aluminum Weight Fraction      : 
TLFamily_DWCA      .         Calcium Weight Fraction       : 
TLFamily_DWFE      .         Iron Weight Fraction          : 
TLFamily_DWGD      .         Gadolinium Weight Fraction    : 
TLFamily_DWK       .         Potassium Weight Fraction     : 
TLFamily_DWMG      .         Magnesium Weight Fraction     : 
TLFamily_DWMN      .         Manganese Weight Fraction     : 
TLFamily_DWS       .         Sulfur Weight Fraction        : 
TLFamily_DWSI      .         Silicon Weight Fraction       : 
TLFamily_DWTI      .         Titanium Weight Fraction      : 
TLFamily_GR        .         Gamma Ray                     : 
TLFamily_GRt       .         Gamma Ray                     : 
TLFamily_HCAL      .         Caliper                       : 
TLFamily_HDRA      .         Bulk Density Correction       : 
TLFamily_HFK       .         Potassium Concentration       : 
TLFamily_HTHO      .         Thorium Concentration         : 
TLFamily_HURA      .         Uranium Concentration         : 
TLFamily_MD        .         Measured Depth                : 
TLFamily_MPERM     .         NMR Permeability              : 
TLFamily_NMRE_Final .         NMR Bound Fluid Volume Fraction: 
TLFamily_NMRFL_Final .         NMR Free Fluids               : 
TLFamily_NMRT_Final .         NMR Porosity                  : 
TLFamily_NPHI      .         Neutron Porosity              : 
TLFamily_PE        .         Photoelectric Factor          : 
TLFamily_RD        .         Resistivity - Deep            : 
TLFamily_RHOB      .         Bulk Density                  : 
TLFamily_RM        .         Resistivity - Medium          : 
TLFamily_RS        .         Resistivity - Shallow         : 
TLFamily_T2LM      .         NMR T2 Logarithmic Mean       : 
TLFamily_TVDSS     .         True Vertical Depth Sub Sea   : 
~Curve Information
#_______________________________________________________________________________
#
#LOGNAME           .UNIT     LOG_ID                        : DESCRIPTION
#_______________________________________________________________________________
DEPTH              .M                                      :  
BS                 .in                                     : BS/Bit Size 
DT                 .us/ft                                  : DT/DTC 
DWAL               .kg/kg                                  : DAL/DryrockAlWF 
DWCA               .kg/kg                                  : DCA/DryrockCaWF 
DWFE               .kg/kg                                  : DFE/DryrockFeWF 
DWGD               .ppm                                    : DGD/DryrockGdWF 
DWK                .kg/kg                                  : DK/DryrockKWF 
DWMG               .kg/kg                                  : DMG/DryrockMgWF 
DWMN               .kg/kg                                  : DMN/DryrockMnWF 
DWS                .kg/kg                                  : DSUL/DryrockSuWF 
DWSI               .kg/kg                                  : DSI/DryrockSiWF 
DWTI               .kg/kg                                  : DTI/DryrockTiWF 
GR                 .gAPI                                   : GR/Gamma API 
GRt                .gAPI                                   : GKUT/GKUT 
HCAL               .in                                     : CALI/Caliper 
HDRA               .g/cm3                                  : DRHO/DensityCorr 
HFK                .%                                      : POTA/Potassium 
HTHO               .ppm                                    : THOR/Thorium 
HURA               .ppm                                    : URAN/Uranium 
MPERM              .mD                                     : MPERMT2/MrilT2KCoat 
NMRE_Final         .m3/m3                                  : MPHIT2/TA-grp T2 Effective Por 
NMRFL_Final        .unitless                               : MFFIT2/TA-grp T2 FreeFluid Ind 
NMRT_Final         .frac                                   : MSIGT2/TA-grp T2 Total Por. 
NPHI               .frac                                   : NPHI/Neutron Porosity 
PE                 .b/e                                    : PE/Pe 
RD                 .ohm.m                                  : RT90/90in Resistivity 2ft Res 
RHOB               .g/cm3                                  : RHOB/Density 
RM                 .ohm.m                                  : RT30/30in Resistivity 2ft Res 
RS                 .ohm.m                                  : RT10/10in Resistivity 2ft Res 
T2LM               .ms                                     : T2LM/T2 Log Mean 
TVDSS              .M                                      :  
~Ascii
# ...
5145.794   12.250     64.315     0.030      0.207      0.001      0.419      0.004      0.041      0.001      0.013      0.115      0.001      27.005     37.174     12.530     -0.007     0.342      0.972      2.926      2.460      0.090      0.060      0.094      0.082      4.293      397.748    2.508      464.694    642.813    123.325    5003.422  
5145.946   12.250     62.755     0.035      0.204      0.001      0.485      0.004      0.035      0.001      0.014      0.123      0.001      35.856     43.522     12.514     -0.004     0.366      0.841      3.624      0.849      0.075      0.047      0.076      0.080      4.098      411.406    2.570      480.009    661.749    114.510    5003.563  
5146.099   12.250     61.022     0.048      0.203      0.000      0.692      0.004      0.020      0.001      0.016      0.132      0.001      40.950     52.493     12.485     0.001      0.385      0.815      4.687      0.144      0.060      0.031      0.060      0.088      3.904      465.844    2.629      539.997    727.549    81.870     5003.703  
5146.251   12.250     59.635     0.045      0.214      0.000      0.651      0.003      0.013      0.001      0.016      0.135      0.001      52.698     55.160     12.484     0.003      0.376      0.925      5.074      0.098      0.054      0.028      0.058      0.101      3.666      512.984    2.640      590.243    779.688    63.824     5003.844  
5146.403   12.250     58.729     0.036      0.236      0.000      0.511      0.003      0.001      0.001      0.014      0.139      0.002      57.215     53.072     12.481     0.006      0.351      1.123      4.981      0.160      0.056      0.032      0.065      0.129      3.364      594.830    2.626      673.663    864.901    58.855     5003.984  
5146.556   12.250     58.755     0.029      0.250      0.000      0.417      0.003      0.000      0.001      0.014      0.132      0.002      43.007     47.284     12.488     0.007      0.318      1.372      4.418      0.674      0.073      0.045      0.083      0.137      3.560      621.598    2.616      697.714    887.332    73.412     5004.125  
5146.708   12.250     59.583     0.024      0.265      0.000      0.341      0.002      0.000      0.001      0.015      0.120      0.002      26.953     39.159     12.493     0.004      0.265      1.444      3.576      3.061      0.093      0.064      0.100      0.144      3.929      630.774    2.602      702.767    887.792    107.786    5004.265  
5146.861   12.250     60.984     0.014      0.276      0.000      0.188      0.002      0.006      0.002      0.015      0.109      0.002      13.637     27.270     12.478     -0.002     0.227      1.323      2.350      9.230      0.106      0.080      0.115      0.139      4.306      633.658    2.561      700.080    877.700    137.882    5004.406  
5147.013   12.250     62.534     0.008      0.269      0.000      0.099      0.002      0.017      0.002      0.015      0.105      0.002      12.162     21.766     12.479     -0.003     0.188      1.188      1.814      10.961     0.109      0.084      0.123      0.127      4.239      643.986    2.498      708.271    886.361    132.542    5004.546  
5147.165   12.250     63.720     0.005      0.251      0.001      0.054      0.002      0.036      0.001      0.017      0.098      0.002      13.987     18.595     12.480     -0.007     0.160      1.126      1.573      6.812      0.110      0.077      0.121      0.105      3.882      654.850    2.501      717.745    898.842    121.300    5004.687  
5147.318   12.250     63.998     0.008      0.233      0.001      0.102      0.001      0.050      0.001      0.017      0.093      0.002      16.161     19.096     12.487     -0.006     0.150      1.107      1.667      4.313      0.106      0.070      0.114      0.085      3.644      647.813    2.550      710.913    892.802    120.152    5004.827  
5147.470   12.250     63.292     0.015      0.204      0.001      0.214      0.001      0.072      0.001      0.015      0.086      0.001      17.745     21.185     12.485     0.001      0.145      1.075      1.903      2.969      0.094      0.064      0.105      0.075      3.545      630.166    2.587      694.613    878.381    105.683    5004.967  
5147.623   12.250     62.400     0.023      0.197      0.000      0.336      0.001      0.074      0.001      0.013      0.082      0.002      17.993     22.950     12.486     0.004      0.138      0.980      2.029      1.373      0.074      0.053      0.090      0.076      3.765      610.938    2.639      676.448    861.906    81.142     5005.108  
5147.775   12.250     61.124     0.036      0.212      0.000      0.535      0.001      0.055      0.002      0.013      0.081      0.002      19.789     26.564     12.474     0.007      0.117      0.765      2.366      0.446      0.064      0.041      0.077      0.074      4.225      575.921    2.658      641.516    828.033    76.734     5005.248  
5147.927   12.250     59.479     0.042      0.234      0.000      0.621      0.001      0.028      0.002      0.013      0.092      0.002      24.063     30.527     12.473     0.007      0.096      0.590      2.798      0.120      0.058      0.029      0.067      0.073      4.429      546.411    2.667      610.231    795.497    77.563     5005.389  
5148.080   12.250     58.314     0.039      0.255      0.001      0.557      0.001      0.002      0.002      0.011      0.114      0.002      35.032     35.728     12.477     0.005      0.094      0.575      3.383      0.048      0.054      0.022      0.063      0.084      4.377      511.117    2.676      570.786    750.462    58.594     5005.529  
5148.232   12.250     57.496     0.032      0.251      0.001      0.444      0.001      0.003      0.002      0.009      0.126      0.002      42.359     38.563     12.460     0.006      0.095      0.849      3.730      0.076      0.053      0.026      0.067      0.112      4.174      491.936    2.678      547.551    719.311    40.970     5005.670  
5148.385   12.250     56.884     0.033      0.247      0.001      0.476      0.001      0.003      0.002      0.011      0.127      0.002      38.361     37.701     12.430     0.008      0.095      1.108      3.541      0.281      0.060      0.036      0.076      0.134      3.996      510.719    2.676      562.324    722.680    49.479     5005.810  
5148.537   12.250     56.557     0.037      0.243      0.000      0.552      0.001      0.002      0.001      0.013      0.128      0.003      28.532     33.044     12.394     0.005      0.108      1.155      2.915      0.741      0.074      0.046      0.083      0.133      4.135      581.552    2.653      632.377    787.076    92.080     5005.951  
5148.689   12.250     56.720     0.036      0.256      0.000      0.531      0.001      0.000      0.001      0.015      0.118      0.002      20.449     26.394     12.391     -0.002     0.111      1.110      2.046      1.754      0.089      0.056      0.093      0.129      4.457      745.340    2.588      790.254    929.513    155.054    5006.091  
5148.842   12.250     57.315     0.035      0.270      0.000      0.514      0.001      0.000      0.001      0.014      0.103      0.002      14.201     22.757     12.372     -0.006     0.110      1.041      1.634      4.041      0.100      0.068      0.105      0.129      4.566      832.906    2.529      868.451    992.334    169.863    5006.231  
5148.994   12.250     58.364     0.036      0.286      0.000      0.541      0.001      0.002      0.001      0.016      0.079      0.002      12.536     19.188     12.359     -0.012     0.109      1.160      1.317      9.759      0.111      0.081      0.117      0.137      4.658      911.892    2.495      930.952    1033.368   186.478    5006.372  
5149.147   12.250     60.561     0.037      0.288      0.000      0.545      0.001      0.006      0.001      0.015      0.070      0.001      11.412     17.404     12.363     -0.014     0.106      1.389      1.213      16.868     0.121      0.090      0.123      0.143      4.615      944.277    2.491      954.849    1042.488   232.286    5006.512  
