~Version
 VERS              .         2.0                           : CWLS LOG ASCII STANDARD - VERSION 2.0
 WRAP              .         NO                            : ONE LINE PER DEPTH STEP
 DLM               .         SPACE                         : DELIMITING CHARACTER(SPACE TAB OR COMMA)
~Well Information
#_______________________________________________________________________________
#
#PARAMETER_NAME    .UNIT     VALUE                         : DESCRIPTION
#_______________________________________________________________________________
STRT               .M        5082.700                      : First reference value
STOP               .M        5352.753                      : Last reference value
STEP               .M        0.152                         : Step increment
NULL               .         -9999                         : Missing value
COMP               .         PETROBRAS                     : Company
WELL               .         7-SPH-16D-SPS                 : Well name
FLD                .         SAPINHOA                      : Field
LOC                .                                       : Location
CNTY               .                                       : County
STAT               .         SP                            : State
CTRY               .                                       : Country
SRVC               .                                       : Service Company
DATE               .                                       : Date
API                .                                       : API number
APD                .M        24.0                          : ABOVE PERMANENT DATUM
BHT                .degF     144.0                         : BOTTOMHOLE TEMPERATURE
BLI                .M        5312.4                        : BOTTOM LOGGED INTERVAL
BS                 .in       12.25                         : BIT SIZE
DCS                .         04/09/2014                    : DATE CIRCULATION STOPPED
DFD                .lb/gal   9.5                           : DRILLING FLUID DENSITY
DFT                .         BR-MUL                        : DRILLING FLUID TYPE
DLAB               .         05/09/2014                    : DATE LOGGING ON BOTTOM
EDF                .M        24.0                          : ELEVATION OF DRILLING FLOOR
EGL                .M        -2125.0                       : ELEVATION OF GROUND LEVEL
EKB                .M        -999.25                       : ELEVATION OF KELLY BUSHING
EPD                .M        0.0                           : ELEVATATION OF PERMANENT DATUM
LMF                .         MR                            : LOG MEASURED FROM
LUL                .         MCE                           : LOGGING UNIT LOCATION
LUN                .         11202303                      : LOGGING UNIT NUMBER
LONG               .         -43_10_06.229                 : LONGITUDE
MCST               .degF     -999.25                       : MUDCAKE SAMPLE TEMPERATURE
MFST               .degF     -999.25                       : MUD FILTRATE SAMPLE TEMPERATURE
MRT                .degF     144.0                         : MAXIMUM RECORDED TEMPERATURE
MST                .degF     -999.25                       : MUD SAMPLE TEMPERATURE
PDAT               .         NM                            : PERMANENT DATUM
PRODUCER-CODE      .         280                           : 
PRODUCER-NAME      .         Halliburton                   : 
RMB                .ohm.m    -999.25                       : RESISTIVITY OF MUD - BHT
RMCS               .ohm.m    -999.25                       : RESISTIVITY OF MUDCAKE SAMPLE
RMFS               .ohm.m    -999.25                       : RESISTIVITY OF MUD FILTRATE SAMPLE
RMS                .ohm.m    -999.25                       : RESISTIVITY OF MUD SAMPLE
RUN                .         01                            : RUN NUMBER 1
TCS                .h        05_30                         : TIME CIRCULATION STOPPED
TDD                .M        5343.0                        : DRILLERS DEPTH
TDL                .M        5345.0                        : LOGGERS DEPTH
TLAB               .h        16_45                         : TIME LOGGING ON BOTTOM
TLI                .M        5135.0                        : TOP LOGGED INTERVAL
X                  .M        683789.99900000               : X UTM Coordinate
Y                  .M        7152001.99900000              : Y UTM Coordinate
~Parameter Information Block
#_______________________________________________________________________________
#
#PARAMETER_NAME    .UNIT     VALUE                         : DESCRIPTION
#_______________________________________________________________________________
SET                .         BASE                          : 
TLFamily_BS        .         Bit Size                      : 
TLFamily_DT        .         Compressional Slowness        : 
TLFamily_DWAL      .         Aluminum Weight Fraction      : 
TLFamily_DWCA      .         Calcium Weight Fraction       : 
TLFamily_DWFE      .         Iron Weight Fraction          : 
TLFamily_DWGD      .         Gadolinium Weight Fraction    : 
TLFamily_DWK       .         Potassium Weight Fraction     : 
TLFamily_DWMG      .         Magnesium Weight Fraction     : 
TLFamily_DWMN      .         Manganese Weight Fraction     : 
TLFamily_DWS       .         Sulfur Weight Fraction        : 
TLFamily_DWSI      .         Silicon Weight Fraction       : 
TLFamily_DWTI      .         Titanium Weight Fraction      : 
TLFamily_GR        .         Gamma Ray                     : 
TLFamily_GRt       .         Gamma Ray                     : 
TLFamily_HCAL      .         Caliper                       : 
TLFamily_HDRA      .         Bulk Density Correction       : 
TLFamily_HFK       .         Potassium Concentration       : 
TLFamily_HTHO      .         Thorium Concentration         : 
TLFamily_HURA      .         Uranium Concentration         : 
TLFamily_MD        .         Measured Depth                : 
TLFamily_MPERM     .         NMR Permeability              : 
TLFamily_NMRE_Final .         NMR Bound Fluid Volume Fraction: 
TLFamily_NMRFL_Final .         NMR Free Fluids               : 
TLFamily_NMRT_Final .         NMR Porosity                  : 
TLFamily_NPHI      .         Neutron Porosity              : 
TLFamily_PE        .         Photoelectric Factor          : 
TLFamily_RD        .         Resistivity - Deep            : 
TLFamily_RHOB      .         Bulk Density                  : 
TLFamily_RM        .         Resistivity - Medium          : 
TLFamily_RS        .         Resistivity - Shallow         : 
TLFamily_T2LM      .         NMR T2 Logarithmic Mean       : 
TLFamily_TVDSS     .         True Vertical Depth Sub Sea   : 
~Curve Information
#_______________________________________________________________________________
#
#LOGNAME           .UNIT     LOG_ID                        : DESCRIPTION
#_______________________________________________________________________________
DEPTH              .M                                      :  
BS                 .in                                     : BS/Bit Size 
DT                 .us/ft                                  : DT/DTC 
DWAL               .kg/kg                                  : DAL/DryrockAlWF 
DWCA               .kg/kg                                  : DCA/DryrockCaWF 
DWFE               .kg/kg                                  : DFE/DryrockFeWF 
DWGD               .ppm                                    : DGD/DryrockGdWF 
DWK                .kg/kg                                  : DK/DryrockKWF 
DWMG               .kg/kg                                  : DMG/DryrockMgWF 
DWMN               .kg/kg                                  : DMN/DryrockMnWF 
DWS                .kg/kg                                  : DSUL/DryrockSuWF 
DWSI               .kg/kg                                  : DSI/DryrockSiWF 
DWTI               .kg/kg                                  : DTI/DryrockTiWF 
GR                 .gAPI                                   : GR/Gamma API 
GRt                .gAPI                                   : GKUT/GKUT 
HCAL               .in                                     : CALI/Caliper 
HDRA               .g/cm3                                  : DRHO/DensityCorr 
HFK                .%                                      : POTA/Potassium 
HTHO               .ppm                                    : THOR/Thorium 
HURA               .ppm                                    : URAN/Uranium 
MPERM              .mD                                     : MPERMT2/MrilT2KCoat 
NMRE_Final         .m3/m3                                  : MPHIT2/TA-grp T2 Effective Por 
NMRFL_Final        .unitless                               : MFFIT2/TA-grp T2 FreeFluid Ind 
NMRT_Final         .frac                                   : MSIGT2/TA-grp T2 Total Por. 
NPHI               .frac                                   : NPHI/Neutron Porosity 
PE                 .b/e                                    : PE/Pe 
RD                 .ohm.m                                  : RT90/90in Resistivity 2ft Res 
RHOB               .g/cm3                                  : RHOB/Density 
RM                 .ohm.m                                  : RT30/30in Resistivity 2ft Res 
RS                 .ohm.m                                  : RT10/10in Resistivity 2ft Res 
T2LM               .ms                                     : T2LM/T2 Log Mean 
TVDSS              .M                                      :  
~Ascii
# ...
5191.361   12.250     60.847     0.021      0.337      0.000      0.311      0.001      0.000      0.000      0.006      0.046      0.001      11.628     17.722     12.324     -0.015     0.112      0.725      1.291      57.410     0.130      0.107      0.131      0.160      4.567      1006.082   2.524      898.113    945.385    271.228    5045.422  
5191.514   12.250     62.300     0.019      0.336      0.000      0.268      0.001      0.004      0.000      0.005      0.043      0.001      10.332     15.176     12.328     -0.017     0.165      0.923      1.184      134.094    0.143      0.122      0.144      0.164      4.628      1076.002   2.487      954.063    982.006    293.295    5045.563  
5191.666   12.250     63.569     0.015      0.318      0.000      0.202      0.002      0.024      0.000      0.004      0.038      0.001      10.468     13.746     12.340     -0.018     0.205      0.955      1.118      235.872    0.154      0.134      0.154      0.163      4.669      1151.567   2.437      1005.619   1009.898   303.934    5045.703  
5191.819   12.250     64.899     0.010      0.301      0.000      0.140      0.002      0.040      0.000      0.003      0.036      0.001      10.816     13.161     12.341     -0.018     0.215      0.853      1.040      271.257    0.162      0.141      0.164      0.161      4.646      1203.629   2.423      1040.826   1026.980   297.543    5045.844  
5191.971   12.250     66.139     0.010      0.296      0.000      0.134      0.002      0.046      0.000      0.003      0.034      0.001      11.134     12.980     12.354     -0.018     0.196      0.653      0.971      321.391    0.162      0.144      0.166      0.165      4.602      1285.903   2.422      1105.769   1061.904   298.625    5045.984  
5192.123   12.250     66.905     0.014      0.292      0.000      0.191      0.002      0.047      0.000      0.004      0.031      0.001      11.739     13.281     12.359     -0.017     0.183      0.479      0.947      364.374    0.160      0.143      0.164      0.163      4.622      1349.194   2.420      1162.714   1095.241   312.773    5046.125  
5192.276   12.250     67.048     0.018      0.297      0.000      0.248      0.002      0.042      0.000      0.005      0.029      0.001      12.092     13.675     12.341     -0.015     0.191      0.533      0.944      431.438    0.161      0.144      0.163      0.159      4.721      1427.020   2.420      1238.410   1141.695   319.366    5046.265  
5192.428   12.250     66.819     0.020      0.315      0.000      0.284      0.002      0.027      0.001      0.006      0.029      0.001      12.624     14.039     12.332     -0.014     0.197      0.897      0.963      604.552    0.162      0.147      0.162      0.158      4.803      1478.320   2.426      1292.328   1176.662   318.255    5046.406  
5192.581   12.250     66.663     0.028      0.330      0.000      0.395      0.002      0.010      0.001      0.008      0.029      0.001      12.819     14.618     12.329     -0.015     0.188      1.294      0.973      547.553    0.158      0.146      0.163      0.165      4.795      1531.233   2.431      1350.385   1215.304   290.555    5046.547  
5192.733   12.250     66.839     0.033      0.331      0.000      0.469      0.002      0.006      0.001      0.010      0.029      0.001      13.383     15.055     12.327     -0.016     0.152      1.445      1.000      234.173    0.155      0.141      0.166      0.166      4.692      1557.322   2.432      1379.948   1235.189   238.701    5046.687  
5192.885   12.250     67.034     0.035      0.337      0.000      0.496      0.002      0.001      0.000      0.014      0.025      0.001      14.124     15.879     12.325     -0.018     0.120      1.264      1.062      103.541    0.156      0.132      0.169      0.176      4.545      1582.357   2.439      1408.735   1253.998   223.385    5046.828  
5193.038   12.250     67.230     0.033      0.342      0.000      0.482      0.002      0.000      0.000      0.016      0.020      0.001      15.731     16.437     12.331     -0.019     0.103      1.023      1.130      114.532    0.160      0.132      0.167      0.181      4.479      1589.780   2.441      1417.331   1258.722   263.172    5046.968  
5193.190   12.250     67.368     0.036      0.347      0.000      0.521      0.002      0.000      0.000      0.019      0.010      0.002      16.340     17.461     12.337     -0.018     0.109      0.904      1.283      296.107    0.160      0.140      0.161      0.177      4.464      1583.074   2.428      1410.354   1251.841   319.052    5047.109  
5193.343   12.250     67.410     0.038      0.346      0.000      0.569      0.001      0.000      0.000      0.020      0.007      0.002      16.755     18.632     12.339     -0.016     0.128      0.844      1.500      689.959    0.159      0.145      0.159      0.171      4.559      1568.265   2.415      1395.032   1240.317   347.976    5047.250  
5193.495   12.250     67.720     0.040      0.347      0.000      0.590      0.001      0.000      0.000      0.019      0.005      0.002      17.819     19.849     12.357     -0.013     0.131      0.630      1.744      948.037    0.160      0.148      0.160      0.176      4.751      1529.072   2.410      1356.945   1214.953   360.121    5047.390  
5193.647   12.250     67.707     0.038      0.348      0.000      0.570      0.001      0.000      0.000      0.018      0.007      0.001      19.420     21.461     12.351     -0.012     0.131      0.440      2.000      1029.243   0.163      0.151      0.163      0.167      4.786      1494.535   2.411      1325.924   1196.486   350.974    5047.531  
5193.800   12.250     67.582     0.036      0.333      0.000      0.536      0.001      0.008      0.000      0.015      0.016      0.001      20.716     22.674     12.366     -0.012     0.136      0.291      2.142      885.278    0.163      0.151      0.164      0.156      4.781      1425.288   2.409      1268.837   1166.460   329.300    5047.671  
5193.952   12.250     67.569     0.036      0.321      0.000      0.530      0.001      0.012      0.000      0.014      0.024      0.001      22.902     -9999.000  12.376     -0.010     0.218      0.258      -9999.000  525.023    0.161      0.145      0.161      0.148      4.793      1374.863   2.410      1230.431   1148.710   303.910    5047.812  
5194.105   12.250     67.590     0.033      0.303      0.000      0.493      0.001      0.020      0.001      0.011      0.035      0.000      26.086     30.902     12.394     -0.004     0.299      0.420      2.700      330.223    0.155      0.137      0.155      0.135      4.778      1279.370   2.420      1160.391   1110.764   281.581    5047.953  
5194.257   12.250     67.121     0.030      0.289      0.000      0.434      0.001      0.030      0.001      0.010      0.041      0.000      28.516     32.602     12.400     -0.003     0.376      0.622      2.845      227.301    0.148      0.129      0.148      0.127      4.718      1218.405   2.433      1117.980   1101.619   270.245    5048.093  
5194.409   12.250     66.698     0.027      0.277      0.000      0.401      0.001      0.036      0.001      0.010      0.048      0.000      28.700     32.757     12.411     -0.009     0.359      0.920      2.938      207.616    0.142      0.125      0.142      0.118      4.631      1159.073   2.459      1080.358   1090.380   266.267    5048.234  
5194.562   12.250     66.092     0.028      0.277      0.000      0.408      0.001      0.030      0.001      0.012      0.057      0.001      26.379     31.677     12.426     -0.020     0.276      1.189      2.888      208.687    0.134      0.121      0.136      0.105      4.483      1028.169   2.484      979.936    1038.203   245.501    5048.375  
5194.714   12.250     65.091     0.030      0.270      0.000      0.441      0.002      0.029      0.002      0.013      0.062      0.001      23.448     29.835     12.433     -0.020     0.198      1.392      2.727      100.185    0.122      0.109      0.126      0.100      4.308      908.737    2.512      881.286    935.654    209.666    5048.515  
