~Version
 VERS              .         2.0                           : CWLS LOG ASCII STANDARD - VERSION 2.0
 WRAP              .         NO                            : ONE LINE PER DEPTH STEP
 DLM               .         SPACE                         : DELIMITING CHARACTER(SPACE TAB OR COMMA)
~Well Information
#_______________________________________________________________________________
#
#PARAMETER_NAME    .UNIT     VALUE                         : DESCRIPTION
#_______________________________________________________________________________
STRT               .M        5082.700                      : First reference value
STOP               .M        5352.753                      : Last reference value
STEP               .M        0.152                         : Step increment
NULL               .         -9999                         : Missing value
COMP               .         PETROBRAS                     : Company
WELL               .         7-SPH-16D-SPS                 : Well name
FLD                .         SAPINHOA                      : Field
LOC                .                                       : Location
CNTY               .                                       : County
STAT               .         SP                            : State
CTRY               .                                       : Country
SRVC               .                                       : Service Company
DATE               .                                       : Date
API                .                                       : API number
APD                .M        24.0                          : ABOVE PERMANENT DATUM
BHT                .degF     144.0                         : BOTTOMHOLE TEMPERATURE
BLI                .M        5312.4                        : BOTTOM LOGGED INTERVAL
BS                 .in       12.25                         : BIT SIZE
DCS                .         04/09/2014                    : DATE CIRCULATION STOPPED
DFD                .lb/gal   9.5                           : DRILLING FLUID DENSITY
DFT                .         BR-MUL                        : DRILLING FLUID TYPE
DLAB               .         05/09/2014                    : DATE LOGGING ON BOTTOM
EDF                .M        24.0                          : ELEVATION OF DRILLING FLOOR
EGL                .M        -2125.0                       : ELEVATION OF GROUND LEVEL
EKB                .M        -999.25                       : ELEVATION OF KELLY BUSHING
EPD                .M        0.0                           : ELEVATATION OF PERMANENT DATUM
LMF                .         MR                            : LOG MEASURED FROM
LUL                .         MCE                           : LOGGING UNIT LOCATION
LUN                .         11202303                      : LOGGING UNIT NUMBER
LONG               .         -43_10_06.229                 : LONGITUDE
MCST               .degF     -999.25                       : MUDCAKE SAMPLE TEMPERATURE
MFST               .degF     -999.25                       : MUD FILTRATE SAMPLE TEMPERATURE
MRT                .degF     144.0                         : MAXIMUM RECORDED TEMPERATURE
MST                .degF     -999.25                       : MUD SAMPLE TEMPERATURE
PDAT               .         NM                            : PERMANENT DATUM
PRODUCER-CODE      .         280                           : 
PRODUCER-NAME      .         Halliburton                   : 
RMB                .ohm.m    -999.25                       : RESISTIVITY OF MUD - BHT
RMCS               .ohm.m    -999.25                       : RESISTIVITY OF MUDCAKE SAMPLE
RMFS               .ohm.m    -999.25                       : RESISTIVITY OF MUD FILTRATE SAMPLE
RMS                .ohm.m    -999.25                       : RESISTIVITY OF MUD SAMPLE
RUN                .         01                            : RUN NUMBER 1
TCS                .h        05_30                         : TIME CIRCULATION STOPPED
TDD                .M        5343.0                        : DRILLERS DEPTH
TDL                .M        5345.0                        : LOGGERS DEPTH
TLAB               .h        16_45                         : TIME LOGGING ON BOTTOM
TLI                .M        5135.0                        : TOP LOGGED INTERVAL
X                  .M        683789.99900000               : X UTM Coordinate
Y                  .M        7152001.99900000              : Y UTM Coordinate
~Parameter Information Block
#_______________________________________________________________________________
#
#PARAMETER_NAME    .UNIT     VALUE                         : DESCRIPTION
#_______________________________________________________________________________
SET                .         BASE                          : 
TLFamily_BS        .         Bit Size                      : 
TLFamily_DT        .         Compressional Slowness        : 
TLFamily_DWAL      .         Aluminum Weight Fraction      : 
TLFamily_DWCA      .         Calcium Weight Fraction       : 
TLFamily_DWFE      .         Iron Weight Fraction          : 
TLFamily_DWGD      .         Gadolinium Weight Fraction    : 
TLFamily_DWK       .         Potassium Weight Fraction     : 
TLFamily_DWMG      .         Magnesium Weight Fraction     : 
TLFamily_DWMN      .         Manganese Weight Fraction     : 
TLFamily_DWS       .         Sulfur Weight Fraction        : 
TLFamily_DWSI      .         Silicon Weight Fraction       : 
TLFamily_DWTI      .         Titanium Weight Fraction      : 
TLFamily_GR        .         Gamma Ray                     : 
TLFamily_GRt       .         Gamma Ray                     : 
TLFamily_HCAL      .         Caliper                       : 
TLFamily_HDRA      .         Bulk Density Correction       : 
TLFamily_HFK       .         Potassium Concentration       : 
TLFamily_HTHO      .         Thorium Concentration         : 
TLFamily_HURA      .         Uranium Concentration         : 
TLFamily_MD        .         Measured Depth                : 
TLFamily_MPERM     .         NMR Permeability              : 
TLFamily_NMRE_Final .         NMR Bound Fluid Volume Fraction: 
TLFamily_NMRFL_Final .         NMR Free Fluids               : 
TLFamily_NMRT_Final .         NMR Porosity                  : 
TLFamily_NPHI      .         Neutron Porosity              : 
TLFamily_PE        .         Photoelectric Factor          : 
TLFamily_RD        .         Resistivity - Deep            : 
TLFamily_RHOB      .         Bulk Density                  : 
TLFamily_RM        .         Resistivity - Medium          : 
TLFamily_RS        .         Resistivity - Shallow         : 
TLFamily_T2LM      .         NMR T2 Logarithmic Mean       : 
TLFamily_TVDSS     .         True Vertical Depth Sub Sea   : 
~Curve Information
#_______________________________________________________________________________
#
#LOGNAME           .UNIT     LOG_ID                        : DESCRIPTION
#_______________________________________________________________________________
DEPTH              .M                                      :  
BS                 .in                                     : BS/Bit Size 
DT                 .us/ft                                  : DT/DTC 
DWAL               .kg/kg                                  : DAL/DryrockAlWF 
DWCA               .kg/kg                                  : DCA/DryrockCaWF 
DWFE               .kg/kg                                  : DFE/DryrockFeWF 
DWGD               .ppm                                    : DGD/DryrockGdWF 
DWK                .kg/kg                                  : DK/DryrockKWF 
DWMG               .kg/kg                                  : DMG/DryrockMgWF 
DWMN               .kg/kg                                  : DMN/DryrockMnWF 
DWS                .kg/kg                                  : DSUL/DryrockSuWF 
DWSI               .kg/kg                                  : DSI/DryrockSiWF 
DWTI               .kg/kg                                  : DTI/DryrockTiWF 
GR                 .gAPI                                   : GR/Gamma API 
GRt                .gAPI                                   : GKUT/GKUT 
HCAL               .in                                     : CALI/Caliper 
HDRA               .g/cm3                                  : DRHO/DensityCorr 
HFK                .%                                      : POTA/Potassium 
HTHO               .ppm                                    : THOR/Thorium 
HURA               .ppm                                    : URAN/Uranium 
MPERM              .mD                                     : MPERMT2/MrilT2KCoat 
NMRE_Final         .m3/m3                                  : MPHIT2/TA-grp T2 Effective Por 
NMRFL_Final        .unitless                               : MFFIT2/TA-grp T2 FreeFluid Ind 
NMRT_Final         .frac                                   : MSIGT2/TA-grp T2 Total Por. 
NPHI               .frac                                   : NPHI/Neutron Porosity 
PE                 .b/e                                    : PE/Pe 
RD                 .ohm.m                                  : RT90/90in Resistivity 2ft Res 
RHOB               .g/cm3                                  : RHOB/Density 
RM                 .ohm.m                                  : RT30/30in Resistivity 2ft Res 
RS                 .ohm.m                                  : RT10/10in Resistivity 2ft Res 
T2LM               .ms                                     : T2LM/T2 Log Mean 
TVDSS              .M                                      :  
~Ascii
# ...
5159.815   12.250     54.987     0.025      0.207      0.002      0.360      0.002      0.046      0.001      0.028      0.104      0.002      18.659     21.512     12.314     0.017      0.157      0.525      1.748      0.103      0.039      0.028      0.053      0.053      3.920      151.193    2.701      163.338    201.209    43.312     5016.343  
5159.967   12.250     53.867     0.023      0.180      0.003      0.321      0.002      0.067      0.001      0.026      0.105      0.002      20.502     23.913     12.315     0.015      0.196      0.698      1.994      0.035      0.037      0.022      0.045      0.047      3.631      172.191    2.722      186.248    221.964    41.624     5016.483  
5160.119   12.250     52.627     0.022      0.165      0.002      0.309      0.003      0.074      0.001      0.024      0.113      0.002      22.762     25.760     12.310     0.012      0.240      0.838      2.171      0.013      0.037      0.017      0.039      0.049      3.449      190.878    2.741      206.195    241.926    50.146     5016.624  
5160.272   12.250     51.725     0.015      0.157      0.001      0.197      0.003      0.072      0.001      0.022      0.135      0.002      24.167     29.008     12.312     0.008      0.276      0.899      2.463      0.013      0.036      0.017      0.039      0.056      3.320      204.678    2.756      218.594    255.481    53.349     5016.764  
5160.424   12.250     50.734     0.013      0.176      0.001      0.157      0.003      0.047      0.001      0.022      0.156      0.002      27.707     31.562     12.308     0.003      0.302      0.854      2.679      0.032      0.036      0.021      0.042      0.060      3.272      210.533    2.752      221.812    259.133    52.813     5016.905  
5160.577   12.250     50.158     0.010      0.211      0.002      0.120      0.003      0.012      0.001      0.018      0.177      0.002      31.142     34.441     12.310     0.001      0.309      0.746      2.965      0.075      0.041      0.026      0.046      0.068      3.191      236.501    2.731      244.918    298.360    69.147     5017.045  
5160.729   12.250     50.468     0.015      0.226      0.001      0.206      0.003      0.004      0.001      0.013      0.170      0.002      32.419     33.605     12.304     0.003      0.307      0.622      2.915      0.296      0.053      0.035      0.054      0.079      3.293      326.201    2.698      333.664    418.270    113.760    5017.186  
5160.881   12.250     51.623     0.020      0.241      0.001      0.280      0.002      0.001      0.001      0.012      0.152      0.002      28.193     30.784     12.310     0.001      0.262      0.557      2.649      1.052      0.063      0.046      0.063      0.094      3.656      544.583    2.671      528.581    551.638    148.947    5017.326  
5161.034   12.250     53.376     0.027      0.251      0.000      0.396      0.002      0.001      0.001      0.014      0.132      0.002      19.621     25.177     12.311     -0.003     0.209      0.596      2.038      2.465      0.070      0.053      0.070      0.098      3.882      673.539    2.619      631.623    649.958    174.605    5017.466  
5161.186   12.250     54.990     0.032      0.268      0.000      0.465      0.002      0.001      0.001      0.013      0.108      0.002      15.558     19.987     12.318     0.001      0.180      0.703      1.435      5.873      0.077      0.062      0.077      0.104      4.187      817.804    2.578      740.003    841.822    225.576    5017.607  
5161.339   12.250     56.585     0.035      0.265      0.000      0.523      0.001      0.010      0.001      0.013      0.093      0.002      12.924     17.887     12.320     0.005      0.143      0.865      1.185      23.474     0.085      0.074      0.085      0.111      4.513      903.592    2.572      803.916    892.850    315.002    5017.747  
5161.491   12.250     58.233     0.030      0.261      0.000      0.435      0.001      0.027      0.001      0.010      0.078      0.001      11.970     15.283     12.317     -0.002     0.129      1.046      0.884      70.976     0.095      0.086      0.095      0.127      4.731      1009.102   2.569      888.853    936.686    386.265    5017.888  
5161.643   12.250     60.050     0.025      0.258      0.000      0.374      0.001      0.038      0.001      0.010      0.070      0.001      11.167     14.100     12.316     -0.010     0.130      1.172      0.744      60.016     0.102      0.090      0.102      0.129      4.634      1074.161   2.540      953.838    966.971    349.359    5018.028  
5161.796   12.250     61.688     0.020      0.260      0.000      0.290      0.002      0.046      0.001      0.009      0.060      0.001      9.823      13.058     12.314     -0.016     0.125      1.326      0.577      55.221     0.114      0.097      0.114      0.138      4.645      1164.216   2.510      1062.290   1019.964   301.046    5018.169  
5161.948   12.250     62.881     0.015      0.258      0.000      0.202      0.002      0.057      0.001      0.008      0.051      0.001      8.833      13.205     12.319     -0.018     0.146      1.480      0.526      48.922     0.127      0.103      0.127      0.147      4.806      1186.199   2.498      1099.268   1030.874   288.200    5018.309  
5162.101   12.250     63.922     0.008      0.247      0.000      0.103      0.002      0.077      0.001      0.008      0.039      0.001      8.656      14.391     12.321     -0.018     0.175      1.548      0.565      40.001     0.136      0.105      0.136      0.153      5.046      996.574    2.465      927.672    848.438    294.411    5018.449  
5162.253   12.250     64.623     0.010      0.243      0.000      0.117      0.003      0.079      0.001      0.008      0.039      0.001      11.445     16.197     12.321     -0.013     0.218      1.576      0.746      47.246     0.139      0.109      0.139      0.144      5.118      675.673    2.427      625.355    581.836    334.293    5018.590  
5162.405   12.250     64.827     0.014      0.255      0.001      0.187      0.003      0.058      0.001      0.011      0.051      0.001      15.557     20.674     12.327     -0.003     0.246      1.592      1.314      49.161     0.136      0.108      0.136      0.111      5.005      272.952    2.403      264.164    271.571    338.716    5018.730  
5162.558   12.250     64.284     0.020      0.266      0.001      0.281      0.003      0.035      0.001      0.014      0.068      0.001      18.154     24.827     12.327     0.001      0.251      1.606      1.899      30.353     0.128      0.099      0.128      0.101      4.818      227.284    2.447      225.954    233.644    308.767    5018.871  
5162.710   12.250     63.441     0.025      0.270      0.002      0.363      0.002      0.015      0.001      0.016      0.088      0.002      23.968     29.119     12.330     0.006      0.240      1.637      2.485      16.179     0.117      0.088      0.118      0.088      4.643      238.010    2.533      239.399    242.709    286.245    5019.011  
5162.863   12.250     62.167     0.030      0.256      0.002      0.438      0.002      0.002      0.000      0.015      0.118      0.002      27.869     31.013     12.325     0.014      0.234      1.635      2.733      4.979      0.101      0.070      0.102      0.072      4.472      357.453    2.576      367.124    363.105    246.066    5019.151  
5163.015   12.250     60.504     0.032      0.242      0.002      0.459      0.002      0.001      0.000      0.015      0.136      0.002      23.297     29.616     12.316     0.015      0.245      1.501      2.594      1.441      0.083      0.053      0.084      0.072      4.365      490.983    2.603      505.810    513.463    209.749    5019.292  
5163.167   12.250     59.643     0.033      0.223      0.002      0.479      0.002      0.004      0.000      0.015      0.152      0.002      16.660     25.842     12.321     0.011      0.246      1.268      2.234      0.759      0.069      0.045      0.069      0.070      4.130      663.846    2.615      678.592    723.452    188.759    5019.432  
