~Version
 VERS              .         2.0                           : CWLS LOG ASCII STANDARD - VERSION 2.0
 WRAP              .         NO                            : ONE LINE PER DEPTH STEP
 DLM               .         SPACE                         : DELIMITING CHARACTER(SPACE TAB OR COMMA)
~Well Information
#_______________________________________________________________________________
#
#PARAMETER_NAME    .UNIT     VALUE                         : DESCRIPTION
#_______________________________________________________________________________
STRT               .M        5014.000                      : First reference value
STOP               .M        5322.763                      : Last reference value
STEP               .M        0.152                         : Step increment
NULL               .         -9999                         : Missing value
COMP               .         PETROBRAS                     : Company
WELL               .         7-SPH-20D-SPS                 : Well name
FLD                .         SAPINHOA                      : Field
LOC                .                                       : Location
CNTY               .                                       : County
STAT               .         SAO PAULO                     : State
CTRY               .         BRASIL                        : Country
SRVC               .                                       : Service Company
DATE               .                                       : Date
API                .         863160046300                  : API number
APD                .M        26.0                          : ABOVE PERMANENT DATUM
BHT                .degF     140.0                         : BOTTOMHOLE TEMPERATURE
BLI                .M        5313.7                        : BOTTOM LOGGED INTERVAL
BS                 .in       12.25                         : BIT SIZE
DCS                .         31/01/2016                    : DATE CIRCULATION STOPPED
DFD                .lb/gal   9.7                           : DRILLING FLUID DENSITY
DFT                .         OLEDRILL(BASE OLEFINA)        : DRILLING FLUID TYPE
DLAB               .         01/02/2016                    : DATE LOGGING ON BOTTOM
EDF                .M        26.0                          : ELEVATION OF DRILLING FLOOR
EGL                .M        -2129.0                       : ELEVATION OF GROUND LEVEL
EKB                .M        26.0                          : ELEVATION OF KELLY BUSHING
EPD                .M        0                             : ELEVATATION OF PERMANENT DATUM
GDAT               .         SIRGAS2000                    : Geodetic Datum
LMF                .         MR                            : LOG MEASURED FROM
LUL                .         MCE                           : LOGGING UNIT LOCATION
LUN                .         11792307                      : LOGGING UNIT NUMBER
LATI               .         -25_41_36.136                 : Latitude
LONG               .         -43_10_30,988                 : LONGITUDE
MCST               .degF     -999.25                       : MUDCAKE SAMPLE TEMPERATURE
MFST               .degF     -999.25                       : MUD FILTRATE SAMPLE TEMPERATURE
MRT                .degF     140.0                         : MAXIMUM RECORDED TEMPERATURE
MST                .degF     -999.25                       : MUD SAMPLE TEMPERATURE
ORIGINALWELLNAME   .         7SPH 0020D SPS                : 
PDAT               .         NM                            : PERMANENT DATUM
PRODUCER-CODE      .         280                           : 
PRODUCER-NAME      .         Halliburton                   : 
RMB                .ohm.m    -999.25                       : RESISTIVITY OF MUD - BHT
RMCS               .ohm.m    -999.25                       : RESISTIVITY OF MUDCAKE SAMPLE
RMFS               .ohm.m    -999.25                       : RESISTIVITY OF MUD FILTRATE SAMPLE
RMS                .ohm.m    -999.25                       : RESISTIVITY OF MUD SAMPLE
RUN                .         01                            : RUN NUMBER 1
TCS                .h        09_00                         : TIME CIRCULATION STOPPED
TDD                .M        5315.0                        : DRILLERS DEPTH
TDL                .M        5316.9                        : LOGGERS DEPTH
TLAB               .h        08_00                         : TIME LOGGING ON BOTTOM
TLI                .M        5013.8                        : TOP LOGGED INTERVAL
X                  .M        683110.00000000               : X UTM Coordinate
Y                  .M        7157356.00000000              : Y UTM Coordinate
~Parameter Information Block
#_______________________________________________________________________________
#
#PARAMETER_NAME    .UNIT     VALUE                         : DESCRIPTION
#_______________________________________________________________________________
SET                .         BASE                          : 
TLFamily_BS        .         Bit Size                      : 
TLFamily_DT        .         Compressional Slowness        : 
TLFamily_DWAL      .         Aluminum Weight Fraction      : 
TLFamily_DWCA      .         Calcium Weight Fraction       : 
TLFamily_DWFE      .         Iron Weight Fraction          : 
TLFamily_DWGD      .         Gadolinium Weight Fraction    : 
TLFamily_DWK       .         Potassium Weight Fraction     : 
TLFamily_DWMG      .         Magnesium Weight Fraction     : 
TLFamily_DWMN      .         Manganese Weight Fraction     : 
TLFamily_DWS       .         Sulfur Weight Fraction        : 
TLFamily_DWSI      .         Silicon Weight Fraction       : 
TLFamily_DWTI      .         Titanium Weight Fraction      : 
TLFamily_GR        .         Gamma Ray                     : 
TLFamily_GRt       .         Gamma Ray                     : 
TLFamily_HCAL      .         Caliper                       : 
TLFamily_HDRA      .         Bulk Density Correction       : 
TLFamily_HFK       .         Potassium Concentration       : 
TLFamily_HTHO      .         Thorium Concentration         : 
TLFamily_HURA      .         Uranium Concentration         : 
TLFamily_MD        .         Measured Depth                : 
TLFamily_MPERM     .         NMR Permeability              : 
TLFamily_NMRE_Final .         NMR Bound Fluid Volume Fraction: 
TLFamily_NMRFL_Final .         NMR Free Fluids               : 
TLFamily_NMRT_Final .         NMR Porosity                  : 
TLFamily_NPHI      .         Neutron Porosity              : 
TLFamily_PE        .         Photoelectric Factor          : 
TLFamily_RD        .         Resistivity - Deep            : 
TLFamily_RHOB      .         Bulk Density                  : 
TLFamily_RM        .         Resistivity - Medium          : 
TLFamily_RS        .         Resistivity - Shallow         : 
TLFamily_T2LM      .         NMR T2 Logarithmic Mean       : 
TLFamily_TVDSS     .         True Vertical Depth Sub Sea   : 
~Curve Information
#_______________________________________________________________________________
#
#LOGNAME           .UNIT     LOG_ID                        : DESCRIPTION
#_______________________________________________________________________________
DEPTH              .M                                      :  
BS                 .in                                     : BS/Bit Size 
DT                 .us/ft                                  : DTC/MonoDeltaT 
DWAL               .kg/kg                                  : DAL/DryrockAlWF 
DWCA               .kg/kg                                  : DCA/DryrockCaWF 
DWFE               .kg/kg                                  : DFE/DryrockFeWF 
DWGD               .ppm                                    : DGD/DryrockGdWF 
DWK                .kg/kg                                  : DK/DryrockKWF 
DWMG               .kg/kg                                  : DMG/DryrockMgWF 
DWMN               .kg/kg                                  : DMN/DryrockMnWF 
DWS                .kg/kg                                  : DSUL/DryrockSuWF 
DWSI               .kg/kg                                  : DSI/DryrockSiWF 
DWTI               .kg/kg                                  : DTI/DryrockTiWF 
GR                 .gAPI                                   : GR/Gamma API 
GRt                .gAPI                                   : GKUT/GammaKUT 
HCAL               .in                                     : CALI/Caliper 
HDRA               .g/cm3                                  : Density Delta Rho Filtered 
HFK                .%                                      : POTA/Potassium 
HTHO               .ppm                                    : THOR/Thorium 
HURA               .ppm                                    : URAN/Uranium 
MPERM              .mD                                     : MPERMT2/MrilT2KCoat 
NMRE_Final         .m3/m3                                  : MPHIT2/TA-grp T2 Effective Por 
NMRFL_Final        .unitless                               : MFFIT2/TA-grp T2 FreeFluid Ind 
NMRT_Final         .frac                                   : MSIGT2/TA-grp T2 Total Por. 
NPHI               .frac                                   : POROSIDADE NEUTRONICA (COMPOSICAO DE CURVAS CABO E/OU LWD) 
PE                 .b/e                                    : Density PE Filtered 
RD                 .ohm.m                                  : RT90/90in Resistivity 2ft Res 
RHOB               .g/cm3                                  : DENSIDADE (COMPOSICAO DE CURVAS CABO E/OU LWD ) 
RM                 .ohm.m                                  : RT30/30in Resistivity 2ft Res 
RS                 .ohm.m                                  : RT10/10in Resistivity 2ft Res 
T2LM               .ms                                     : T2LM/T2 Log Mean 
TVDSS              .M                                      :  
~Ascii
# ...
5252.354   12.250     64.019     0.017      0.098      0.006      0.000      0.021      0.000      0.000      0.003      0.320      0.003      21.874     28.921     12.880     0.032      0.186      2.131      2.087      0.709      0.099      0.045      0.108      0.137      5.682      113.642    2.405      123.819    202.909    56.077     5121.639  
5252.506   12.250     64.679     0.017      0.096      0.005      0.000      0.021      0.000      0.000      0.006      0.321      0.002      21.467     27.621     12.624     0.030      0.170      2.187      1.951      0.461      0.094      0.040      0.104      0.132      5.905      125.692    2.430      132.770    215.652    57.847     5121.781  
5252.659   12.250     64.064     0.017      0.109      0.005      0.000      0.021      0.000      0.001      0.010      0.304      0.002      21.800     26.689     12.666     0.026      0.219      2.162      1.769      0.556      0.086      0.043      0.095      0.125      6.101      153.851    2.458      155.010    236.340    66.794     5121.922  
5252.811   12.250     63.426     0.017      0.125      0.004      0.000      0.022      0.000      0.000      0.011      0.284      0.002      23.038     26.910     12.668     0.021      0.245      1.861      1.858      0.811      0.080      0.047      0.090      0.115      6.212      167.530    2.485      164.499    234.440    71.014     5122.064  
5252.963   12.250     62.890     0.018      0.151      0.003      0.000      0.023      0.000      0.000      0.012      0.252      0.003      24.927     28.446     12.608     0.020      0.269      1.455      2.137      0.776      0.075      0.047      0.089      0.105      6.328      178.877    2.518      170.727    212.248    67.161     5122.206  
5253.116   12.250     62.483     0.020      0.170      0.003      0.000      0.024      0.000      0.000      0.011      0.229      0.003      28.864     30.011     12.581     0.024      0.253      1.198      2.435      0.821      0.073      0.047      0.087      0.097      6.512      173.357    2.541      164.300    187.002    73.881     5122.347  
5253.268   12.250     61.672     0.022      0.196      0.003      0.000      0.027      0.000      0.000      0.006      0.198      0.003      29.908     32.121     12.579     0.028      0.194      1.013      2.847      1.529      0.073      0.053      0.081      0.094      6.619      149.791    2.542      143.031    151.529    108.804    5122.489  
5253.421   12.250     61.502     0.022      0.210      0.003      0.000      0.028      0.000      0.000      0.003      0.183      0.003      29.808     33.252     12.589     0.029      0.177      1.099      2.971      4.221      0.072      0.058      0.074      0.102      6.548      135.319    2.537      130.703    138.693    172.852    5122.631  
5253.573   12.250     61.429     0.021      0.224      0.003      0.000      0.026      0.000      0.000      0.000      0.171      0.002      29.954     34.523     12.599     0.028      0.187      1.394      2.985      5.388      0.073      0.059      0.073      0.113      6.401      122.358    2.534      120.715    142.461    186.258    5122.772  
5253.725   12.250     61.161     0.018      0.232      0.003      0.000      0.023      0.001      0.000      0.000      0.165      0.002      30.422     35.149     12.605     0.028      0.219      1.571      2.930      3.724      0.075      0.059      0.077      0.123      6.280      115.560    2.535      116.308    150.108    163.546    5122.914  
5253.878   12.250     60.651     0.017      0.236      0.003      0.000      0.021      0.001      0.000      0.001      0.161      0.001      29.431     35.652     12.597     0.029      0.310      1.660      2.788      2.505      0.077      0.057      0.080      0.129      6.189      106.710    2.536      110.579    150.277    142.362    5123.056  
5254.030   12.250     59.911     0.015      0.235      0.003      0.000      0.019      0.001      0.000      0.003      0.164      0.001      26.765     35.603     12.594     0.032      0.362      1.584      2.717      1.406      0.076      0.052      0.079      0.130      6.080      96.885     2.538      102.357    140.595    139.311    5123.197  
5254.183   12.250     59.089     0.013      0.225      0.001      0.000      0.016      0.002      0.000      0.007      0.177      0.001      24.773     35.296     12.609     0.036      0.386      1.442      2.694      0.636      0.074      0.044      0.075      0.126      5.908      80.312     2.540      86.003     115.416    153.230    5123.339  
5254.335   12.250     58.384     0.012      0.209      0.001      0.000      0.014      0.007      0.000      0.010      0.189      0.001      25.589     34.941     12.625     0.041      0.380      1.588      2.610      0.344      0.073      0.038      0.074      0.120      5.749      70.648     2.540      75.987     99.836     149.016    5123.481  
5254.487   12.250     58.276     0.012      0.178      0.001      0.000      0.015      0.010      0.000      0.013      0.217      0.001      26.508     34.534     12.645     0.051      0.323      1.941      2.536      0.262      0.077      0.036      0.077      0.115      5.658      65.468     2.530      70.887     92.320     127.143    5123.622  
5254.640   12.250     59.164     0.013      0.155      0.002      0.000      0.016      0.007      0.000      0.012      0.247      0.001      26.499     34.768     12.650     0.055      0.273      2.159      2.571      0.351      0.082      0.038      0.083      0.115      5.677      68.534     2.503      74.956     99.221     113.301    5123.764  
5254.792   12.250     60.646     0.014      0.126      0.003      0.000      0.018      0.000      0.000      0.007      0.291      0.001      26.030     35.287     12.681     0.047      0.201      2.365      2.682      0.742      0.088      0.046      0.090      0.124      5.878      81.517     2.473      91.298     127.067    105.123    5123.906  
5254.945   12.250     63.324     0.016      0.110      0.003      0.000      0.019      0.000      0.000      0.004      0.310      0.001      25.565     35.527     12.722     0.042      0.162      2.269      2.815      1.334      0.093      0.053      0.096      0.135      6.283      91.017     2.455      103.529    148.195    108.275    5124.047  
5255.097   12.250     66.660     0.017      0.099      0.003      0.000      0.022      0.000      0.001      0.002      0.322      0.001      24.576     35.681     12.790     0.058      0.148      1.996      2.959      1.483      0.098      0.055      0.100      0.139      6.991      98.750     2.452      113.633    165.049    116.262    5124.189  
5255.249   12.250     69.822     0.020      0.088      0.003      0.000      0.025      0.000      0.001      0.001      0.329      0.002      21.936     34.514     12.929     0.084      0.152      1.422      3.036      0.990      0.101      0.050      0.101      0.137      7.643      109.345    2.437      127.461    186.377    110.238    5124.331  
5255.402   12.250     72.413     0.022      0.086      0.003      0.000      0.028      0.000      0.001      0.000      0.330      0.002      17.820     32.924     13.249     0.114      0.169      1.040      2.970      0.601      0.104      0.043      0.104      0.145      7.904      118.630    2.387      139.687    207.952    97.610     5124.472  
5255.554   12.250     74.382     0.023      0.089      0.004      0.000      0.029      0.000      0.001      0.003      0.323      0.001      16.603     29.111     13.933     0.131      0.202      0.870      2.546      0.374      0.111      0.037      0.111      0.159      7.555      140.866    2.297      169.856    269.374    88.707     5124.614  
5255.707   12.250     75.055     0.023      0.090      0.005      0.000      0.028      0.000      0.001      0.008      0.320      0.001      15.481     26.238     14.257     0.122      0.213      1.041      2.141      0.319      0.116      0.034      0.116      0.168      6.668      155.066    2.175      189.627    291.848    85.155     5124.756  
