~Version
 VERS              .         2.0                           : CWLS LOG ASCII STANDARD - VERSION 2.0
 WRAP              .         NO                            : ONE LINE PER DEPTH STEP
 DLM               .         SPACE                         : DELIMITING CHARACTER(SPACE TAB OR COMMA)
~Well Information
#_______________________________________________________________________________
#
#PARAMETER_NAME    .UNIT     VALUE                         : DESCRIPTION
#_______________________________________________________________________________
STRT               .M        4938.217                      : First reference value
STOP               .M        5227.625                      : Last reference value
STEP               .M        0.152                         : Step increment
NULL               .         -9999                         : Missing value
COMP               .         PETROBRAS                     : Company
WELL               .         7-SPH-17-SPS                  : Well name
FLD                .         SAPINHOA                      : Field
LOC                .                                       : Location
CNTY               .                                       : County
STAT               .         86316027948                   : State
CTRY               .         Brasil                        : Country
SRVC               .                                       : Service Company
DATE               .                                       : Date
API                .                                       : API number
APD                .M        25                            : Elevation of Depth Reference (LMF) Above Permanent Datum
BHS                .         OPEN                          : Borehole Status (Open or Cased Hole)
BHT                .degF     144                           : Bottom Hole Temperature
BLI                .M        5222.59                       : Bottom Log Interval
BS                 .in       12.25                         : Bit Size
CBDR               .M        5017                          : Casing Bottom (Driller)
CBLO               .M        5020.6                        : Casing Bottom (Logger)
CSIZ               .in       14                            : Casing Outer Diameter
CWEI               .lbm/ft   114                           : Casing Weight
DCS                .         04/01/2015                    : Date Circulation Stopped
DFD                .lb/gal   9.6                           : Drilling Fluid Density
DFT                .         BR-MUL                        : Drilling Fluid Type
DLAB               .         06/01/2015                    : Date Logging on Bottom
EDF                .M        25                            : Elevation of Drill Floor
EGL                .M        -2131                         : Elevation of Ground Level
EKB                .M        25                            : Elevation of Kelly Bushing
EPD                .M        0                             : Elevation of Permanent Datum (PDAT) above Mean Sea Level
LMF                .         MR                            : Logging Measured From (Name of Logging Elevation Reference)
LUL                .         BRMA                          : Logging Unit Location
LUN                .         7806                          : Logging Unit Number
LONG               .         -43_09_42,450                 : Longitude
MCST               .degF     -999.25                       : Mudcake Sample Temperature
MFST               .degF     -999.25                       : Mud Filtrate Sample Temperature
MRT                .degF     144                           : Maximum Recorded Temperature
MST                .degF     -999.25                       : Mud Sample Temperature
PDAT               .         NM                            : Permanent Datum
PRODUCER-CODE      .         440                           : 
PRODUCER-NAME      .         Schlumberger                  : 
RMB                .ohm.m    -999.25                       : Resistivity of Mud at Bottom Hole Temperature
RMCS               .ohm.m    -999.25                       : Resistivity of Mud Cake Sample
RMFS               .ohm.m    -999.25                       : Resistivity of Mud Filtrate Sample
RMS                .ohm.m    -999.25                       : Resistivity of Mud Sample
RUN                .         02                            : Run Number
TCS                .h        17_30                         : Time Circulation Stopped
TDD                .M        5221                          : Total Depth (Driller)
TDL                .M        5225                          : Logger Total Depth
TLAB               .h        09_25                         : Time Logging on Bottom
TLI                .M        5020.6                        : Top Log Interval
X                  .M        684517.00000000               : 
Y                  .M        7161201.00000000              : 
~Parameter Information Block
#_______________________________________________________________________________
#
#PARAMETER_NAME    .UNIT     VALUE                         : DESCRIPTION
#_______________________________________________________________________________
SET                .         BASE                          : 
TLFamily_BS        .         Bit Size                      : 
TLFamily_DT        .         Compressional Slowness        : 
TLFamily_DWAL      .         Aluminum Weight Fraction      : 
TLFamily_DWCA      .         Calcium Weight Fraction       : 
TLFamily_DWFE      .         Iron Weight Fraction          : 
TLFamily_DWGD      .         Gadolinium Weight Fraction    : 
TLFamily_DWS       .         Sulfur Weight Fraction        : 
TLFamily_DWSI      .         Silicon Weight Fraction       : 
TLFamily_DWTI      .         Titanium Weight Fraction      : 
TLFamily_GR        .         Gamma Ray                     : 
TLFamily_GRt       .         Gamma Ray                     : 
TLFamily_HCAL      .         Caliper                       : 
TLFamily_HDRA      .         Bulk Density Correction       : 
TLFamily_HFK       .         Potassium Concentration       : 
TLFamily_HTHO      .         Thorium Concentration         : 
TLFamily_HURA      .         Uranium Concentration         : 
TLFamily_KSDR      .         NMR Permeability              : 
TLFamily_KTIM      .         NMR Permeability              : 
TLFamily_MD        .         Measured Depth                : 
TLFamily_NMRE_Final .         NMR Bound Fluid Volume Fraction: 
TLFamily_NMRFL_Final .         NMR Free Fluids               : 
TLFamily_NMRT_Final .         NMR Porosity                  : 
TLFamily_NPHI      .         Neutron Porosity              : 
TLFamily_PE        .         Photoelectric Factor          : 
TLFamily_RD        .         Resistivity - Deep            : 
TLFamily_RHOB      .         Bulk Density                  : 
TLFamily_RM        .         Resistivity - Medium          : 
TLFamily_RS        .         Resistivity - Shallow         : 
TLFamily_T2LM      .         NMR T2 Logarithmic Mean       : 
TLFamily_TVDSS     .         True Vertical Depth Sub Sea   : 
~Curve Information
#_______________________________________________________________________________
#
#LOGNAME           .UNIT     LOG_ID                        : DESCRIPTION
#_______________________________________________________________________________
DEPTH              .M                                      :  
BS                 .in                                     : Bit Size 
DT                 .us/ft                                  : Delta-T Compressional 
DWAL               .kg/kg                                  : Dry Weight Fraction Pseudo Aluminum (SpectroLith WALK2 Model) 
DWCA               .kg/kg                                  : Dry Weight Fraction Calcium (SpectroLith WALK2 Model) 
DWFE               .kg/kg                                  : Dry Weight Fraction Iron + 0.14 Aluminum (SpectroLith WALK2 Model) 
DWGD               .ppm                                    : Dry Weight Fraction Gadolinium (SpectroLith WALK2 Model) 
DWS                .kg/kg                                  : Dry Weight Fraction Sulfur (SpectroLith WALK2 Model) 
DWSI               .kg/kg                                  : Dry Weight Fraction Silicon (SpectroLith WALK2 Model) 
DWTI               .kg/kg                                  : Dry Weight Fraction Titanium (SpectroLith WALK2 Model) 
GR                 .gAPI                                   : Gamma Ray 
GRt                .gAPI                                   : HNGS Standard Gamma-Ray 
HCAL               .in                                     : HRCC Caliper Calibrated 
HDRA               .g/cm3                                  : Density Standoff Correction 
HFK                .%                                      : HNGS Formation Potassium Concentration 
HTHO               .ppm                                    : HNGS Formation Thorium Concentration 
HURA               .ppm                                    : HNGS Formation Uranium Concentration 
KSDR               .mD                                     : SDR Permeability 
KTIM               .mD                                     : Timur/Coates Permeability 
NMRE_Final         .m3/m3                                  : CMR Porosity with T2 values greater than 3 ms 
NMRFL_Final        .unitless                               : CMR Free Fluid 
NMRT_Final         .frac                                   : Total CMR Porosity 
NPHI               .frac                                   : Enhanced Thermal Neutron Porosity in Selected Lithology 
PE                 .b/e                                    : Standard Resolution Formation Photoelectric Factor 
RD                 .ohm.m                                  : Array Induction Two Foot Resistivity A90 
RHOB               .g/cm3                                  : Standard Resolution Formation Density 
RM                 .ohm.m                                  : Array Induction Two Foot Resistivity A30 
RS                 .ohm.m                                  : Array Induction Two Foot Resistivity A10 
T2LM               .ms                                     : T2 Logarithmic Mean 
TVDSS              .M                                      :  
~Ascii
# ...
5067.757   12.250     67.894     0.000      0.302      0.000      3.249      0.000      0.114      0.000      17.600     19.653     12.280     0.002      0.205      1.191      1.480      85.473     111.228    0.162      0.133      0.169      0.215      4.565      213.540    2.468      254.979    275.308    163.456    5042.475  
5067.910   12.250     66.477     0.000      0.266      0.000      4.732      0.000      0.157      0.000      22.415     24.603     12.269     -0.000     0.248      1.525      1.874      49.106     54.714     0.141      0.112      0.141      0.215      4.491      188.884    2.449      194.318    218.026    177.332    5042.628  
5068.062   12.250     66.231     0.000      0.223      0.000      3.660      0.000      0.208      0.000      26.627     28.312     12.291     -0.004     0.273      1.604      2.264      12.730     9.444      0.111      0.079      0.111      0.211      4.401      188.658    2.447      157.116    189.442    144.184    5042.780  
5068.214   12.250     66.280     0.000      0.202      0.000      1.520      0.000      0.232      0.000      28.475     30.337     12.280     -0.007     0.268      1.665      2.540      5.607      3.249      0.098      0.064      0.098      0.171      4.203      200.934    2.482      125.993    164.985    123.582    5042.933  
5068.367   12.250     67.246     0.000      0.224      0.000      0.003      0.003      0.204      0.000      27.531     31.177     12.280     -0.006     0.279      1.669      2.610      10.299     6.646      0.108      0.075      0.108      0.086      3.810      281.812    2.540      121.849    134.089    138.681    5043.085  
5068.519   12.250     67.786     0.002      0.272      0.002      0.000      0.012      0.139      0.000      26.720     28.862     12.270     -0.003     0.228      1.636      2.487      33.278     24.196     0.130      0.099      0.135      0.088      3.428      365.682    2.576      144.374    160.628    162.516    5043.237  
5068.672   12.250     68.323     0.002      0.320      0.002      0.000      0.018      0.081      0.000      22.970     24.015     12.270     0.009      0.189      1.462      2.018      108.456    79.207     0.156      0.128      0.167      0.211      3.346      454.284    2.548      179.929    192.299    186.414    5043.390  
5068.824   12.250     68.992     0.001      0.352      0.001      0.000      0.014      0.048      0.000      17.334     17.874     12.291     0.026      0.144      1.143      1.461      276.839    197.370    0.179      0.151      0.190      0.278      3.761      594.380    2.479      215.119    260.611    229.890    5043.542  
5068.976   12.250     69.260     0.000      0.367      0.000      0.000      0.004      0.037      0.000      13.282     14.513     12.291     0.023      0.122      0.937      1.195      338.115    525.671    0.180      0.160      0.185      0.222      4.526      349.161    2.402      259.829    362.090    268.560    5043.695  
5069.129   12.250     69.446     0.003      0.365      0.002      0.075      0.000      0.036      0.001      11.308     13.098     12.312     0.019      0.114      0.930      1.038      181.784    341.183    0.164      0.145      0.166      0.199      5.103      704.221    2.396      457.472    572.108    246.634    5043.847  
5069.281   12.250     69.853     0.007      0.359      0.004      0.000      0.000      0.037      0.001      12.437     12.817     12.323     0.006      0.102      0.880      1.013      81.911     131.685    0.145      0.124      0.148      0.182      5.299      696.028    2.428      574.371    1043.809   207.816    5043.999  
5069.434   12.250     69.838     0.008      0.354      0.005      0.000      0.000      0.039      0.000      13.369     13.707     12.291     0.007      0.097      1.009      1.087      53.387     71.089     0.137      0.113      0.140      0.160      5.116      470.551    2.457      553.672    977.951    187.510    5044.152  
5069.586   12.250     69.787     0.007      0.350      0.004      0.000      0.001      0.046      0.000      14.400     14.717     12.291     0.001      0.106      1.119      1.172      78.612     121.162    0.145      0.122      0.145      0.139      4.997      404.559    2.440      456.215    715.378    211.238    5044.304  
5069.738   12.250     69.639     0.006      0.348      0.004      0.000      0.001      0.051      0.000      14.187     15.038     12.291     -0.005     0.119      1.200      1.141      194.347    386.158    0.167      0.148      0.167      0.152      5.026      369.415    2.397      428.704    539.926    251.076    5044.457  
5069.891   12.250     70.033     0.007      0.346      0.004      0.000      0.000      0.051      0.000      13.740     15.190     12.291     -0.005     0.125      1.178      1.155      360.292    691.181    0.181      0.167      0.181      0.185      5.166      414.422    2.371      475.008    588.656    290.256    5044.609  
5070.043   12.250     70.503     0.008      0.352      0.005      0.000      0.000      0.042      0.000      13.598     15.548     12.311     -0.004     0.128      1.255      1.168      515.020    845.408    0.187      0.177      0.187      0.191      5.299      542.293    2.361      583.610    1129.263   325.369    5044.761  
5070.196   12.250     71.054     0.008      0.357      0.005      0.000      0.000      0.036      0.001      13.843     15.644     12.312     -0.003     0.152      1.320      1.082      581.807    795.149    0.185      0.179      0.185      0.188      5.413      764.959    2.359      749.091    1912.404   352.674    5044.914  
5070.348   12.250     71.755     0.008      0.359      0.004      0.000      0.000      0.035      0.001      13.424     14.636     12.312     -0.003     0.155      1.181      1.037      528.698    597.096    0.177      0.173      0.177      0.198      5.493      1164.630   2.352      1018.270   1802.582   368.480    5045.066  
5070.500   12.250     73.766     0.006      0.353      0.003      0.000      0.000      0.044      0.001      12.367     12.981     12.333     -0.005     0.142      1.304      0.821      473.221    565.246    0.175      0.169      0.175      0.210      5.522      1726.659   2.333      1028.118   1559.712   354.774    5045.219  
5070.653   12.250     75.310     0.004      0.349      0.003      0.000      0.000      0.052      0.000      11.617     12.550     12.291     -0.007     0.149      1.544      0.636      519.088    711.992    0.181      0.172      0.182      0.200      5.416      1950.000   2.316      1263.993   1725.825   345.111    5045.371  
5070.805   12.250     76.143     0.001      0.349      0.001      0.000      0.000      0.057      0.000      11.683     12.325     12.311     -0.008     0.157      1.679      0.555      680.111    1064.236   0.191      0.181      0.194      0.185      5.246      1950.000   2.301      1261.738   1949.265   347.254    5045.523  
5070.958   12.250     77.722     0.000      0.350      0.000      0.000      0.000      0.059      0.000      12.821     12.932     12.311     -0.003     0.173      2.055      0.500      958.535    1599.051   0.202      0.193      0.207      0.206      5.048      1950.000   2.299      1345.902   1950.000   361.708    5045.676  
5071.110   12.250     77.767     0.000      0.349      0.000      0.000      0.005      0.057      0.000      13.388     14.049     12.291     0.002      0.197      2.597      0.389      1209.820   1944.066   0.210      0.202      0.213      0.192      4.963      1949.817   2.293      1347.857   1950.000   381.587    5045.828  
5071.262   12.250     78.166     0.000      0.352      0.000      0.000      0.006      0.053      0.000      14.010     14.827     12.301     0.002      0.213      2.937      0.333      1189.077   1721.259   0.209      0.201      0.209      0.199      4.970      1896.132   2.286      1307.325   1950.000   393.428    5045.981  
5071.415   12.250     79.277     0.002      0.358      0.001      0.000      0.003      0.045      0.000      15.426     16.462     12.312     -0.001     0.249      3.808      0.154      990.771    1466.875   0.204      0.194      0.204      0.279      5.030      1864.913   2.280      1252.322   1950.000   378.091    5046.133  
