~Version
 VERS              .         2.0                           : CWLS LOG ASCII STANDARD - VERSION 2.0
 WRAP              .         NO                            : ONE LINE PER DEPTH STEP
 DLM               .         SPACE                         : DELIMITING CHARACTER(SPACE TAB OR COMMA)
~Well Information
#_______________________________________________________________________________
#
#PARAMETER_NAME    .UNIT     VALUE                         : DESCRIPTION
#_______________________________________________________________________________
STRT               .M        5082.700                      : First reference value
STOP               .M        5352.753                      : Last reference value
STEP               .M        0.152                         : Step increment
NULL               .         -9999                         : Missing value
COMP               .         PETROBRAS                     : Company
WELL               .         7-SPH-16D-SPS                 : Well name
FLD                .         SAPINHOA                      : Field
LOC                .                                       : Location
CNTY               .                                       : County
STAT               .         SP                            : State
CTRY               .                                       : Country
SRVC               .                                       : Service Company
DATE               .                                       : Date
API                .                                       : API number
APD                .M        24.0                          : ABOVE PERMANENT DATUM
BHT                .degF     144.0                         : BOTTOMHOLE TEMPERATURE
BLI                .M        5312.4                        : BOTTOM LOGGED INTERVAL
BS                 .in       12.25                         : BIT SIZE
DCS                .         04/09/2014                    : DATE CIRCULATION STOPPED
DFD                .lb/gal   9.5                           : DRILLING FLUID DENSITY
DFT                .         BR-MUL                        : DRILLING FLUID TYPE
DLAB               .         05/09/2014                    : DATE LOGGING ON BOTTOM
EDF                .M        24.0                          : ELEVATION OF DRILLING FLOOR
EGL                .M        -2125.0                       : ELEVATION OF GROUND LEVEL
EKB                .M        -999.25                       : ELEVATION OF KELLY BUSHING
EPD                .M        0.0                           : ELEVATATION OF PERMANENT DATUM
LMF                .         MR                            : LOG MEASURED FROM
LUL                .         MCE                           : LOGGING UNIT LOCATION
LUN                .         11202303                      : LOGGING UNIT NUMBER
LONG               .         -43_10_06.229                 : LONGITUDE
MCST               .degF     -999.25                       : MUDCAKE SAMPLE TEMPERATURE
MFST               .degF     -999.25                       : MUD FILTRATE SAMPLE TEMPERATURE
MRT                .degF     144.0                         : MAXIMUM RECORDED TEMPERATURE
MST                .degF     -999.25                       : MUD SAMPLE TEMPERATURE
PDAT               .         NM                            : PERMANENT DATUM
PRODUCER-CODE      .         280                           : 
PRODUCER-NAME      .         Halliburton                   : 
RMB                .ohm.m    -999.25                       : RESISTIVITY OF MUD - BHT
RMCS               .ohm.m    -999.25                       : RESISTIVITY OF MUDCAKE SAMPLE
RMFS               .ohm.m    -999.25                       : RESISTIVITY OF MUD FILTRATE SAMPLE
RMS                .ohm.m    -999.25                       : RESISTIVITY OF MUD SAMPLE
RUN                .         01                            : RUN NUMBER 1
TCS                .h        05_30                         : TIME CIRCULATION STOPPED
TDD                .M        5343.0                        : DRILLERS DEPTH
TDL                .M        5345.0                        : LOGGERS DEPTH
TLAB               .h        16_45                         : TIME LOGGING ON BOTTOM
TLI                .M        5135.0                        : TOP LOGGED INTERVAL
X                  .M        683789.99900000               : X UTM Coordinate
Y                  .M        7152001.99900000              : Y UTM Coordinate
~Parameter Information Block
#_______________________________________________________________________________
#
#PARAMETER_NAME    .UNIT     VALUE                         : DESCRIPTION
#_______________________________________________________________________________
SET                .         BASE                          : 
TLFamily_BS        .         Bit Size                      : 
TLFamily_DT        .         Compressional Slowness        : 
TLFamily_DWAL      .         Aluminum Weight Fraction      : 
TLFamily_DWCA      .         Calcium Weight Fraction       : 
TLFamily_DWFE      .         Iron Weight Fraction          : 
TLFamily_DWGD      .         Gadolinium Weight Fraction    : 
TLFamily_DWK       .         Potassium Weight Fraction     : 
TLFamily_DWMG      .         Magnesium Weight Fraction     : 
TLFamily_DWMN      .         Manganese Weight Fraction     : 
TLFamily_DWS       .         Sulfur Weight Fraction        : 
TLFamily_DWSI      .         Silicon Weight Fraction       : 
TLFamily_DWTI      .         Titanium Weight Fraction      : 
TLFamily_GR        .         Gamma Ray                     : 
TLFamily_GRt       .         Gamma Ray                     : 
TLFamily_HCAL      .         Caliper                       : 
TLFamily_HDRA      .         Bulk Density Correction       : 
TLFamily_HFK       .         Potassium Concentration       : 
TLFamily_HTHO      .         Thorium Concentration         : 
TLFamily_HURA      .         Uranium Concentration         : 
TLFamily_MD        .         Measured Depth                : 
TLFamily_MPERM     .         NMR Permeability              : 
TLFamily_NMRE_Final .         NMR Bound Fluid Volume Fraction: 
TLFamily_NMRFL_Final .         NMR Free Fluids               : 
TLFamily_NMRT_Final .         NMR Porosity                  : 
TLFamily_NPHI      .         Neutron Porosity              : 
TLFamily_PE        .         Photoelectric Factor          : 
TLFamily_RD        .         Resistivity - Deep            : 
TLFamily_RHOB      .         Bulk Density                  : 
TLFamily_RM        .         Resistivity - Medium          : 
TLFamily_RS        .         Resistivity - Shallow         : 
TLFamily_T2LM      .         NMR T2 Logarithmic Mean       : 
TLFamily_TVDSS     .         True Vertical Depth Sub Sea   : 
~Curve Information
#_______________________________________________________________________________
#
#LOGNAME           .UNIT     LOG_ID                        : DESCRIPTION
#_______________________________________________________________________________
DEPTH              .M                                      :  
BS                 .in                                     : BS/Bit Size 
DT                 .us/ft                                  : DT/DTC 
DWAL               .kg/kg                                  : DAL/DryrockAlWF 
DWCA               .kg/kg                                  : DCA/DryrockCaWF 
DWFE               .kg/kg                                  : DFE/DryrockFeWF 
DWGD               .ppm                                    : DGD/DryrockGdWF 
DWK                .kg/kg                                  : DK/DryrockKWF 
DWMG               .kg/kg                                  : DMG/DryrockMgWF 
DWMN               .kg/kg                                  : DMN/DryrockMnWF 
DWS                .kg/kg                                  : DSUL/DryrockSuWF 
DWSI               .kg/kg                                  : DSI/DryrockSiWF 
DWTI               .kg/kg                                  : DTI/DryrockTiWF 
GR                 .gAPI                                   : GR/Gamma API 
GRt                .gAPI                                   : GKUT/GKUT 
HCAL               .in                                     : CALI/Caliper 
HDRA               .g/cm3                                  : DRHO/DensityCorr 
HFK                .%                                      : POTA/Potassium 
HTHO               .ppm                                    : THOR/Thorium 
HURA               .ppm                                    : URAN/Uranium 
MPERM              .mD                                     : MPERMT2/MrilT2KCoat 
NMRE_Final         .m3/m3                                  : MPHIT2/TA-grp T2 Effective Por 
NMRFL_Final        .unitless                               : MFFIT2/TA-grp T2 FreeFluid Ind 
NMRT_Final         .frac                                   : MSIGT2/TA-grp T2 Total Por. 
NPHI               .frac                                   : NPHI/Neutron Porosity 
PE                 .b/e                                    : PE/Pe 
RD                 .ohm.m                                  : RT90/90in Resistivity 2ft Res 
RHOB               .g/cm3                                  : RHOB/Density 
RM                 .ohm.m                                  : RT30/30in Resistivity 2ft Res 
RS                 .ohm.m                                  : RT10/10in Resistivity 2ft Res 
T2LM               .ms                                     : T2LM/T2 Log Mean 
TVDSS              .M                                      :  
~Ascii
# ...
5173.835   12.250     66.820     0.036      0.295      0.000      0.526      0.002      0.000      0.000      0.011      0.074      0.002      11.798     16.137     12.317     -0.013     0.169      0.984      1.107      38.080     0.144      0.108      0.144      0.137      4.666      1238.178   2.457      1106.600   1082.865   287.189    5029.262  
5173.988   12.250     66.382     0.035      0.281      0.001      0.498      0.002      0.004      0.000      0.010      0.085      0.002      13.025     16.472     12.310     -0.008     0.218      0.819      1.128      27.618     0.144      0.103      0.144      0.138      4.663      1173.814   2.469      1059.199   1058.522   261.152    5029.402  
5174.140   12.250     66.063     0.034      0.275      0.000      0.479      0.003      0.007      0.000      0.009      0.091      0.002      13.578     17.286     12.306     -0.005     0.258      0.652      1.233      25.508     0.142      0.102      0.143      0.131      4.631      1118.948   2.480      1017.405   1035.189   233.560    5029.543  
5174.293   12.250     65.726     0.035      0.262      0.000      0.501      0.003      0.015      0.000      0.009      0.091      0.001      14.519     18.413     12.311     -0.004     0.263      0.549      1.406      24.367     0.137      0.100      0.138      0.121      4.531      1020.778   2.498      942.608    990.134    217.274    5029.683  
5174.445   12.250     65.277     0.035      0.259      0.000      0.499      0.003      0.017      0.000      0.009      0.090      0.001      15.916     18.839     12.307     -0.006     0.252      0.526      1.450      22.795     0.128      0.096      0.129      0.112      4.431      944.640    2.515      885.035    952.442    219.904    5029.824  
5174.597   12.250     64.899     0.033      0.261      0.000      0.465      0.002      0.019      0.000      0.009      0.088      0.001      17.992     18.662     12.311     -0.010     0.220      0.701      1.400      23.562     0.114      0.090      0.115      0.110      4.398      807.009    2.541      777.952    866.538    236.652    5029.964  
5174.750   12.250     64.225     0.033      0.264      0.000      0.471      0.002      0.022      0.001      0.009      0.081      0.001      17.461     17.409     12.313     -0.013     0.188      0.940      1.212      26.390     0.106      0.088      0.107      0.117      4.501      681.492    2.548      673.796    686.199    257.240    5030.105  
5174.902   12.250     63.772     0.039      0.277      0.000      0.569      0.002      0.016      0.001      0.011      0.066      0.002      14.047     15.280     12.314     -0.014     0.179      1.124      0.947      22.367     0.104      0.085      0.106      0.115      4.603      438.095    2.532      453.742    555.187    273.700    5030.245  
5175.055   12.250     63.674     0.039      0.290      0.000      0.560      0.002      0.011      0.001      0.012      0.059      0.002      12.053     13.850     12.317     -0.013     0.163      1.164      0.850      11.535     0.108      0.080      0.108      0.111      4.602      314.605    2.515      332.239    424.391    256.156    5030.386  
5175.207   12.250     63.658     0.033      0.293      0.000      0.480      0.001      0.019      0.001      0.013      0.048      0.002      10.495     12.682     12.321     -0.011     0.150      1.057      0.800      5.507      0.109      0.072      0.109      0.104      4.705      223.275    2.508      233.676    280.620    218.682    5030.526  
5175.359   12.250     63.606     0.029      0.296      0.000      0.423      0.001      0.024      0.001      0.014      0.040      0.002      9.093      12.576     12.321     -0.010     0.135      0.945      0.831      3.350      0.106      0.066      0.106      0.098      4.770      204.899    2.521      215.511    262.582    187.204    5030.667  
5175.512   12.250     63.636     0.030      0.287      0.000      0.436      0.001      0.035      0.001      0.015      0.031      0.002      8.752      12.622     12.325     -0.009     0.118      0.943      0.842      3.198      0.101      0.064      0.101      0.099      4.763      194.141    2.547      205.321    254.017    184.096    5030.807  
5175.664   12.250     63.250     0.021      0.293      0.000      0.281      0.001      0.039      0.001      0.018      0.028      0.001      9.526      13.107     12.328     -0.008     0.105      1.093      0.867      2.257      0.097      0.060      0.097      0.100      4.743      189.092    2.554      201.721    253.199    190.265    5030.947  
5175.817   12.250     62.651     0.017      0.285      0.001      0.206      0.001      0.046      0.001      0.018      0.030      0.001      10.589     13.511     12.323     -0.006     0.101      1.288      0.855      1.669      0.096      0.056      0.096      0.094      4.787      189.546    2.555      203.392    256.849    186.340    5031.088  
5175.969   12.250     62.222     0.017      0.260      0.001      0.177      0.001      0.065      0.001      0.016      0.030      0.001      11.338     14.134     12.328     -0.004     0.122      1.337      0.843      2.400      0.095      0.060      0.095      0.091      4.798      190.650    2.553      205.919    261.894    186.564    5031.228  
5176.121   12.250     61.714     0.011      0.292      0.001      0.126      0.002      0.049      0.001      0.012      0.026      0.000      11.535     14.715     12.325     -0.003     0.151      1.173      0.870      5.787      0.094      0.069      0.094      0.089      4.768      195.026    2.552      211.685    269.381    201.839    5031.369  
5176.274   12.250     60.985     0.007      0.331      0.001      0.082      0.002      0.019      0.001      0.011      0.033      0.000      11.724     15.335     12.324     -0.004     0.211      0.920      0.925      10.439     0.094      0.074      0.094      0.093      4.730      204.640    2.555      223.628    286.449    204.818    5031.509  
5176.426   12.250     60.471     0.011      0.344      0.001      0.144      0.003      0.001      0.001      0.011      0.043      0.000      12.346     15.641     12.321     -0.006     0.258      0.706      0.962      15.863     0.094      0.077      0.094      0.098      4.654      208.018    2.566      227.720    296.586    191.931    5031.650  
5176.579   12.250     60.368     0.025      0.320      0.001      0.337      0.003      0.000      0.001      0.012      0.057      0.000      13.656     15.911     12.317     -0.011     0.276      0.582      1.039      14.036     0.094      0.077      0.095      0.093      4.553      199.585    2.574      217.347    275.710    178.276    5031.790  
5176.731   12.250     59.997     0.034      0.308      0.001      0.484      0.003      0.000      0.001      0.012      0.061      0.000      14.295     15.975     12.312     -0.013     0.267      0.646      1.087      10.274     0.093      0.074      0.096      0.092      4.527      184.880    2.574      199.589    254.177    168.176    5031.931  
5176.883   12.250     59.369     0.041      0.296      0.001      0.594      0.002      0.000      0.001      0.014      0.066      0.000      14.187     15.767     12.315     -0.015     0.225      0.784      1.088      7.999      0.095      0.073      0.096      0.087      4.522      175.615    2.573      188.274    239.621    173.509    5032.071  
5177.036   12.250     59.008     0.042      0.284      0.001      0.610      0.002      0.006      0.001      0.014      0.070      0.000      13.663     15.572     12.315     -0.014     0.180      0.927      1.099      5.987      0.096      0.070      0.097      0.086      4.524      178.657    2.571      191.405    242.199    183.876    5032.212  
5177.188   12.250     58.917     0.043      0.268      0.001      0.632      0.001      0.015      0.001      0.013      0.073      0.000      13.858     15.485     12.309     -0.012     0.145      1.040      1.093      4.437      0.097      0.067      0.098      0.088      4.527      196.358    2.570      211.234    262.044    167.665    5032.352  
