~Version
 VERS              .         2.0                           : CWLS LOG ASCII STANDARD - VERSION 2.0
 WRAP              .         NO                            : ONE LINE PER DEPTH STEP
 DLM               .         SPACE                         : DELIMITING CHARACTER(SPACE TAB OR COMMA)
~Well Information
#_______________________________________________________________________________
#
#PARAMETER_NAME    .UNIT     VALUE                         : DESCRIPTION
#_______________________________________________________________________________
STRT               .M        5082.700                      : First reference value
STOP               .M        5352.753                      : Last reference value
STEP               .M        0.152                         : Step increment
NULL               .         -9999                         : Missing value
COMP               .         PETROBRAS                     : Company
WELL               .         7-SPH-16D-SPS                 : Well name
FLD                .         SAPINHOA                      : Field
LOC                .                                       : Location
CNTY               .                                       : County
STAT               .         SP                            : State
CTRY               .                                       : Country
SRVC               .                                       : Service Company
DATE               .                                       : Date
API                .                                       : API number
APD                .M        24.0                          : ABOVE PERMANENT DATUM
BHT                .degF     144.0                         : BOTTOMHOLE TEMPERATURE
BLI                .M        5312.4                        : BOTTOM LOGGED INTERVAL
BS                 .in       12.25                         : BIT SIZE
DCS                .         04/09/2014                    : DATE CIRCULATION STOPPED
DFD                .lb/gal   9.5                           : DRILLING FLUID DENSITY
DFT                .         BR-MUL                        : DRILLING FLUID TYPE
DLAB               .         05/09/2014                    : DATE LOGGING ON BOTTOM
EDF                .M        24.0                          : ELEVATION OF DRILLING FLOOR
EGL                .M        -2125.0                       : ELEVATION OF GROUND LEVEL
EKB                .M        -999.25                       : ELEVATION OF KELLY BUSHING
EPD                .M        0.0                           : ELEVATATION OF PERMANENT DATUM
LMF                .         MR                            : LOG MEASURED FROM
LUL                .         MCE                           : LOGGING UNIT LOCATION
LUN                .         11202303                      : LOGGING UNIT NUMBER
LONG               .         -43_10_06.229                 : LONGITUDE
MCST               .degF     -999.25                       : MUDCAKE SAMPLE TEMPERATURE
MFST               .degF     -999.25                       : MUD FILTRATE SAMPLE TEMPERATURE
MRT                .degF     144.0                         : MAXIMUM RECORDED TEMPERATURE
MST                .degF     -999.25                       : MUD SAMPLE TEMPERATURE
PDAT               .         NM                            : PERMANENT DATUM
PRODUCER-CODE      .         280                           : 
PRODUCER-NAME      .         Halliburton                   : 
RMB                .ohm.m    -999.25                       : RESISTIVITY OF MUD - BHT
RMCS               .ohm.m    -999.25                       : RESISTIVITY OF MUDCAKE SAMPLE
RMFS               .ohm.m    -999.25                       : RESISTIVITY OF MUD FILTRATE SAMPLE
RMS                .ohm.m    -999.25                       : RESISTIVITY OF MUD SAMPLE
RUN                .         01                            : RUN NUMBER 1
TCS                .h        05_30                         : TIME CIRCULATION STOPPED
TDD                .M        5343.0                        : DRILLERS DEPTH
TDL                .M        5345.0                        : LOGGERS DEPTH
TLAB               .h        16_45                         : TIME LOGGING ON BOTTOM
TLI                .M        5135.0                        : TOP LOGGED INTERVAL
X                  .M        683789.99900000               : X UTM Coordinate
Y                  .M        7152001.99900000              : Y UTM Coordinate
~Parameter Information Block
#_______________________________________________________________________________
#
#PARAMETER_NAME    .UNIT     VALUE                         : DESCRIPTION
#_______________________________________________________________________________
SET                .         BASE                          : 
TLFamily_BS        .         Bit Size                      : 
TLFamily_DT        .         Compressional Slowness        : 
TLFamily_DWAL      .         Aluminum Weight Fraction      : 
TLFamily_DWCA      .         Calcium Weight Fraction       : 
TLFamily_DWFE      .         Iron Weight Fraction          : 
TLFamily_DWGD      .         Gadolinium Weight Fraction    : 
TLFamily_DWK       .         Potassium Weight Fraction     : 
TLFamily_DWMG      .         Magnesium Weight Fraction     : 
TLFamily_DWMN      .         Manganese Weight Fraction     : 
TLFamily_DWS       .         Sulfur Weight Fraction        : 
TLFamily_DWSI      .         Silicon Weight Fraction       : 
TLFamily_DWTI      .         Titanium Weight Fraction      : 
TLFamily_GR        .         Gamma Ray                     : 
TLFamily_GRt       .         Gamma Ray                     : 
TLFamily_HCAL      .         Caliper                       : 
TLFamily_HDRA      .         Bulk Density Correction       : 
TLFamily_HFK       .         Potassium Concentration       : 
TLFamily_HTHO      .         Thorium Concentration         : 
TLFamily_HURA      .         Uranium Concentration         : 
TLFamily_MD        .         Measured Depth                : 
TLFamily_MPERM     .         NMR Permeability              : 
TLFamily_NMRE_Final .         NMR Bound Fluid Volume Fraction: 
TLFamily_NMRFL_Final .         NMR Free Fluids               : 
TLFamily_NMRT_Final .         NMR Porosity                  : 
TLFamily_NPHI      .         Neutron Porosity              : 
TLFamily_PE        .         Photoelectric Factor          : 
TLFamily_RD        .         Resistivity - Deep            : 
TLFamily_RHOB      .         Bulk Density                  : 
TLFamily_RM        .         Resistivity - Medium          : 
TLFamily_RS        .         Resistivity - Shallow         : 
TLFamily_T2LM      .         NMR T2 Logarithmic Mean       : 
TLFamily_TVDSS     .         True Vertical Depth Sub Sea   : 
~Curve Information
#_______________________________________________________________________________
#
#LOGNAME           .UNIT     LOG_ID                        : DESCRIPTION
#_______________________________________________________________________________
DEPTH              .M                                      :  
BS                 .in                                     : BS/Bit Size 
DT                 .us/ft                                  : DT/DTC 
DWAL               .kg/kg                                  : DAL/DryrockAlWF 
DWCA               .kg/kg                                  : DCA/DryrockCaWF 
DWFE               .kg/kg                                  : DFE/DryrockFeWF 
DWGD               .ppm                                    : DGD/DryrockGdWF 
DWK                .kg/kg                                  : DK/DryrockKWF 
DWMG               .kg/kg                                  : DMG/DryrockMgWF 
DWMN               .kg/kg                                  : DMN/DryrockMnWF 
DWS                .kg/kg                                  : DSUL/DryrockSuWF 
DWSI               .kg/kg                                  : DSI/DryrockSiWF 
DWTI               .kg/kg                                  : DTI/DryrockTiWF 
GR                 .gAPI                                   : GR/Gamma API 
GRt                .gAPI                                   : GKUT/GKUT 
HCAL               .in                                     : CALI/Caliper 
HDRA               .g/cm3                                  : DRHO/DensityCorr 
HFK                .%                                      : POTA/Potassium 
HTHO               .ppm                                    : THOR/Thorium 
HURA               .ppm                                    : URAN/Uranium 
MPERM              .mD                                     : MPERMT2/MrilT2KCoat 
NMRE_Final         .m3/m3                                  : MPHIT2/TA-grp T2 Effective Por 
NMRFL_Final        .unitless                               : MFFIT2/TA-grp T2 FreeFluid Ind 
NMRT_Final         .frac                                   : MSIGT2/TA-grp T2 Total Por. 
NPHI               .frac                                   : NPHI/Neutron Porosity 
PE                 .b/e                                    : PE/Pe 
RD                 .ohm.m                                  : RT90/90in Resistivity 2ft Res 
RHOB               .g/cm3                                  : RHOB/Density 
RM                 .ohm.m                                  : RT30/30in Resistivity 2ft Res 
RS                 .ohm.m                                  : RT10/10in Resistivity 2ft Res 
T2LM               .ms                                     : T2LM/T2 Log Mean 
TVDSS              .M                                      :  
~Ascii
# ...
5114.247   -9999.000  -9999.000  0.111      0.088      0.212      1.539      0.002      0.000      0.001      0.036      0.060      0.004      8.488      11.225     12.332     -1.706     0.178      1.706      0.568      -9999.000  -9999.000  -9999.000  -9999.000  0.012      10.175     -9999.000  1.539      -9999.000  -9999.000  -9999.000  4974.348  
5114.399   -9999.000  -9999.000  0.115      0.090      0.198      1.588      0.002      0.000      0.001      0.036      0.062      0.004      8.190      11.264     12.321     -1.707     0.154      1.540      0.516      -9999.000  -9999.000  -9999.000  -9999.000  0.014      9.900      -9999.000  1.536      -9999.000  -9999.000  -9999.000  4974.488  
5114.552   -9999.000  -9999.000  0.115      0.088      0.197      1.573      0.003      0.000      0.001      0.035      0.067      0.004      7.811      11.051     12.328     -1.711     0.110      1.345      0.459      -9999.000  -9999.000  -9999.000  -9999.000  0.016      10.009     -9999.000  1.538      -9999.000  -9999.000  -9999.000  4974.628  
5114.704   -9999.000  66.748     0.116      0.074      0.201      1.591      0.003      0.000      0.001      0.038      0.076      0.005      8.346      10.877     12.336     -1.712     0.079      1.293      0.465      -9999.000  -9999.000  -9999.000  -9999.000  0.020      10.049     -9999.000  1.542      -9999.000  -9999.000  -9999.000  4974.769  
5114.857   -9999.000  67.015     0.114      0.067      0.207      1.572      0.002      0.000      0.001      0.041      0.080      0.006      8.409      10.708     12.356     -1.700     0.069      1.117      0.584      -9999.000  -9999.000  -9999.000  -9999.000  0.022      9.743      -9999.000  1.536      -9999.000  -9999.000  -9999.000  4974.909  
5115.009   -9999.000  67.045     0.119      0.056      0.212      1.648      0.002      0.000      0.002      0.040      0.083      0.006      8.051      10.698     12.368     -1.677     0.075      1.009      0.667      -9999.000  -9999.000  -9999.000  -9999.000  0.022      9.298      -9999.000  1.528      -9999.000  -9999.000  -9999.000  4975.050  
5115.161   -9999.000  66.749     0.125      0.042      0.222      1.742      0.001      0.000      0.002      0.032      0.091      0.005      8.844      10.817     12.365     -1.650     0.103      0.775      0.810      -9999.000  -9999.000  -9999.000  -9999.000  0.021      8.883      -9999.000  1.528      -9999.000  -9999.000  -9999.000  4975.190  
5115.314   -9999.000  66.603     0.125      0.033      0.232      1.736      0.001      0.000      0.002      0.026      0.098      0.004      10.015     11.011     12.373     -1.626     0.134      0.668      0.900      -9999.000  -9999.000  -9999.000  -9999.000  0.018      8.854      -9999.000  1.540      -9999.000  -9999.000  -9999.000  4975.331  
5115.466   -9999.000  66.741     0.118      0.031      0.242      1.629      0.001      0.000      0.002      0.025      0.103      0.003      9.749      11.146     12.374     -1.595     0.161      0.537      0.885      -9999.000  -9999.000  -9999.000  -9999.000  0.013      9.052      -9999.000  1.552      -9999.000  -9999.000  -9999.000  4975.471  
5115.619   -9999.000  67.074     0.119      0.040      0.235      1.626      0.001      0.000      0.002      0.029      0.095      0.002      9.383      11.159     12.379     -1.585     0.173      0.497      0.810      -9999.000  -9999.000  -9999.000  -9999.000  0.014      9.262      -9999.000  1.583      -9999.000  -9999.000  -9999.000  4975.611  
5115.771   -9999.000  67.231     0.121      0.057      0.217      1.629      0.002      0.000      0.002      0.037      0.083      0.001      9.071      11.001     12.367     -1.578     0.146      0.633      0.596      -9999.000  -9999.000  -9999.000  -9999.000  0.013      9.231      -9999.000  1.604      -9999.000  -9999.000  -9999.000  4975.752  
5115.923   -9999.000  67.464     0.111      0.065      0.218      1.496      0.002      0.000      0.001      0.040      0.081      0.001      8.558      10.879     12.354     -1.583     0.115      0.797      0.391      -9999.000  -9999.000  -9999.000  -9999.000  0.013      8.808      -9999.000  1.625      -9999.000  -9999.000  -9999.000  4975.892  
5116.076   -9999.000  67.604     0.096      0.073      0.220      1.285      0.002      0.000      0.001      0.042      0.088      0.001      8.305      10.549     12.343     -1.597     0.089      1.190      0.196      -9999.000  -9999.000  -9999.000  -9999.000  0.012      8.284      -9999.000  1.626      -9999.000  -9999.000  -9999.000  4976.033  
5116.228   -9999.000  67.613     0.090      0.080      0.216      1.205      0.002      0.001      0.001      0.043      0.087      0.001      8.046      10.344     12.348     -1.615     0.064      1.552      0.098      -9999.000  -9999.000  -9999.000  -9999.000  0.012      8.225      -9999.000  1.615      -9999.000  -9999.000  -9999.000  4976.173  
5116.381   -9999.000  67.450     0.089      0.087      0.211      1.191      0.002      0.001      0.001      0.046      0.082      0.001      7.910      10.346     12.354     -1.635     0.061      1.846      0.200      -9999.000  -9999.000  -9999.000  -9999.000  0.011      8.253      -9999.000  1.605      -9999.000  -9999.000  -9999.000  4976.313  
5116.533   -9999.000  67.112     0.085      0.095      0.212      1.146      0.001      0.002      0.001      0.043      0.076      0.001      8.059      10.558     12.348     -1.641     0.090      1.993      0.397      -9999.000  -9999.000  -9999.000  -9999.000  0.011      8.134      -9999.000  1.581      -9999.000  -9999.000  -9999.000  4976.454  
5116.685   -9999.000  66.667     0.080      0.106      0.209      1.082      0.001      0.009      0.001      0.032      0.066      0.001      7.859      10.909     12.359     -1.653     0.110      1.853      0.572      -9999.000  -9999.000  -9999.000  -9999.000  0.010      7.786      -9999.000  1.563      -9999.000  -9999.000  -9999.000  4976.594  
5116.838   -9999.000  66.438     0.077      0.112      0.204      1.046      0.001      0.015      0.001      0.027      0.058      0.001      7.776      11.704     12.369     -1.664     0.127      1.532      0.816      -9999.000  -9999.000  -9999.000  -9999.000  0.009      7.636      -9999.000  1.541      -9999.000  -9999.000  -9999.000  4976.735  
5116.990   -9999.000  66.370     0.090      0.112      0.205      1.221      0.001      0.009      0.001      0.030      0.050      0.002      7.637      11.990     12.393     -1.670     0.133      1.293      0.901      -9999.000  -9999.000  -9999.000  -9999.000  0.009      7.561      -9999.000  1.526      -9999.000  -9999.000  -9999.000  4976.875  
5117.143   -9999.000  66.478     0.103      0.113      0.210      1.397      0.001      0.003      0.001      0.033      0.038      0.002      7.806      11.939     12.395     -1.667     0.107      0.996      0.796      -9999.000  -9999.000  -9999.000  -9999.000  0.009      7.613      -9999.000  1.535      -9999.000  -9999.000  -9999.000  4977.016  
5117.295   -9999.000  66.724     0.123      0.113      0.202      1.661      0.002      0.000      0.002      0.036      0.025      0.003      8.334      11.637     12.388     -1.653     0.083      0.866      0.686      -9999.000  -9999.000  -9999.000  -9999.000  0.008      7.915      -9999.000  1.551      -9999.000  -9999.000  -9999.000  4977.156  
5117.447   -9999.000  67.224     0.131      0.110      0.195      1.766      0.002      0.000      0.002      0.038      0.023      0.003      7.994      11.003     12.383     -1.643     0.048      0.990      0.573      -9999.000  -9999.000  -9999.000  -9999.000  0.007      8.014      -9999.000  1.556      -9999.000  -9999.000  -9999.000  4977.296  
5117.600   -9999.000  67.510     0.137      0.100      0.202      1.847      0.002      0.000      0.002      0.039      0.024      0.003      7.169      10.554     12.366     -1.626     0.028      1.100      0.518      -9999.000  -9999.000  -9999.000  -9999.000  0.004      8.013      -9999.000  1.554      -9999.000  -9999.000  -9999.000  4977.437  
