~Version
 VERS              .         2.0                           : CWLS LOG ASCII STANDARD - VERSION 2.0
 WRAP              .         NO                            : ONE LINE PER DEPTH STEP
 DLM               .         SPACE                         : DELIMITING CHARACTER(SPACE TAB OR COMMA)
~Well Information
#_______________________________________________________________________________
#
#PARAMETER_NAME    .UNIT     VALUE                         : DESCRIPTION
#_______________________________________________________________________________
STRT               .M        5014.000                      : First reference value
STOP               .M        5322.763                      : Last reference value
STEP               .M        0.152                         : Step increment
NULL               .         -9999                         : Missing value
COMP               .         PETROBRAS                     : Company
WELL               .         7-SPH-20D-SPS                 : Well name
FLD                .         SAPINHOA                      : Field
LOC                .                                       : Location
CNTY               .                                       : County
STAT               .         SAO PAULO                     : State
CTRY               .         BRASIL                        : Country
SRVC               .                                       : Service Company
DATE               .                                       : Date
API                .         863160046300                  : API number
APD                .M        26.0                          : ABOVE PERMANENT DATUM
BHT                .degF     140.0                         : BOTTOMHOLE TEMPERATURE
BLI                .M        5313.7                        : BOTTOM LOGGED INTERVAL
BS                 .in       12.25                         : BIT SIZE
DCS                .         31/01/2016                    : DATE CIRCULATION STOPPED
DFD                .lb/gal   9.7                           : DRILLING FLUID DENSITY
DFT                .         OLEDRILL(BASE OLEFINA)        : DRILLING FLUID TYPE
DLAB               .         01/02/2016                    : DATE LOGGING ON BOTTOM
EDF                .M        26.0                          : ELEVATION OF DRILLING FLOOR
EGL                .M        -2129.0                       : ELEVATION OF GROUND LEVEL
EKB                .M        26.0                          : ELEVATION OF KELLY BUSHING
EPD                .M        0                             : ELEVATATION OF PERMANENT DATUM
GDAT               .         SIRGAS2000                    : Geodetic Datum
LMF                .         MR                            : LOG MEASURED FROM
LUL                .         MCE                           : LOGGING UNIT LOCATION
LUN                .         11792307                      : LOGGING UNIT NUMBER
LATI               .         -25_41_36.136                 : Latitude
LONG               .         -43_10_30,988                 : LONGITUDE
MCST               .degF     -999.25                       : MUDCAKE SAMPLE TEMPERATURE
MFST               .degF     -999.25                       : MUD FILTRATE SAMPLE TEMPERATURE
MRT                .degF     140.0                         : MAXIMUM RECORDED TEMPERATURE
MST                .degF     -999.25                       : MUD SAMPLE TEMPERATURE
ORIGINALWELLNAME   .         7SPH 0020D SPS                : 
PDAT               .         NM                            : PERMANENT DATUM
PRODUCER-CODE      .         280                           : 
PRODUCER-NAME      .         Halliburton                   : 
RMB                .ohm.m    -999.25                       : RESISTIVITY OF MUD - BHT
RMCS               .ohm.m    -999.25                       : RESISTIVITY OF MUDCAKE SAMPLE
RMFS               .ohm.m    -999.25                       : RESISTIVITY OF MUD FILTRATE SAMPLE
RMS                .ohm.m    -999.25                       : RESISTIVITY OF MUD SAMPLE
RUN                .         01                            : RUN NUMBER 1
TCS                .h        09_00                         : TIME CIRCULATION STOPPED
TDD                .M        5315.0                        : DRILLERS DEPTH
TDL                .M        5316.9                        : LOGGERS DEPTH
TLAB               .h        08_00                         : TIME LOGGING ON BOTTOM
TLI                .M        5013.8                        : TOP LOGGED INTERVAL
X                  .M        683110.00000000               : X UTM Coordinate
Y                  .M        7157356.00000000              : Y UTM Coordinate
~Parameter Information Block
#_______________________________________________________________________________
#
#PARAMETER_NAME    .UNIT     VALUE                         : DESCRIPTION
#_______________________________________________________________________________
SET                .         BASE                          : 
TLFamily_BS        .         Bit Size                      : 
TLFamily_DT        .         Compressional Slowness        : 
TLFamily_DWAL      .         Aluminum Weight Fraction      : 
TLFamily_DWCA      .         Calcium Weight Fraction       : 
TLFamily_DWFE      .         Iron Weight Fraction          : 
TLFamily_DWGD      .         Gadolinium Weight Fraction    : 
TLFamily_DWK       .         Potassium Weight Fraction     : 
TLFamily_DWMG      .         Magnesium Weight Fraction     : 
TLFamily_DWMN      .         Manganese Weight Fraction     : 
TLFamily_DWS       .         Sulfur Weight Fraction        : 
TLFamily_DWSI      .         Silicon Weight Fraction       : 
TLFamily_DWTI      .         Titanium Weight Fraction      : 
TLFamily_GR        .         Gamma Ray                     : 
TLFamily_GRt       .         Gamma Ray                     : 
TLFamily_HCAL      .         Caliper                       : 
TLFamily_HDRA      .         Bulk Density Correction       : 
TLFamily_HFK       .         Potassium Concentration       : 
TLFamily_HTHO      .         Thorium Concentration         : 
TLFamily_HURA      .         Uranium Concentration         : 
TLFamily_MD        .         Measured Depth                : 
TLFamily_MPERM     .         NMR Permeability              : 
TLFamily_NMRE_Final .         NMR Bound Fluid Volume Fraction: 
TLFamily_NMRFL_Final .         NMR Free Fluids               : 
TLFamily_NMRT_Final .         NMR Porosity                  : 
TLFamily_NPHI      .         Neutron Porosity              : 
TLFamily_PE        .         Photoelectric Factor          : 
TLFamily_RD        .         Resistivity - Deep            : 
TLFamily_RHOB      .         Bulk Density                  : 
TLFamily_RM        .         Resistivity - Medium          : 
TLFamily_RS        .         Resistivity - Shallow         : 
TLFamily_T2LM      .         NMR T2 Logarithmic Mean       : 
TLFamily_TVDSS     .         True Vertical Depth Sub Sea   : 
~Curve Information
#_______________________________________________________________________________
#
#LOGNAME           .UNIT     LOG_ID                        : DESCRIPTION
#_______________________________________________________________________________
DEPTH              .M                                      :  
BS                 .in                                     : BS/Bit Size 
DT                 .us/ft                                  : DTC/MonoDeltaT 
DWAL               .kg/kg                                  : DAL/DryrockAlWF 
DWCA               .kg/kg                                  : DCA/DryrockCaWF 
DWFE               .kg/kg                                  : DFE/DryrockFeWF 
DWGD               .ppm                                    : DGD/DryrockGdWF 
DWK                .kg/kg                                  : DK/DryrockKWF 
DWMG               .kg/kg                                  : DMG/DryrockMgWF 
DWMN               .kg/kg                                  : DMN/DryrockMnWF 
DWS                .kg/kg                                  : DSUL/DryrockSuWF 
DWSI               .kg/kg                                  : DSI/DryrockSiWF 
DWTI               .kg/kg                                  : DTI/DryrockTiWF 
GR                 .gAPI                                   : GR/Gamma API 
GRt                .gAPI                                   : GKUT/GammaKUT 
HCAL               .in                                     : CALI/Caliper 
HDRA               .g/cm3                                  : Density Delta Rho Filtered 
HFK                .%                                      : POTA/Potassium 
HTHO               .ppm                                    : THOR/Thorium 
HURA               .ppm                                    : URAN/Uranium 
MPERM              .mD                                     : MPERMT2/MrilT2KCoat 
NMRE_Final         .m3/m3                                  : MPHIT2/TA-grp T2 Effective Por 
NMRFL_Final        .unitless                               : MFFIT2/TA-grp T2 FreeFluid Ind 
NMRT_Final         .frac                                   : MSIGT2/TA-grp T2 Total Por. 
NPHI               .frac                                   : POROSIDADE NEUTRONICA (COMPOSICAO DE CURVAS CABO E/OU LWD) 
PE                 .b/e                                    : Density PE Filtered 
RD                 .ohm.m                                  : RT90/90in Resistivity 2ft Res 
RHOB               .g/cm3                                  : DENSIDADE (COMPOSICAO DE CURVAS CABO E/OU LWD ) 
RM                 .ohm.m                                  : RT30/30in Resistivity 2ft Res 
RS                 .ohm.m                                  : RT10/10in Resistivity 2ft Res 
T2LM               .ms                                     : T2LM/T2 Log Mean 
TVDSS              .M                                      :  
~Ascii
# ...
5217.302   12.250     74.226     0.013      0.334      0.000      0.000      0.015      0.000      0.000      0.002      0.057      0.001      37.316     48.579     12.832     0.034      0.029      2.070      4.582      466.870    0.185      0.168      0.199      0.217      7.665      853.352    2.327      873.212    1012.488   266.464    5089.128  
5217.454   12.250     73.925     0.012      0.342      0.000      0.000      0.015      0.000      0.000      0.001      0.048      0.002      37.752     48.213     12.831     0.033      0.023      1.413      4.798      354.865    0.186      0.165      0.200      0.224      7.558      825.884    2.328      851.734    1000.176   280.730    5089.269  
5217.607   12.250     73.931     0.012      0.347      0.000      0.000      0.015      0.000      0.000      0.001      0.042      0.002      37.828     47.832     12.787     0.030      0.024      1.014      4.903      262.316    0.193      0.161      0.200      0.224      7.426      811.727    2.331      840.291    993.117    331.651    5089.410  
5217.759   12.250     74.380     0.013      0.351      0.000      0.000      0.016      0.000      0.000      0.001      0.036      0.002      38.038     47.053     12.735     0.021      0.037      0.678      4.918      250.236    0.199      0.160      0.201      0.225      7.291      796.402    2.323      827.114    983.968    384.192    5089.551  
5217.911   12.250     75.074     0.013      0.353      0.000      0.000      0.017      0.000      0.000      0.001      0.034      0.002      38.112     46.658     12.747     0.014      0.042      0.790      4.824      268.514    0.202      0.162      0.202      0.233      7.234      791.668    2.313      822.359    979.830    401.738    5089.692  
5218.064   12.250     75.457     0.013      0.350      0.000      0.000      0.016      0.000      0.000      0.001      0.038      0.002      37.717     46.210     12.793     0.015      0.075      1.195      4.562      320.089    0.202      0.164      0.202      0.242      7.264      792.704    2.313      821.571    977.320    396.105    5089.833  
5218.216   12.250     75.660     0.013      0.345      0.000      0.000      0.016      0.000      0.000      0.000      0.043      0.002      37.066     46.241     12.788     0.017      0.095      1.510      4.413      347.545    0.199      0.164      0.199      0.243      7.306      793.137    2.319      819.565    971.531    385.159    5089.975  
5218.369   12.250     75.862     0.013      0.338      0.000      0.000      0.016      0.000      0.000      0.001      0.052      0.001      37.017     46.710     12.750     0.016      0.111      1.656      4.380      279.785    0.194      0.158      0.194      0.239      7.371      787.460    2.327      809.542    953.269    373.918    5090.116  
5218.521   12.250     76.098     0.013      0.337      0.000      0.000      0.016      0.000      0.000      0.003      0.052      0.001      37.187     46.911     12.764     0.016      0.133      1.588      4.388      194.530    0.188      0.150      0.188      0.234      7.497      796.641    2.335      815.738    955.898    349.450    5090.257  
5218.673   12.250     76.266     0.013      0.339      0.001      0.000      0.017      0.000      0.000      0.003      0.048      0.002      37.077     46.619     12.827     0.017      0.175      1.482      4.319      172.041    0.187      0.148      0.188      0.234      7.646      823.194    2.336      837.913    977.517    310.655    5090.398  
5218.826   12.250     76.318     0.014      0.343      0.001      3004.903   0.017      0.000      0.001      0.004      0.042      0.002      37.036     46.215     12.873     0.022      0.211      1.485      4.208      177.216    0.185      0.151      0.192      0.239      7.757      836.617    2.333      848.182    988.578    246.965    5090.539  
5218.978   12.250     76.221     0.012      0.352      0.001      26569.902  0.013      0.000      0.001      0.008      0.033      0.001      37.765     45.209     12.892     0.025      0.305      1.780      3.815      211.629    0.181      0.156      0.198      0.243      7.850      834.905    2.327      844.040    984.812    214.178    5090.680  
5219.131   12.250     75.993     0.013      0.357      0.000      30753.637  0.014      0.000      0.001      0.009      0.026      0.001      39.268     44.942     12.912     0.027      0.356      2.160      3.550      329.841    0.180      0.163      0.199      0.246      7.945      828.704    2.317      837.256    978.945    227.839    5090.821  
5219.283   12.250     75.719     0.014      0.355      0.000      21033.854  0.017      0.000      0.000      0.006      0.027      0.001      39.630     45.783     12.964     0.029      0.347      2.419      3.564      647.771    0.188      0.171      0.197      0.246      7.986      814.329    2.309      824.486    969.292    286.542    5090.962  
5219.435   12.250     75.541     0.016      0.351      0.000      0.000      0.020      0.000      0.000      0.004      0.030      0.001      39.894     47.005     12.999     0.033      0.303      2.474      3.759      925.804    0.196      0.176      0.199      0.249      7.983      800.858    2.304      813.612    961.992    344.811    5091.103  
5219.588   12.250     75.451     0.016      0.347      0.000      0.000      0.020      0.000      0.000      0.003      0.036      0.001      39.492     49.231     13.033     0.041      0.198      2.167      4.311      878.441    0.204      0.179      0.204      0.254      8.019      776.606    2.300      795.360    951.148    389.846    5091.244  
5219.740   12.250     75.358     0.016      0.343      0.000      0.000      0.020      0.001      0.000      0.003      0.041      0.001      37.996     50.398     13.050     0.047      0.148      1.794      4.672      918.835    0.208      0.182      0.208      0.254      8.073      756.833    2.298      780.893    942.957    417.850    5091.385  
5219.893   12.250     75.266     0.016      0.332      0.000      0.000      0.020      0.007      0.000      0.002      0.043      0.001      36.563     50.599     13.080     0.050      0.150      1.348      4.857      1365.236   0.209      0.187      0.209      0.253      8.111      722.918    2.296      756.217    928.976    446.503    5091.527  
5220.045   12.250     75.217     0.015      0.327      0.000      0.000      0.019      0.012      0.000      0.003      0.040      0.001      36.786     49.621     13.084     0.050      0.182      1.103      4.782      1955.932   0.207      0.188      0.207      0.251      8.099      699.067    2.298      738.766    918.918    464.130    5091.668  
5220.197   12.250     75.192     0.015      0.319      0.001      0.000      0.019      0.022      0.000      0.004      0.033      0.001      37.049     48.398     13.075     0.046      0.225      1.017      4.601      2404.255   0.201      0.186      0.201      0.245      8.014      676.096    2.302      721.870    909.076    476.964    5091.809  
5220.350   12.250     75.386     0.016      0.326      0.001      0.000      0.020      0.019      0.000      0.008      0.025      0.002      37.404     46.388     13.036     0.042      0.259      1.548      4.117      2784.512   0.198      0.184      0.198      0.242      7.928      639.737    2.301      694.905    893.201    491.500    5091.950  
5220.502   12.250     75.192     0.017      0.336      0.001      0.000      0.021      0.012      0.000      0.009      0.023      0.003      37.538     45.738     13.012     0.041      0.239      1.772      3.996      3307.354   0.197      0.184      0.197      0.243      7.873      618.920    2.299      679.124    883.631    499.177    5092.091  
5220.655   12.250     74.508     0.017      0.344      0.001      0.000      0.021      0.001      0.001      0.010      0.030      0.003      36.939     45.711     13.000     0.040      0.207      2.210      3.886      2276.456   0.197      0.182      0.197      0.236      7.830      586.702    2.308      653.042    866.374    463.690    5092.232  
