~Version
 VERS              .         2.0                           : CWLS LOG ASCII STANDARD - VERSION 2.0
 WRAP              .         NO                            : ONE LINE PER DEPTH STEP
 DLM               .         SPACE                         : DELIMITING CHARACTER(SPACE TAB OR COMMA)
~Well Information
#_______________________________________________________________________________
#
#PARAMETER_NAME    .UNIT     VALUE                         : DESCRIPTION
#_______________________________________________________________________________
STRT               .M        4938.217                      : First reference value
STOP               .M        5227.625                      : Last reference value
STEP               .M        0.152                         : Step increment
NULL               .         -9999                         : Missing value
COMP               .         PETROBRAS                     : Company
WELL               .         7-SPH-17-SPS                  : Well name
FLD                .         SAPINHOA                      : Field
LOC                .                                       : Location
CNTY               .                                       : County
STAT               .         86316027948                   : State
CTRY               .         Brasil                        : Country
SRVC               .                                       : Service Company
DATE               .                                       : Date
API                .                                       : API number
APD                .M        25                            : Elevation of Depth Reference (LMF) Above Permanent Datum
BHS                .         OPEN                          : Borehole Status (Open or Cased Hole)
BHT                .degF     144                           : Bottom Hole Temperature
BLI                .M        5222.59                       : Bottom Log Interval
BS                 .in       12.25                         : Bit Size
CBDR               .M        5017                          : Casing Bottom (Driller)
CBLO               .M        5020.6                        : Casing Bottom (Logger)
CSIZ               .in       14                            : Casing Outer Diameter
CWEI               .lbm/ft   114                           : Casing Weight
DCS                .         04/01/2015                    : Date Circulation Stopped
DFD                .lb/gal   9.6                           : Drilling Fluid Density
DFT                .         BR-MUL                        : Drilling Fluid Type
DLAB               .         06/01/2015                    : Date Logging on Bottom
EDF                .M        25                            : Elevation of Drill Floor
EGL                .M        -2131                         : Elevation of Ground Level
EKB                .M        25                            : Elevation of Kelly Bushing
EPD                .M        0                             : Elevation of Permanent Datum (PDAT) above Mean Sea Level
LMF                .         MR                            : Logging Measured From (Name of Logging Elevation Reference)
LUL                .         BRMA                          : Logging Unit Location
LUN                .         7806                          : Logging Unit Number
LONG               .         -43_09_42,450                 : Longitude
MCST               .degF     -999.25                       : Mudcake Sample Temperature
MFST               .degF     -999.25                       : Mud Filtrate Sample Temperature
MRT                .degF     144                           : Maximum Recorded Temperature
MST                .degF     -999.25                       : Mud Sample Temperature
PDAT               .         NM                            : Permanent Datum
PRODUCER-CODE      .         440                           : 
PRODUCER-NAME      .         Schlumberger                  : 
RMB                .ohm.m    -999.25                       : Resistivity of Mud at Bottom Hole Temperature
RMCS               .ohm.m    -999.25                       : Resistivity of Mud Cake Sample
RMFS               .ohm.m    -999.25                       : Resistivity of Mud Filtrate Sample
RMS                .ohm.m    -999.25                       : Resistivity of Mud Sample
RUN                .         02                            : Run Number
TCS                .h        17_30                         : Time Circulation Stopped
TDD                .M        5221                          : Total Depth (Driller)
TDL                .M        5225                          : Logger Total Depth
TLAB               .h        09_25                         : Time Logging on Bottom
TLI                .M        5020.6                        : Top Log Interval
X                  .M        684517.00000000               : 
Y                  .M        7161201.00000000              : 
~Parameter Information Block
#_______________________________________________________________________________
#
#PARAMETER_NAME    .UNIT     VALUE                         : DESCRIPTION
#_______________________________________________________________________________
SET                .         BASE                          : 
TLFamily_BS        .         Bit Size                      : 
TLFamily_DT        .         Compressional Slowness        : 
TLFamily_DWAL      .         Aluminum Weight Fraction      : 
TLFamily_DWCA      .         Calcium Weight Fraction       : 
TLFamily_DWFE      .         Iron Weight Fraction          : 
TLFamily_DWGD      .         Gadolinium Weight Fraction    : 
TLFamily_DWS       .         Sulfur Weight Fraction        : 
TLFamily_DWSI      .         Silicon Weight Fraction       : 
TLFamily_DWTI      .         Titanium Weight Fraction      : 
TLFamily_GR        .         Gamma Ray                     : 
TLFamily_GRt       .         Gamma Ray                     : 
TLFamily_HCAL      .         Caliper                       : 
TLFamily_HDRA      .         Bulk Density Correction       : 
TLFamily_HFK       .         Potassium Concentration       : 
TLFamily_HTHO      .         Thorium Concentration         : 
TLFamily_HURA      .         Uranium Concentration         : 
TLFamily_KSDR      .         NMR Permeability              : 
TLFamily_KTIM      .         NMR Permeability              : 
TLFamily_MD        .         Measured Depth                : 
TLFamily_NMRE_Final .         NMR Bound Fluid Volume Fraction: 
TLFamily_NMRFL_Final .         NMR Free Fluids               : 
TLFamily_NMRT_Final .         NMR Porosity                  : 
TLFamily_NPHI      .         Neutron Porosity              : 
TLFamily_PE        .         Photoelectric Factor          : 
TLFamily_RD        .         Resistivity - Deep            : 
TLFamily_RHOB      .         Bulk Density                  : 
TLFamily_RM        .         Resistivity - Medium          : 
TLFamily_RS        .         Resistivity - Shallow         : 
TLFamily_T2LM      .         NMR T2 Logarithmic Mean       : 
TLFamily_TVDSS     .         True Vertical Depth Sub Sea   : 
~Curve Information
#_______________________________________________________________________________
#
#LOGNAME           .UNIT     LOG_ID                        : DESCRIPTION
#_______________________________________________________________________________
DEPTH              .M                                      :  
BS                 .in                                     : Bit Size 
DT                 .us/ft                                  : Delta-T Compressional 
DWAL               .kg/kg                                  : Dry Weight Fraction Pseudo Aluminum (SpectroLith WALK2 Model) 
DWCA               .kg/kg                                  : Dry Weight Fraction Calcium (SpectroLith WALK2 Model) 
DWFE               .kg/kg                                  : Dry Weight Fraction Iron + 0.14 Aluminum (SpectroLith WALK2 Model) 
DWGD               .ppm                                    : Dry Weight Fraction Gadolinium (SpectroLith WALK2 Model) 
DWS                .kg/kg                                  : Dry Weight Fraction Sulfur (SpectroLith WALK2 Model) 
DWSI               .kg/kg                                  : Dry Weight Fraction Silicon (SpectroLith WALK2 Model) 
DWTI               .kg/kg                                  : Dry Weight Fraction Titanium (SpectroLith WALK2 Model) 
GR                 .gAPI                                   : Gamma Ray 
GRt                .gAPI                                   : HNGS Standard Gamma-Ray 
HCAL               .in                                     : HRCC Caliper Calibrated 
HDRA               .g/cm3                                  : Density Standoff Correction 
HFK                .%                                      : HNGS Formation Potassium Concentration 
HTHO               .ppm                                    : HNGS Formation Thorium Concentration 
HURA               .ppm                                    : HNGS Formation Uranium Concentration 
KSDR               .mD                                     : SDR Permeability 
KTIM               .mD                                     : Timur/Coates Permeability 
NMRE_Final         .m3/m3                                  : CMR Porosity with T2 values greater than 3 ms 
NMRFL_Final        .unitless                               : CMR Free Fluid 
NMRT_Final         .frac                                   : Total CMR Porosity 
NPHI               .frac                                   : Enhanced Thermal Neutron Porosity in Selected Lithology 
PE                 .b/e                                    : Standard Resolution Formation Photoelectric Factor 
RD                 .ohm.m                                  : Array Induction Two Foot Resistivity A90 
RHOB               .g/cm3                                  : Standard Resolution Formation Density 
RM                 .ohm.m                                  : Array Induction Two Foot Resistivity A30 
RS                 .ohm.m                                  : Array Induction Two Foot Resistivity A10 
T2LM               .ms                                     : T2 Logarithmic Mean 
TVDSS              .M                                      :  
~Ascii
# ...
5182.057   12.250     65.856     0.005      0.145      0.002      0.000      0.000      0.289      0.000      19.179     21.278     12.290     -0.000     0.163      1.441      1.818      31.817     21.431     0.105      0.088      0.112      0.155      3.402      3.380      2.432      4.967      8.796      224.052    5156.771  
5182.210   12.250     66.847     0.006      0.148      0.002      0.000      0.000      0.285      0.000      18.897     21.263     12.291     0.010      0.180      1.531      1.738      40.838     28.259     0.115      0.095      0.121      0.150      3.407      3.382      2.407      5.015      8.285      217.479    5156.924  
5182.362   12.250     66.920     0.007      0.144      0.003      0.000      0.000      0.289      0.000      19.176     21.515     12.280     0.014      0.197      1.547      1.748      43.453     31.148     0.122      0.098      0.126      0.207      3.389      3.414      2.381      5.072      7.956      207.121    5157.076  
5182.514   12.250     67.206     0.010      0.147      0.005      0.000      0.003      0.279      0.000      20.922     22.655     12.270     0.013      0.202      1.598      1.891      40.632     13.749     0.166      0.093      0.168      0.252      3.387      3.441      2.376      5.186      8.039      114.991    5157.228  
5182.667   12.250     67.566     0.009      0.148      0.005      0.000      0.006      0.275      0.000      22.518     23.526     12.333     0.005      0.197      1.645      1.993      50.854     11.273     0.211      0.090      0.211      0.238      3.434      3.389      2.390      5.252      8.218      81.098     5157.381  
5182.819   12.250     67.790     0.013      0.154      0.006      0.000      0.002      0.265      0.000      23.871     24.272     12.323     0.003      0.192      1.691      2.089      75.277     13.672     0.238      0.094      0.238      0.208      3.490      3.263      2.411      5.105      7.754      76.326     5157.533  
5182.972   12.250     67.601     0.012      0.145      0.006      0.000      0.004      0.276      0.000      22.726     23.602     12.312     0.005      0.195      1.552      2.020      114.151    20.284     0.240      0.105      0.240      0.209      3.615      3.059      2.407      4.792      6.382      93.037     5157.686  
5183.124   12.250     67.352     0.013      0.146      0.006      0.000      0.001      0.274      0.000      21.209     22.819     12.312     0.011      0.179      1.347      2.057      150.635    31.775     0.214      0.118      0.216      0.194      3.784      2.928      2.407      4.466      5.614      131.861    5157.838  
5183.276   12.250     65.284     0.012      0.147      0.006      0.003      0.000      0.276      0.000      18.844     21.994     12.301     0.018      0.162      1.265      1.989      159.932    62.253     0.169      0.122      0.172      0.152      3.910      2.757      2.415      4.156      4.615      217.727    5157.990  
5183.429   12.250     64.580     0.009      0.166      0.004      0.812      0.000      0.259      0.000      19.166     22.329     12.291     0.022      0.130      1.317      2.083      114.363    57.890     0.148      0.116      0.151      0.165      3.842      2.768      2.446      3.926      3.949      233.665    5158.143  
5183.581   12.250     64.361     0.006      0.174      0.003      2.407      0.000      0.254      0.000      20.243     23.246     12.291     0.015      0.129      1.402      2.169      106.192    52.952     0.140      0.111      0.143      0.182      3.601      2.749      2.448      3.485      2.997      252.926    5158.295  
5183.734   12.250     63.362     0.006      0.183      0.003      2.768      0.000      0.244      0.000      22.515     24.503     12.301     0.005      0.125      1.421      2.315      197.622    84.524     0.150      0.121      0.150      0.162      3.397      2.636      2.446      3.029      2.369      319.418    5158.448  
5183.886   12.250     62.315     0.010      0.180      0.005      1.582      0.000      0.241      0.000      24.177     26.369     12.333     -0.002     0.131      1.400      2.521      910.610    356.638    0.192      0.161      0.192      0.160      3.319      2.620      2.441      2.635      2.096      407.410    5158.600  
5184.038   12.250     59.555     0.012      0.182      0.006      0.001      0.000      0.234      0.000      26.008     29.254     12.419     -0.001     0.138      1.553      2.802      2084.238   1063.972   0.241      0.210      0.249      0.170      3.372      3.012      2.456      2.711      2.133      373.720    5158.752  
5184.191   12.250     60.813     0.011      0.195      0.008      0.000      0.009      0.214      0.000      28.358     33.329     12.408     0.003      0.133      1.839      3.223      2854.509   1952.601   0.261      0.234      0.273      0.175      3.370      4.147      2.467      2.954      2.271      358.150    5158.905  
5184.343   12.250     62.918     0.014      0.221      0.010      0.000      0.015      0.174      0.000      31.859     37.088     12.419     0.001      0.152      2.059      3.604      2583.315   2146.204   0.258      0.233      0.270      0.193      3.349      6.260      2.453      3.102      2.266      349.527    5159.057  
5184.496   12.250     64.522     0.015      0.259      0.011      0.000      0.023      0.123      0.000      37.207     41.581     12.355     -0.000     0.179      2.420      3.958      1817.508   1675.162   0.240      0.216      0.249      0.184      3.314      9.547      2.434      3.082      2.108      345.395    5159.210  
5184.648   12.250     66.458     0.013      0.287      0.010      0.000      0.014      0.100      0.000      39.726     44.504     12.323     -0.003     0.198      2.474      4.255      1246.202   1340.344   0.219      0.197      0.224      0.208      3.505      15.796     2.393      2.787      1.928      350.513    5159.362  
5184.800   12.250     71.968     0.006      0.307      0.004      0.000      0.007      0.094      0.000      42.204     45.367     12.344     -0.004     0.226      2.726      4.194      1063.593   1342.920   0.220      0.200      0.228      0.238      3.934      12.825     2.339      2.684      1.682      313.135    5159.514  
5184.953   12.250     73.158     0.000      0.328      0.000      0.000      0.000      0.085      0.000      39.476     44.084     12.334     -0.003     0.239      2.628      4.056      967.034    1206.684   0.223      0.202      0.233      0.258      4.478      7.532      2.278      1.758      1.439      285.595    5159.667  
5185.105   12.250     73.002     0.000      0.347      0.000      0.000      0.000      0.062      0.000      40.631     42.178     12.355     -0.005     0.259      2.430      3.821      918.684    934.316    0.225      0.200      0.237      0.314      4.833      3.855      2.252      1.215      1.179      270.943    5159.819  
5185.258   12.250     74.521     0.004      0.344      0.002      0.000      0.000      0.060      0.000      38.197     41.665     12.333     -0.005     0.247      2.267      3.828      876.221    669.989    0.226      0.194      0.235      0.298      4.915      3.515      2.270      1.155      1.219      268.701    5159.971  
5185.410   12.250     64.865     0.010      0.330      0.007      0.000      0.011      0.058      0.000      39.285     41.752     12.333     -0.008     0.226      2.552      3.798      789.252    534.058    0.220      0.185      0.225      0.254      4.886      4.360      2.311      1.402      1.408      276.416    5160.124  
5185.562   12.250     68.570     0.013      0.314      0.009      0.000      0.010      0.072      0.000      37.142     41.396     12.291     -0.005     0.228      2.717      3.687      736.133    728.141    0.208      0.182      0.213      0.194      4.894      4.661      2.352      1.548      1.436      300.037    5160.276  
5185.715   12.250     73.090     0.015      0.323      0.011      0.000      0.013      0.055      0.000      40.088     40.766     12.311     -0.004     0.219      2.856      3.586      695.297    1024.323   0.199      0.180      0.203      0.262      4.986      3.504      2.380      1.722      1.570      321.207    5160.429  
