~Version
 VERS              .         2.0                           : CWLS LOG ASCII STANDARD - VERSION 2.0
 WRAP              .         NO                            : ONE LINE PER DEPTH STEP
 DLM               .         SPACE                         : DELIMITING CHARACTER(SPACE TAB OR COMMA)
~Well Information
#_______________________________________________________________________________
#
#PARAMETER_NAME    .UNIT     VALUE                         : DESCRIPTION
#_______________________________________________________________________________
STRT               .M        2228.000                      : First reference value
STOP               .M        5446.688                      : Last reference value
STEP               .M        0.152                         : Step increment
NULL               .         -9999                         : Missing value
COMP               .         Petrobras                     : Company
WELL               .         8-SPH-13-SPS                  : Well name
FLD                .         Sapinhoa                      : Field
LOC                .                                       : Location
CNTY               .                                       : County
STAT               .         SAO PAULO                     : State
CTRY               .         BRASIL                        : Country
SRVC               .                                       : Service Company
DATE               .                                       : Date
API                .         863160035500                  : API number
APD                .M        24                            : Above Permanent Datum
BHT                .degF     120                           : Bottom Hole Temperature
BLI                .M        5180.5                        : Bottom Log Interval
BS                 .in       12.25x14.75                   : Bit Size
DCS                .         07/04/2014                    : Date Ciculation Stopped
DFD                .lbm/gal  10.1                          : Drilling Fluid Density
DFT                .         BR-MUL                        : Drilling Fluid Type
DLAB               .         08/04/2014                    : Date Logger At Bottom
EDF                .M        24                            : Elevation of Derreck Floor
EGL                .M        -2119                         : Elevation of Ground Level
EKB                .M        -999.25                       : ELEVATION OF KELLY BUSHING
EPD                .M        0                             : Elevation Of Permanent Datum
GDAT               .         SIRGAS2000                    : Geodetic Datum
LMF                .         MR                            : Log Measured From
LUL                .         MCE                           : LOGGING UNIT LOCATION
LUN                .         -999.25                       : LOGGING UNIT NUMBER
LATI               .         -25_42_39.196                 : Latitude
LONG               .         -43_09_15.905                 : Longitude
MCST               .degF     -999.25                       : Mud Cake Sample Temperature
MFST               .degF     -999.25                       : Mud Filtrate Sample Temperature
MRT                .degF     120                           : Maximum Recorded Temperature
MST                .degF     -999.25                       : Mud Sample Temperature
ORIGINALWELLNAME   .         8SPH 0013  SPS                : 
PDAT               .         NM                            : Permanent Datum
PRODUCER-CODE      .         15                            : 
PRODUCER-NAME      .         INTEQ                         : 
RMB                .ohm.m    -999.25                       : RESISTIVITY OF MUD - BHT
RMCS               .ohm.m    -999.25                       : Resistivity Of Mud Cake Sample
RMFS               .ohm.m    -999.25                       : Mud Filtrate Sample Resistivity
RMS                .ohm.m    -999.25                       : Mud Sample Resistivity
RUN                .         1                             : Run
TCS                .h        15_00                         : Time Ciculation Stopped
TDD                .M        5184                          : Total Depht - Driller
TDL                .M        5184                          : Total Depht - Logger
TLAB               .h        11_00                         : Time Logger At Bottom
TLI                .M        3543                          : Top Log Interval
X                  .M        685128.30900000               : X COORDINATE N
Y                  .M        7155027.01100000              : Y COORDINATE E
~Parameter Information Block
#_______________________________________________________________________________
#
#PARAMETER_NAME    .UNIT     VALUE                         : DESCRIPTION
#_______________________________________________________________________________
SET                .         BASE                          : 
TLFamily_DT        .         Compressional Slowness        : 
TLFamily_GR        .         Gamma Ray                     : 
TLFamily_HCAL      .         Caliper                       : 
TLFamily_MD        .         Measured Depth                : 
TLFamily_NMRE_Final .         NMR Bound Fluid Volume Fraction: 
TLFamily_NMRFL_Final .         NMR Free Fluids               : 
TLFamily_NMRT_Final .         NMR Porosity                  : 
TLFamily_NPHI      .         Neutron Porosity              : 
TLFamily_RD        .         Resistivity - Deep            : 
TLFamily_RHOB      .         Bulk Density                  : 
TLFamily_RM        .         Resistivity - Medium          : 
TLFamily_RS        .         Resistivity - Shallow         : 
~Curve Information
#_______________________________________________________________________________
#
#LOGNAME           .UNIT     LOG_ID                        : DESCRIPTION
#_______________________________________________________________________________
DEPTH              .M                                      :  
DT                 .us/ft                                  : SONICO COMPRESSIONAL (COMPOSICAO DE CURVAS CABO E/OU LWD) 
GR                 .gAPI                                   : RAIOS GAMA (COMPOSICAO DE CURVAS CABO E/OU LWD) 
HCAL               .in                                     : CALIPER (COMPOSICAO DE CURVAS CABO E/OU LWD) 
NMRE_Final         .m3/m3                                  : 03/02 - MRIL (HALLIBURTON) - MRIL EFFECTIVE POROSITY 
NMRFL_Final        .unitless                               : 03/02 - MRIL (HALLIBURTON) - FREE FLUID INDEX T2 
NMRT_Final         .frac                                   : 03/02 - MRIL (HALLIBURTON) - MRIAN MRIL TOTAL POROSITY 
NPHI               .frac                                   : POROSIDADE NEUTRONICA (COMPOSICAO DE CURVAS CABO E/OU LWD) 
RD                 .ohm.m                                  : RESISTIVIDADE PROFUNDA (COMPOSICAO DE CURVAS CABO E/OU LWD) 
RHOB               .g/cm3                                  : DENSIDADE (COMPOSICAO DE CURVAS CABO E/OU LWD ) 
RM                 .ohm.m                                  : RESISTIVIDADE MEDIA (COMPOSICAO DE CURVAS CABO E/OU LWD) 
RS                 .ohm.m                                  : RESISTIVIDADE RASA (COMPOSICAO DE CURVAS CABO E/OU LWD) 
~Ascii
# ...
3678.238   71.299     12.423     14.869     -9999.000  -9999.000  -9999.000  -0.012     1197.297   2.098      1354.229   1354.229  
3678.391   71.391     11.687     14.874     -9999.000  -9999.000  -9999.000  -0.011     1143.563   2.096      1797.145   1797.145  
3678.543   71.440     10.747     14.880     -9999.000  -9999.000  -9999.000  -0.011     1049.102   2.087      1355.651   1355.651  
3678.696   70.976     10.851     14.880     -9999.000  -9999.000  -9999.000  -0.012     925.913    2.081      2142.023   2142.023  
3678.848   70.048     10.956     14.877     -9999.000  -9999.000  -9999.000  -0.013     926.516    2.078      1544.390   1544.390  
3679.000   69.232     9.096      14.873     -9999.000  -9999.000  -9999.000  -0.014     1117.349   2.073      1353.799   1353.799  
3679.153   68.596     7.324      14.873     -9999.000  -9999.000  -9999.000  -0.017     1307.208   2.068      1207.600   1207.600  
3679.305   68.123     6.383      14.874     -9999.000  -9999.000  -9999.000  -0.019     1554.435   2.062      1546.225   1546.225  
3679.458   67.835     6.662      14.875     -9999.000  -9999.000  -9999.000  -0.022     1665.743   2.055      1795.774   1795.774  
3679.610   67.820     6.401      14.875     -9999.000  -9999.000  -9999.000  -0.023     1786.815   2.051      1543.740   1543.740  
3679.762   68.095     6.004      14.875     -9999.000  -9999.000  -9999.000  -0.025     1842.150   2.053      1355.451   1355.451  
3679.915   68.532     5.861      14.877     -9999.000  -9999.000  -9999.000  -0.025     1888.743   2.056      1543.302   1543.302  
3680.067   68.837     5.416      14.877     -9999.000  -9999.000  -9999.000  -0.026     1926.789   2.056      1358.088   1358.088  
3680.220   68.947     5.029      14.879     -9999.000  -9999.000  -9999.000  -0.027     1877.708   2.055      1794.890   1794.890  
3680.372   68.707     4.987      14.878     -9999.000  -9999.000  -9999.000  -0.028     1641.633   2.054      1543.091   1543.091  
3680.524   68.460     5.366      14.877     -9999.000  -9999.000  -9999.000  -0.028     1469.457   2.053      1358.575   1358.575  
3680.677   68.541     6.037      14.876     -9999.000  -9999.000  -9999.000  -0.029     1338.758   2.053      1797.189   1797.189  
3680.829   68.617     6.098      14.876     -9999.000  -9999.000  -9999.000  -0.029     1360.840   2.051      1806.186   1806.186  
3680.982   68.374     5.537      14.876     -9999.000  -9999.000  -9999.000  -0.030     1486.209   2.045      2628.773   2628.773  
3681.134   68.128     5.347      14.877     -9999.000  -9999.000  -9999.000  -0.030     1591.701   2.039      1356.692   1356.692  
3681.286   68.251     5.445      14.878     -9999.000  -9999.000  -9999.000  -0.031     1672.506   2.036      1548.650   1548.650  
3681.439   68.529     5.348      14.878     -9999.000  -9999.000  -9999.000  -0.031     1665.692   2.037      1797.189   1797.189  
3681.591   68.657     4.910      14.877     -9999.000  -9999.000  -9999.000  -0.031     1605.601   2.041      1788.901   1788.901  
3681.744   68.472     5.033      14.875     -9999.000  -9999.000  -9999.000  -0.031     1564.334   2.046      1211.367   1211.367  
3681.896   68.364     6.135      14.876     -9999.000  -9999.000  -9999.000  -0.031     1543.717   2.045      1549.003   1549.003  
3682.048   68.529     6.283      14.875     -9999.000  -9999.000  -9999.000  -0.031     1525.205   2.041      1797.189   1797.189  
3682.201   68.937     5.516      14.876     -9999.000  -9999.000  -9999.000  -0.031     1454.545   2.045      1797.189   1797.189  
3682.353   69.112     5.218      14.879     -9999.000  -9999.000  -9999.000  -0.031     1394.684   2.052      1789.472   1789.472  
3682.506   68.979     4.984      14.880     -9999.000  -9999.000  -9999.000  -0.031     1368.777   2.055      1354.229   1354.229  
3682.658   68.701     5.024      14.879     -9999.000  -9999.000  -9999.000  -0.031     1405.894   2.055      1363.011   1363.011  
3682.810   68.565     5.945      14.879     -9999.000  -9999.000  -9999.000  -0.031     1470.073   2.047      1797.189   1797.189  
3682.963   68.617     6.159      14.880     -9999.000  -9999.000  -9999.000  -0.031     1490.280   2.040      1797.189   1797.189  
3683.115   68.857     6.088      14.879     -9999.000  -9999.000  -9999.000  -0.032     1507.797   2.037      1804.987   1804.987  
3683.268   68.801     5.435      14.877     -9999.000  -9999.000  -9999.000  -0.032     1534.861   2.036      2129.620   2129.620  
3683.420   68.704     5.247      14.877     -9999.000  -9999.000  -9999.000  -0.031     1526.270   2.036      1540.457   1540.457  
3683.572   68.810     5.883      14.877     -9999.000  -9999.000  -9999.000  -0.031     1433.624   2.036      1364.696   1364.696  
3683.725   68.707     6.172      14.877     -9999.000  -9999.000  -9999.000  -0.031     1345.714   2.035      1797.189   1797.189  
3683.877   68.457     6.140      14.877     -9999.000  -9999.000  -9999.000  -0.031     1275.274   2.041      1790.646   1790.646  
3684.030   68.331     6.602      14.878     -9999.000  -9999.000  -9999.000  -0.030     1292.279   2.050      1551.530   1551.530  
3684.182   68.335     7.525      14.878     -9999.000  -9999.000  -9999.000  -0.030     1360.727   2.053      1790.444   1790.444  
3684.334   68.344     7.171      14.877     -9999.000  -9999.000  -9999.000  -0.030     1411.396   2.052      1551.706   1551.706  
3684.487   68.424     6.286      14.878     -9999.000  -9999.000  -9999.000  -0.029     1454.846   2.058      1797.189   1797.189  
3684.639   68.625     6.214      14.877     -9999.000  -9999.000  -9999.000  -0.029     1462.726   2.064      1797.189   1797.189  
3684.792   68.957     6.315      14.877     -9999.000  -9999.000  -9999.000  -0.029     1461.739   2.062      1797.189   1797.189  
3684.944   69.042     6.332      14.879     -9999.000  -9999.000  -9999.000  -0.029     1468.548   2.057      1783.840   1783.840  
3685.096   69.170     5.834      14.878     -9999.000  -9999.000  -9999.000  -0.030     1496.918   2.057      1378.327   1378.327  
3685.249   69.229     5.540      14.880     -9999.000  -9999.000  -9999.000  -0.030     1513.282   2.055      2123.928   2123.928  
3685.401   69.189     5.860      14.879     -9999.000  -9999.000  -9999.000  -0.029     1503.582   2.049      1544.886   1544.886  
3685.554   69.015     5.950      14.874     -9999.000  -9999.000  -9999.000  -0.028     1483.181   2.046      1563.820   1563.820  
3685.706   68.570     5.811      14.874     -9999.000  -9999.000  -9999.000  -0.027     1469.185   2.048      2131.696   2131.696  
3685.858   68.213     5.519      14.872     -9999.000  -9999.000  -9999.000  -0.026     1487.038   2.049      1797.189   1797.189  
3686.011   68.051     5.910      14.871     -9999.000  -9999.000  -9999.000  -0.024     1542.407   2.053      1809.631   1809.631  
3686.163   68.010     6.649      14.871     -9999.000  -9999.000  -9999.000  -0.022     1570.725   2.057      2143.342   2143.342  
3686.316   68.092     6.846      14.870     -9999.000  -9999.000  -9999.000  -0.020     1586.845   2.057      2130.657   2130.657  
3686.468   68.346     6.083      14.870     -9999.000  -9999.000  -9999.000  -0.020     1579.737   2.058      1780.779   1780.779  
3686.620   68.773     6.115      14.869     -9999.000  -9999.000  -9999.000  -0.020     1561.390   2.062      1354.229   1354.229  
3686.773   69.183     6.583      14.868     -9999.000  -9999.000  -9999.000  -0.021     1541.494   2.065      1361.426   1361.426  
3686.925   69.156     6.246      14.869     -9999.000  -9999.000  -9999.000  -0.023     1533.223   2.063      1544.886   1544.886  
3687.078   68.725     5.194      14.870     -9999.000  -9999.000  -9999.000  -0.023     1510.360   2.061      1568.914   1568.914  
3687.230   68.346     4.874      14.870     -9999.000  -9999.000  -9999.000  -0.023     1517.958   2.060      2129.340   2129.340  
3687.382   68.126     5.247      14.870     -9999.000  -9999.000  -9999.000  -0.023     1601.402   2.060      1786.478   1786.478  
