~Version
 VERS              .         2.0                           : CWLS LOG ASCII STANDARD - VERSION 2.0
 WRAP              .         NO                            : ONE LINE PER DEPTH STEP
 DLM               .         SPACE                         : DELIMITING CHARACTER(SPACE TAB OR COMMA)
~Well Information
#_______________________________________________________________________________
#
#PARAMETER_NAME    .UNIT     VALUE                         : DESCRIPTION
#_______________________________________________________________________________
STRT               .M        5027.447                      : First reference value
STOP               .M        5499.430                      : Last reference value
STEP               .M        0.152                         : Step increment
NULL               .         -9999                         : Missing value
COMP               .         PETROBRAS                     : Company
WELL               .         8-SPH-10-SPS                  : Well name
FLD                .         SAPINHOA                      : Field
LOC                .                                       : Location
PROV               .                                       : Province
SRVC               .                                       : Service Company
DATE               .         2021-09-13 11_18_58           : Date
UWI                .         8-SPH-10-SPS                  : Unique Well ID
APD                .M        24                            : Above Permanent Datum
API                .                                       : API NUMBER
BHT                .degF     153                           : Bottom Hole Temperature
BLI                .M        5494.8                        : Bottom Log Interval
BS                 .in       8.5                           : Bit Size
CTRY               .         BRASIL                        : Nation
DCS                .         15/06/2015                    : Date Ciculation Stopped
DFD                .lb/gal   9.7                           : Drilling Fluid Density
DFT                .         CATIONICO FLEX DRILL (BASE AGUA): Drilling Fluid Type
DLAB               .         18/06/2015                    : Date Logger At Bottom
EDF                .M        24                            : Elevation of Derreck Floor
EGL                .M        -2125                         : Elevation of Ground Level
EKB                .M        -999.25                       : Elevation of Kelly Bushing
EPD                .M        0                             : Elevation Of Permanent Datum
LMF                .         MR                            : Log Measured From
LONG               .         -43_10_14,760                 : Longitude
MCST               .degF     67                            : Mud Cake Sample Temperature
MFST               .degF     67                            : Mud Filtrate Sample Temperature
MRT                .degF     153                           : Maximum Recorded Temperature
MST                .degF     67                            : Mud Sample Temperature
ORIGINALWELLNAME   .         P08                           : 
PDAT               .         NM                            : Permanent Datum
PRODUCER-CODE      .         150                           : 
PRODUCER-NAME      .         ATLAS                         : 
RMB                .ohm.m    -999.25                       : Resistivity Of Mud - BHT
RMCS               .ohm.m    0.078                         : Resistivity Of Mud Cake Sample
RMFS               .ohm.m    0.064                         : Mud Filtrate Sample Resistivity
RMS                .ohm.m    0.071                         : Mud Sample Resistivity
RUN                .         3                             : Run Number
STAT               .         SAO PAULO                     : State
TCS                .h        22_00                         : Time Ciculation Stopped
TDD                .M        5496                          : Total Depht - Driller
TDL                .M        5495.5                        : Total Depht - Logger
TLAB               .h        10_45                         : Time Logger At Bottom
TLI                .M        5114                          : Top Log Interval
X                  .M        683623.00000000               : 
Y                  .M        7161727.00000000              : 
~Parameter Information Block
#_______________________________________________________________________________
#
#PARAMETER_NAME    .UNIT     VALUE                         : DESCRIPTION
#_______________________________________________________________________________
SET                .         BASE                          : 
TLFamily_BS        .         Bit Size                      : 
TLFamily_DT        .         Compressional Slowness        : 
TLFamily_DWAL      .         Aluminum Weight Fraction      : 
TLFamily_DWCA      .         Calcium Weight Fraction       : 
TLFamily_DWFE      .         Iron Weight Fraction          : 
TLFamily_DWGD      .         Gadolinium Weight Fraction    : 
TLFamily_DWK       .         Potassium Weight Fraction     : 
TLFamily_DWMG      .         Magnesium Weight Fraction     : 
TLFamily_DWMN      .         Manganese Weight Fraction     : 
TLFamily_DWS       .         Sulfur Weight Fraction        : 
TLFamily_DWSI      .         Silicon Weight Fraction       : 
TLFamily_DWTI      .         Titanium Weight Fraction      : 
TLFamily_GR        .         Gamma Ray                     : 
TLFamily_GRt       .         Gamma Ray                     : 
TLFamily_HCAL      .         Caliper                       : 
TLFamily_HDRA      .         Bulk Density Correction       : 
TLFamily_HFK       .         Potassium Concentration       : 
TLFamily_HTHO      .         Thorium Concentration         : 
TLFamily_HURA      .         Uranium Concentration         : 
TLFamily_MD        .         Measured Depth                : 
TLFamily_MPERM     .         NMR Permeability              : 
TLFamily_NMRE_Final .         NMR Bound Fluid Volume Fraction: 
TLFamily_NMRFL_Final .         NMR Free Fluids               : 
TLFamily_NMRT_Final .         NMR Porosity                  : 
TLFamily_NPHI      .         Neutron Porosity              : 
TLFamily_PE        .         Photoelectric Factor          : 
TLFamily_RD        .         Resistivity - Deep            : 
TLFamily_RHOB      .         Bulk Density                  : 
TLFamily_RS        .         Resistivity - Shallow         : 
TLFamily_TVDSS     .         True Vertical Depth Sub Sea   : 
~Curve Information
#_______________________________________________________________________________
#
#LOGNAME           .UNIT     LOG_ID                        : DESCRIPTION
#_______________________________________________________________________________
DEPTH              .M                                      :  
BS                 .in                                     : Bit size 
DT                 .us/ft                                  : Slowness over 24-inch interval 
DWAL               .kg/kg                                  : Weight fraction of aluminum derived from thorium in dry rock 
DWCA               .kg/kg                                  : Weight fraction of calcium in dry rock 
DWFE               .kg/kg                                  : Weight fraction of iron in dry rock 
DWGD               .ppm                                    : Weight fraction of gadolinium in dry rock 
DWK                .kg/kg                                  : Weight fraction of potassium in dry rock 
DWMG               .kg/kg                                  : Weight fraction of magnesium in dry rock 
DWMN               .kg/kg                                  : Weight fraction of manganese in dry rock 
DWS                .kg/kg                                  : Weight fraction of sulfur in dry rock 
DWSI               .kg/kg                                  : Weight fraction of silicon in dry rock 
DWTI               .kg/kg                                  : Weight fraction of titanium in dry rock 
GR                 .gAPI                                   : Gamma ray 
GRt                .gAPI                                   : Gamma ray from 1329 spectrum 
HCAL               .in                                     : Caliper 
HDRA               .g/cm3                                  : Density correction 
HFK                .%                                      : Potassium content 
HTHO               .ppm                                    : Thorium concentration 
HURA               .ppm                                    : Uranium content 
MPERM              .mD                                     : MR permeability 
NMRE_Final         .m3/m3                                  : MR effective porosity 
NMRFL_Final        .unitless                               : MR moveable fluids 
NMRT_Final         .frac                                   : MR total porosity 
NPHI               .frac                                   : Borehole size corrected compensated neutron porosity 
PE                 .b/e                                    : Photo electric cross-section 
RD                 .ohm.m                                  : Deep resistivity 
RHOB               .g/cm3                                  : Formation bulk density 
RS                 .ohm.m                                  : Shallow resistivity 
TVDSS              .M                                      :  
~Ascii
# ...
5385.587   8.500      65.012     0.011      0.143      0.003      1.830      0.003      0.014      0.001      0.001      0.263      0.002      56.770     56.983     8.658      -0.009     0.430      2.437      4.344      0.038      0.052      0.022      0.056      0.093      3.446      28.706     2.595      50.409     5361.238  
5385.740   8.500      66.195     0.009      0.160      0.001      1.637      0.001      0.013      0.001      0.001      0.270      0.002      47.021     47.203     8.658      -0.011     0.316      1.971      4.040      0.013      0.057      0.015      0.062      0.077      3.135      36.856     2.592      65.174     5361.390  
5385.892   8.500      72.230     0.006      0.162      0.001      1.222      0.001      0.008      0.001      0.001      0.296      0.001      38.020     38.179     8.658      -0.012     0.183      1.215      3.725      0.005      0.053      0.010      0.061      0.070      2.611      43.072     2.573      76.064     5361.543  
5386.045   8.500      76.485     0.004      0.150      0.000      0.797      0.001      0.003      0.001      0.001      0.331      0.000      32.711     32.854     8.658      -0.011     0.110      0.655      3.637      0.003      0.050      0.009      0.055      0.070      2.284      49.580     2.553      87.439     5361.695  
5386.197   8.500      78.910     0.003      0.131      0.001      0.543      0.001      0.001      0.001      0.001      0.359      0.000      30.421     30.553     8.658      -0.010     0.075      0.434      3.692      0.004      0.052      0.010      0.053      0.075      2.292      58.628     2.539      104.793    5361.848  
5386.349   8.500      78.593     0.002      0.119      0.001      0.497      0.001      0.001      0.001      0.001      0.373      0.000      30.098     30.221     8.658      -0.010     0.058      0.345      3.731      0.014      0.064      0.014      0.064      0.078      2.536      67.277     2.533      124.754    5362.000  
5386.502   8.500      76.037     0.001      0.120      0.001      0.565      0.001      0.002      0.001      0.001      0.372      0.000      30.794     30.912     8.658      -0.011     0.044      0.280      3.742      0.064      0.068      0.024      0.076      0.078      2.839      70.618     2.533      137.631    5362.152  
5386.654   8.500      72.714     0.001      0.135      0.001      0.633      0.001      0.002      0.001      0.001      0.362      0.000      30.513     30.630     8.659      -0.011     0.031      0.229      3.741      0.134      0.062      0.030      0.071      0.079      3.076      67.462     2.541      137.193    5362.305  
5386.807   8.500      70.326     0.001      0.153      0.001      0.685      0.001      0.001      0.001      0.001      0.351      0.000      28.618     28.728     8.659      -0.009     0.022      0.180      3.697      0.198      0.054      0.033      0.059      0.079      3.131      60.244     2.554      124.699    5362.457  
5386.959   8.500      70.117     0.001      0.164      0.001      0.795      0.001      0.001      0.001      0.001      0.343      0.001      26.722     26.820     8.659      -0.007     0.019      0.140      3.621      0.193      0.054      0.033      0.055      0.081      2.905      52.021     2.562      106.920    5362.609  
5387.111   8.500      72.250     0.001      0.166      0.001      1.003      0.001      0.001      0.001      0.001      0.339      0.002      26.419     26.514     8.660      -0.005     0.022      0.122      3.558      0.155      0.067      0.031      0.069      0.081      2.589      44.862     2.565      90.587     5362.762  
5387.264   8.500      75.588     0.001      0.164      0.001      1.219      0.001      0.002      0.001      0.001      0.337      0.002      27.238     27.339     8.659      -0.004     0.034      0.128      3.510      0.072      0.075      0.024      0.084      0.079      2.453      38.057     2.571      75.640     5362.914  
5387.416   8.500      78.243     0.001      0.163      0.001      1.304      0.001      0.003      0.001      0.001      0.336      0.003      28.002     28.109     8.659      -0.004     0.057      0.162      3.470      0.027      0.073      0.017      0.085      0.072      2.533      30.891     2.581      60.469     5363.067  
5387.569   8.500      78.635     0.001      0.167      0.001      1.253      0.001      0.006      0.001      0.001      0.335      0.003      28.642     28.753     8.660      -0.004     0.089      0.223      3.425      0.015      0.068      0.014      0.075      0.066      2.663      24.853     2.591      48.155     5363.219  
5387.721   8.500      76.354     0.002      0.174      0.002      1.204      0.001      0.010      0.001      0.001      0.333      0.003      29.784     29.894     8.660      -0.005     0.128      0.327      3.355      0.019      0.067      0.016      0.066      0.066      2.661      21.228     2.594      41.079     5363.371  
5387.873   8.500      72.282     0.002      0.179      0.003      1.288      0.001      0.016      0.001      0.001      0.324      0.003      31.317     31.428     8.659      -0.005     0.164      0.444      3.266      0.021      0.065      0.017      0.064      0.074      2.560      19.602     2.597      37.990     5363.524  
5388.026   8.500      68.011     0.003      0.180      0.004      1.496      0.001      0.024      0.001      0.001      0.309      0.003      31.765     31.879     8.658      -0.004     0.185      0.537      3.173      0.009      0.061      0.012      0.069      0.089      2.607      18.637     2.607      36.238     5363.676  
5388.178   8.500      65.074     0.003      0.177      0.004      1.710      0.001      0.033      0.001      0.001      0.294      0.002      30.032     30.147     8.657      -0.004     0.190      0.619      3.042      0.004      0.055      0.010      0.076      0.105      2.904      17.106     2.620      33.353     5363.828  
5388.331   8.500      64.281     0.003      0.167      0.004      1.799      0.001      0.048      0.001      0.001      0.285      0.003      27.506     27.618     8.657      -0.008     0.181      0.674      2.916      0.008      0.052      0.013      0.082      0.119      3.164      14.908     2.624      28.965     5363.981  
5388.483   8.500      65.330     0.003      0.148      0.004      1.699      0.003      0.069      0.001      0.001      0.283      0.003      26.900     27.011     8.658      -0.015     0.161      0.676      2.874      0.048      0.055      0.023      0.088      0.124      3.151      12.830     2.613      24.677     5364.133  
5388.635   8.500      66.996     0.003      0.131      0.003      1.447      0.005      0.080      0.001      0.001      0.287      0.003      28.290     28.405     8.658      -0.020     0.128      0.618      2.933      0.184      0.067      0.033      0.094      0.122      3.042      11.197     2.596      21.234     5364.286  
5388.788   8.500      65.863     0.003      0.133      0.003      1.141      0.007      0.067      0.001      0.001      0.295      0.004      29.331     29.452     8.658      -0.020     0.092      0.523      3.065      0.342      0.077      0.038      0.096      0.118      2.956      10.074     2.577      18.740     5364.438  
5388.940   8.500      62.733     0.002      0.148      0.003      0.863      0.008      0.042      0.001      0.001      0.309      0.003      28.979     29.100     8.658      -0.018     0.063      0.442      3.210      0.345      0.079      0.038      0.093      0.113      2.828      9.833      2.555      18.030     5364.590  
5389.093   8.500      59.303     0.002      0.154      0.003      0.649      0.008      0.023      0.001      0.001      0.325      0.003      28.180     28.294     8.658      -0.016     0.040      0.368      3.333      0.237      0.076      0.035      0.092      0.107      2.724      10.505     2.534      19.379     5364.743  
5389.245   8.500      56.796     0.002      0.152      0.004      0.549      0.008      0.013      0.001      0.001      0.340      0.002      27.821     27.927     8.658      -0.015     0.026      0.298      3.409      0.171      0.080      0.031      0.097      0.105      2.778      11.202     2.524      20.966     5364.895  
