~Version
 VERS              .         2.0                           : CWLS LOG ASCII STANDARD - VERSION 2.0
 WRAP              .         NO                            : ONE LINE PER DEPTH STEP
 DLM               .         SPACE                         : DELIMITING CHARACTER(SPACE TAB OR COMMA)
~Well Information
#_______________________________________________________________________________
#
#PARAMETER_NAME    .UNIT     VALUE                         : DESCRIPTION
#_______________________________________________________________________________
STRT               .M        5038.900                      : First reference value
STOP               .M        5526.275                      : Last reference value
STEP               .M        0.152                         : Step increment
NULL               .         -9999                         : Missing value
COMP               .         PETROBRAS                     : Company
WELL               .         8-SPH-23-SPS                  : Well name
FLD                .         SAPINHOA                      : Field
LOC                .                                       : Location
PROV               .                                       : Province
SRVC               .                                       : Service Company
DATE               .         2021-09-13 11_18_58           : Date
UWI                .         8-SPH-23-SPS                  : Unique Well ID
APD                .M        24.0                          : ABOVE PERMANENT DATUM
API                .         863160047300                  : API Code
BHT                .degF     160                           : BOTTOMHOLE TEMPERATURE
BLI                .M        5511.3                        : BOTTOM LOGGED INTERVAL
BS                 .in       12.25                         : BIT SIZE
CTRY               .         BRASIL                        : Nation
DCS                .         10/04/2016                    : DATE CIRCULATION STOPPED
DFD                .lb/gal   9.4                           : DRILLING FLUID DENSITY
DFT                .         OLEDRILL (BASE OLEFINA)       : DRILLING FLUID TYPE
DLAB               .         12/04/2016                    : DATE LOGGING ON BOTTOM
EDF                .M        24.0                          : ELEVATION OF DRILLING FLOOR
EGL                .M        -2146.0                       : ELEVATION OF GROUND LEVEL
EKB                .M        24.0                          : ELEVATION OF KELLY BUSHING
EPD                .M        0.0                           : ELEVATATION OF PERMANENT DATUM
GDAT               .         SIRGAS2000                    : Geodetic Datum
LMF                .         MR                            : LOG MEASURED FROM
LUL                .         MCE                           : LOGGING UNIT LOCATION
LUN                .         12247255                      : LOGGING UNIT NUMBER
LATI               .         -25_42_01.290                 : Latitude
LONG               .         -43_11_39,303                 : LONGITUDE
MCST               .degF     -999.25                       : MUDCAKE SAMPLE TEMPERATURE
MFST               .degF     -999.25                       : MUD FILTRATE SAMPLE TEMPERATURE
MRT                .degF     160.0                         : MAXIMUM RECORDED TEMPERATURE
MST                .degF     -999.25                       : MUD SAMPLE TEMPERATURE
ORIGINALWELLNAME   .         8SPH 0023  SPS                : 
PDAT               .         NM                            : PERMANENT DATUM
PRODUCER-CODE      .         280                           : 
PRODUCER-NAME      .         Halliburton                   : 
RMB                .ohm.m    -999.25                       : RESISTIVITY OF MUD - BHT
RMCS               .ohm.m    -999.25                       : RESISTIVITY OF MUDCAKE SAMPLE
RMFS               .ohm.m    -999.25                       : RESISTIVITY OF MUD FILTRATE SAMPLE
RMS                .ohm.m    -999.25                       : RESISTIVITY OF MUD SAMPLE
RUN                .         02                            : RUN NUMBER 1
STAT               .         SAO PAULO                     : STATE
TCS                .h        03_30                         : TIME CIRCULATION STOPPED
TDD                .M        5517.0                        : DRILLERS DEPTH
TDL                .M        5520.0                        : LOGGERS DEPTH
TLAB               .h        07_30                         : TIME LOGGING ON BOTTOM
TLI                .M        5070.0                        : TOP LOGGED INTERVAL
X                  .M        681190.00000000               : X UTM Coordinate
Y                  .M        7156260.00000000              : Y UTM Coordinate
~Parameter Information Block
#_______________________________________________________________________________
#
#PARAMETER_NAME    .UNIT     VALUE                         : DESCRIPTION
#_______________________________________________________________________________
SET                .         BASE                          : 
TLFamily_BS        .         Bit Size                      : 
TLFamily_DT        .         Compressional Slowness        : 
TLFamily_DWAL      .         Aluminum Weight Fraction      : 
TLFamily_DWCA      .         Calcium Weight Fraction       : 
TLFamily_DWFE      .         Iron Weight Fraction          : 
TLFamily_DWK       .         Potassium Weight Fraction     : 
TLFamily_DWMG      .         Magnesium Weight Fraction     : 
TLFamily_DWMN      .         Manganese Weight Fraction     : 
TLFamily_DWS       .         Sulfur Weight Fraction        : 
TLFamily_DWSI      .         Silicon Weight Fraction       : 
TLFamily_DWTI      .         Titanium Weight Fraction      : 
TLFamily_GR        .         Gamma Ray                     : 
TLFamily_GRt       .         Gamma Ray                     : 
TLFamily_HCAL      .         Caliper                       : 
TLFamily_HFK       .         Potassium Concentration       : 
TLFamily_HTHO      .         Thorium Concentration         : 
TLFamily_HURA      .         Uranium Concentration         : 
TLFamily_MD        .         Measured Depth                : 
TLFamily_MPERM     .         NMR Permeability              : 
TLFamily_NMRE_Final .         NMR Bound Fluid Volume Fraction: 
TLFamily_NMRFL_Final .         NMR Free Fluids               : 
TLFamily_NMRT_Final .         NMR Porosity                  : 
TLFamily_NPHI      .         Neutron Porosity              : 
TLFamily_PE        .         Photoelectric Factor          : 
TLFamily_RD        .         Resistivity - Deep            : 
TLFamily_RHOB      .         Bulk Density                  : 
TLFamily_RM        .         Resistivity - Medium          : 
TLFamily_RS        .         Resistivity - Shallow         : 
TLFamily_T2LM      .         NMR T2 Logarithmic Mean       : 
TLFamily_TVDSS     .         True Vertical Depth Sub Sea   : 
~Curve Information
#_______________________________________________________________________________
#
#LOGNAME           .UNIT     LOG_ID                        : DESCRIPTION
#_______________________________________________________________________________
DEPTH              .M                                      :  
BS                 .in                                     : BS/Bit Size 
DT                 .us/ft                                  : DTC/MonoDeltaT 
DWAL               .kg/kg                                  : DAL/DryrockAlWF 
DWCA               .kg/kg                                  : DCA/DryrockCaWF 
DWFE               .kg/kg                                  : DFE/DryrockFeWF 
DWK                .kg/kg                                  : DK/DryrockKWF 
DWMG               .kg/kg                                  : DMG/DryrockMgWF 
DWMN               .kg/kg                                  : DMN/DryrockMnWF 
DWS                .kg/kg                                  : DSUL/DryrockSuWF 
DWSI               .kg/kg                                  : DSI/DryrockSiWF 
DWTI               .kg/kg                                  : DTI/DryrockTiWF 
GR                 .gAPI                                   : GR/Gamma API 
GRt                .gAPI                                   : GKUT/GammaKUT 
HCAL               .in                                     : CALI/Caliper 
HFK                .%                                      : POTA/Potassium 
HTHO               .ppm                                    : THOR/Thorium 
HURA               .ppm                                    : URAN/Uranium 
MPERM              .mD                                     : MPERMT2/MrilT2KCoat 
NMRE_Final         .m3/m3                                  : MPHIT2/TA-grp T2 Effective Por 
NMRFL_Final        .unitless                               : MFFIT2/TA-grp T2 FreeFluid Ind 
NMRT_Final         .frac                                   : MSIGT2/TA-grp T2 Total Por. 
NPHI               .frac                                   : POROSIDADE NEUTRONICA (COMPOSICAO DE CURVAS CABO E/OU LWD) 
PE                 .b/e                                    : Density PE Filtered 
RD                 .ohm.m                                  : RT90/90in Resistivity 2ft Res 
RHOB               .g/cm3                                  : DENSIDADE (COMPOSICAO DE CURVAS CABO E/OU LWD ) 
RM                 .ohm.m                                  : RT30/30in Resistivity 2ft Res 
RS                 .ohm.m                                  : RT10/10in Resistivity 2ft Res 
T2LM               .ms                                     : T2LM/T2 Log Mean 
TVDSS              .M                                      :  
~Ascii
# ...
5168.440   12.250     55.459     0.015      0.279      0.002      0.019      0.021      0.000      0.004      0.080      0.001      17.316     19.733     12.054     0.249      1.467      1.231      0.575      0.070      0.043      0.073      0.095      6.531      56.030     2.627      57.524     67.632     167.063    5110.051  
5168.592   12.250     56.405     0.017      0.277      0.001      0.021      0.029      0.000      0.002      0.067      0.001      17.532     20.593     12.057     0.243      1.507      1.323      0.878      0.075      0.047      0.076      0.105      6.548      60.846     2.602      62.398     72.856     247.149    5110.203  
5168.745   12.250     57.316     0.019      0.302      0.000      0.024      0.022      0.000      0.003      0.047      0.002      19.245     21.805     12.050     0.225      1.511      1.488      3.557      0.088      0.063      0.088      0.114      6.664      81.727     2.561      83.696     94.984     356.005    5110.356  
5168.897   12.250     59.658     0.021      0.316      0.000      0.026      0.016      0.000      0.004      0.038      0.002      20.511     22.093     12.060     0.210      1.505      1.547      11.476     0.102      0.078      0.102      0.131      6.773      105.231    2.495      107.487    108.449    426.614    5110.508  
5169.049   12.250     61.022     0.022      0.329      0.000      0.027      0.008      0.000      0.003      0.034      0.002      20.198     21.715     12.052     0.176      1.489      1.570      30.227     0.120      0.095      0.120      0.151      6.803      179.942    2.438      180.304    212.617    448.157    5110.660  
5169.202   12.250     63.532     0.021      0.324      0.000      0.026      0.013      0.000      0.003      0.034      0.001      18.470     21.070     12.042     0.142      1.436      1.577      51.176     0.133      0.106      0.133      0.169      6.788      266.816    2.401      255.475    339.679    434.192    5110.813  
5169.354   12.250     64.565     0.019      0.325      0.000      0.023      0.016      0.000      0.005      0.030      0.001      15.572     19.456     12.038     0.117      1.391      1.456      72.417     0.142      0.115      0.142      0.180      6.792      574.211    2.388      497.342    639.552    420.819    5110.965  
5169.507   12.250     66.034     0.018      0.326      0.000      0.022      0.016      0.000      0.007      0.028      0.001      14.087     18.485     12.028     0.118      1.310      1.376      98.301     0.145      0.120      0.145      0.183      6.806      697.558    2.393      580.113    714.597    427.315    5111.118  
5169.659   12.250     66.585     0.017      0.325      0.000      0.021      0.019      0.000      0.009      0.027      0.001      13.084     17.652     12.034     0.128      1.150      1.325      143.055    0.145      0.123      0.145      0.182      6.816      828.688    2.403      656.564    773.233    454.182    5111.270  
5169.811   12.250     66.653     0.015      0.323      0.000      0.019      0.024      0.000      0.009      0.023      0.001      12.694     17.169     12.040     0.141      0.969      1.315      196.809    0.144      0.125      0.144      0.180      6.822      923.489    2.412      708.453    808.034    474.587    5111.422  
5169.964   12.250     66.547     0.013      0.326      0.000      0.017      0.022      0.000      0.010      0.025      0.001      12.882     16.930     12.042     0.158      0.817      1.314      183.913    0.146      0.127      0.148      0.178      6.832      998.508    2.417      746.571    827.238    438.407    5111.575  
5170.116   12.250     66.449     0.012      0.332      0.000      0.016      0.012      0.000      0.010      0.036      0.001      13.006     16.842     12.054     0.147      0.675      1.374      121.645    0.150      0.130      0.160      0.175      6.841      1055.143   2.421      776.804    840.954    303.271    5111.727  
5170.269   12.250     66.027     0.013      0.330      0.000      0.016      0.003      0.000      0.008      0.054      0.001      12.953     16.837     12.055     0.151      0.596      1.396      99.596     0.152      0.132      0.171      0.170      6.831      1097.890   2.424      810.948    860.010    215.049    5111.880  
5170.421   12.250     65.797     0.013      0.325      0.000      0.016      0.000      0.000      0.005      0.065      0.001      13.082     16.967     12.035     0.157      0.510      1.432      93.355     0.151      0.131      0.171      0.163      6.734      1111.885   2.426      832.769    876.178    213.915    5112.032  
5170.573   12.250     65.346     0.014      0.316      0.000      0.017      0.000      0.000      0.002      0.076      0.001      13.431     17.350     12.048     0.180      0.506      1.435      98.409     0.152      0.128      0.162      0.158      6.589      1075.850   2.425      830.082    886.379    301.121    5112.184  
5170.726   12.250     64.879     0.014      0.311      0.000      0.018      0.000      0.000      0.001      0.082      0.001      13.955     17.875     12.054     0.205      0.556      1.433      138.247    0.151      0.127      0.153      0.163      6.537      1007.833   2.424      796.710    877.969    402.870    5112.337  
5170.878   12.250     64.053     0.016      0.311      0.001      0.020      0.000      0.000      0.000      0.078      0.001      15.259     19.013     12.035     0.217      0.738      1.472      234.701    0.145      0.128      0.145      0.170      6.557      829.666    2.429      686.909    822.918    434.267    5112.489  
5171.031   12.250     63.141     0.017      0.318      0.001      0.022      0.000      0.000      0.001      0.069      0.001      15.816     20.206     12.041     0.209      0.883      1.565      242.987    0.136      0.121      0.136      0.166      6.571      660.048    2.442      577.872    743.586    424.153    5112.642  
5171.183   12.250     62.670     0.018      0.322      0.002      0.023      0.000      0.000      0.002      0.061      0.001      16.234     21.495     12.040     0.203      0.952      1.694      126.869    0.123      0.108      0.123      0.153      6.591      485.183    2.462      457.848    518.845    407.347    5112.794  
5171.335   12.250     61.011     0.018      0.320      0.002      0.022      0.000      0.000      0.007      0.061      0.000      19.083     23.446     12.023     0.201      1.103      1.860      50.580     0.110      0.094      0.110      0.140      6.622      247.756    2.489      258.839    264.544    389.396    5112.946  
5171.488   12.250     60.418     0.018      0.315      0.002      0.020      0.000      0.000      0.010      0.067      0.000      21.363     24.373     12.043     0.208      1.195      1.917      22.262     0.095      0.080      0.095      0.128      6.605      196.359    2.520      207.292    240.900    379.272    5113.099  
5171.640   12.250     58.208     0.018      0.309      0.002      0.017      0.000      0.000      0.012      0.073      0.000      22.621     24.858     12.027     0.247      1.370      1.841      17.514     0.084      0.072      0.084      0.114      6.547      161.065    2.553      173.089    232.062    370.275    5113.251  
5171.793   12.250     56.828     0.020      0.305      0.001      0.016      0.000      0.000      0.013      0.076      0.000      22.155     24.511     12.032     0.269      1.486      1.721      10.486     0.076      0.065      0.077      0.101      6.565      156.894    2.577      170.423    233.873    304.074    5113.404  
5171.945   12.250     56.005     0.021      0.298      0.000      0.014      0.000      0.000      0.013      0.084      0.000      21.198     23.918     12.037     0.284      1.562      1.601      1.827      0.068      0.052      0.073      0.089      6.662      166.551    2.594      184.755    261.092    173.721    5113.556  
5172.097   12.250     54.423     0.019      0.296      0.000      0.012      0.001      0.001      0.012      0.087      0.000      20.896     23.757     12.054     0.271      1.499      1.628      0.411      0.060      0.039      0.067      0.083      6.696      173.587    2.609      194.592    276.728    116.750    5113.708  
