~Version
 VERS              .         2.0                           : CWLS LOG ASCII STANDARD - VERSION 2.0
 WRAP              .         NO                            : ONE LINE PER DEPTH STEP
 DLM               .         SPACE                         : DELIMITING CHARACTER(SPACE TAB OR COMMA)
~Well Information
#_______________________________________________________________________________
#
#PARAMETER_NAME    .UNIT     VALUE                         : DESCRIPTION
#_______________________________________________________________________________
STRT               .M        5159.045                      : First reference value
STOP               .M        5591.861                      : Last reference value
STEP               .M        0.152                         : Step increment
NULL               .         -9999                         : Missing value
COMP               .         PETROBRAS                     : Company
WELL               .         8-SPH-19D-SPS                 : Well name
FLD                .         SAPINHOA                      : Field
LOC                .                                       : Location
PROV               .                                       : Province
SRVC               .                                       : Service Company
DATE               .         2020-11-17 00_10_26           : Date
UWI                .         8SPH0019DSPS                  : Unique Well ID
APD                .M        26                            : Above Permanent Datum
API                .                                       : API NUMBER
BHT                .degF     150                           : Bottom Hole Temperature
BLI                .M        5581.8                        : Bottom Log Interval
BS                 .in       12.25                         : Bit Size
CNTY               .                                       : County
CTRY               .         BRASIL                        : Nation
DCS                .         04/08/2015                    : Date Ciculation Stopped
DFD                .lbm/gal  9.5                           : Drilling Fluid Density
DFT                .         NAO AQUOSO (BASE OLEFINA)     : Drilling Fluid Type
DLAB               .         05/08/2015                    : Date Logger At Bottom
EDF                .M        26                            : Elevation of Derreck Floor
EGL                .M        -2132                         : Elevation of Ground Level
EKB                .M        -999.25                       : Elevation of Kelly Bushing
EPD                .M        0                             : Elevation Of Permanent Datum
GDAT               .         SIRGAS2000                    : Geodetic Datum
LMF                .         MR                            : Log Measured From
LATI               .         -25_46_45.710                 : Latitude
LONG               .         -43_12_21,306                 : Longitude
MCST               .degF     -999.25                       : Mud Cake Sample Temperature
MFST               .degF     -999.25                       : Mud Filtrate Sample Temperature
MRT                .degF     150                           : Maximum Recorded Temperature
MST                .degF     -999.25                       : Mud Sample Temperature
ORIGINALWELLNAME   .         8-sph-19d-sps_petrobras       : 
PDAT               .         NM                            : Permanent Datum
PRODUCER-CODE      .         150                           : 
PRODUCER-NAME      .         ATLAS                         : 
RMB                .ohm.m    -999.25                       : Resistivity Of Mud - BHT
RMCS               .ohm.m    -999.25                       : Resistivity Of Mud Cake Sample
RMFS               .ohm.m    -999.25                       : Mud Filtrate Sample Resistivity
RMS                .ohm.m    -999.25                       : Mud Sample Resistivity
RUN                .         2                             : Run Number
STAT               .         SAO PAULO                     : State
TCS                .h        02_00                         : Time Ciculation Stopped
TDD                .M        5583                          : Total Depht - Driller
TDL                .M        5585.4                        : Total Depht - Logger
TLAB               .h        18_45                         : Time Logger At Bottom
TLI                .M        5200                          : Top Log Interval
X                  .M        679908.00000000               : Surface X
Y                  .M        7148113.00000000              : Surface Y
~Parameter Information Block
#_______________________________________________________________________________
#
#PARAMETER_NAME    .UNIT     VALUE                         : DESCRIPTION
#_______________________________________________________________________________
SET                .         BASE                          : 
TLFamily_BS        .         Bit Size                      : 
TLFamily_DT        .         Compressional Slowness        : 
TLFamily_DWAL      .         Aluminum Weight Fraction      : 
TLFamily_DWCA      .         Calcium Weight Fraction       : 
TLFamily_DWFE      .         Iron Weight Fraction          : 
TLFamily_DWGD      .         Gadolinium Weight Fraction    : 
TLFamily_DWK       .         Potassium Weight Fraction     : 
TLFamily_DWMG      .         Magnesium Weight Fraction     : 
TLFamily_DWMN      .         Manganese Weight Fraction     : 
TLFamily_DWS       .         Sulfur Weight Fraction        : 
TLFamily_DWSI      .         Silicon Weight Fraction       : 
TLFamily_DWTI      .         Titanium Weight Fraction      : 
TLFamily_GR        .         Gamma Ray                     : 
TLFamily_GRt       .         Gamma Ray                     : 
TLFamily_HCAL      .         Caliper                       : 
TLFamily_HDRA      .         Bulk Density Correction       : 
TLFamily_HFK       .         Potassium Concentration       : 
TLFamily_HTHO      .         Thorium Concentration         : 
TLFamily_HURA      .         Uranium Concentration         : 
TLFamily_MD        .         Measured Depth                : 
TLFamily_MPERM     .         NMR Permeability              : 
TLFamily_NMRE_Final .         NMR Bound Fluid Volume Fraction: 
TLFamily_NMRFL_Final .         NMR Free Fluids               : 
TLFamily_NMRT_Final .         NMR Porosity                  : 
TLFamily_NPHI      .         Neutron Porosity              : 
TLFamily_PE        .         Photoelectric Factor          : 
TLFamily_RD        .         Resistivity - Deep            : 
TLFamily_RHOB      .         Bulk Density                  : 
TLFamily_RM        .         Resistivity - Medium          : 
TLFamily_RS        .         Resistivity - Shallow         : 
TLFamily_TVDSS     .         True Vertical Depth Sub Sea   : 
~Curve Information
#_______________________________________________________________________________
#
#LOGNAME           .UNIT     LOG_ID                        : DESCRIPTION
#_______________________________________________________________________________
DEPTH              .M                                      :  
BS                 .in                                     :  
DT                 .us/ft                                  : SONICO COMPRESSIONAL (COMPOSICAO DE CURVAS CABO E/OU LWD) 
DWAL               .kg/kg                                  :  
DWCA               .kg/kg                                  :  
DWFE               .kg/kg                                  :  
DWGD               .ppm                                    :  
DWK                .kg/kg                                  :  
DWMG               .kg/kg                                  :  
DWMN               .kg/kg                                  :  
DWS                .kg/kg                                  :  
DWSI               .kg/kg                                  :  
DWTI               .kg/kg                                  :  
GR                 .gAPI                                   :  
GRt                .gAPI                                   :  
HCAL               .in                                     : CALIPER (COMPOSICAO DE CURVAS CABO E/OU LWD) 
HDRA               .g/cm3                                  : Density Delta Rho Filtered 
HFK                .%                                      :  
HTHO               .ppm                                    :  
HURA               .ppm                                    :  
MPERM              .mD                                     :  
NMRE_Final         .m3/m3                                  :  
NMRFL_Final        .unitless                               :  
NMRT_Final         .frac                                   :  
NPHI               .frac                                   : Neutron Porosity Limestone Filtered 
PE                 .b/e                                    : Density PE Filtered 
RD                 .ohm.m                                  : Vertical 2-foot resolution matched resistivity, 90-inch DOI 
RHOB               .g/cm3                                  : Bulk Density Filtered 
RM                 .ohm.m                                  : Vertical 2-foot resolution matched resistivity, 30-inch DOI 
RS                 .ohm.m                                  : Vertical 2-foot resolution matched resistivity, 10-inch DOI 
TVDSS              .M                                      :  
~Ascii
# ...
5356.555   12.250     71.161     0.005      0.274      0.010      2.292      0.001      0.048      0.001      0.001      0.154      0.000      25.883     26.043     12.389     0.113      0.188      0.893      2.888      0.005      0.046      0.011      0.089      0.197      5.730      4.384      2.581      4.342      4.386      5188.454  
5356.708   12.250     67.909     0.005      0.282      0.011      2.243      0.001      0.040      0.001      0.001      0.149      0.000      25.344     25.500     12.381     0.115      0.173      0.926      2.888      0.004      0.050      0.010      0.084      0.188      5.657      4.516      2.586      4.477      4.544      5188.596  
5356.860   12.250     66.333     0.006      0.288      0.011      2.267      0.001      0.035      0.001      0.001      0.137      0.000      26.149     26.322     12.362     0.115      0.157      0.994      2.992      0.007      0.058      0.011      0.089      0.193      5.634      4.674      2.586      4.641      4.734      5188.737  
5357.012   12.250     66.116     0.007      0.289      0.011      2.416      0.001      0.034      0.001      0.001      0.124      0.000      29.394     29.597     12.360     0.112      0.138      1.200      3.369      0.009      0.059      0.013      0.088      0.202      5.730      4.542      2.584      4.523      4.629      5188.879  
5357.165   12.250     67.152     0.008      0.288      0.011      2.683      0.001      0.035      0.001      0.001      0.111      0.000      34.695     34.935     12.376     0.106      0.133      1.488      3.867      0.009      0.057      0.013      0.080      0.211      5.955      4.117      2.577      4.114      4.224      5189.021  
5357.317   12.250     67.906     0.009      0.290      0.010      2.941      0.002      0.039      0.001      0.001      0.102      0.001      39.027     39.298     12.384     0.101      0.137      1.645      4.116      0.006      0.056      0.011      0.078      0.218      6.130      3.749      2.567      3.758      3.878      5189.163  
5357.470   12.250     68.233     0.009      0.294      0.008      3.069      0.002      0.047      0.001      0.001      0.099      0.001      39.925     40.197     12.392     0.101      0.142      1.662      4.129      0.002      0.051      0.007      0.084      0.223      6.181      3.621      2.558      3.638      3.792      5189.305  
5357.622   12.250     68.511     0.009      0.296      0.008      3.027      0.002      0.057      0.001      0.001      0.103      0.001      37.750     37.989     12.391     0.103      0.148      1.641      4.037      0.001      0.038      0.007      0.092      0.223      6.192      3.774      2.555      3.804      4.030      5189.447  
5357.774   12.250     68.764     0.009      0.291      0.008      2.867      0.001      0.063      0.001      0.001      0.115      0.001      34.313     34.515     12.396     0.105      0.159      1.628      3.859      0.001      0.034      0.007      0.095      0.219      6.156      4.322      2.557      4.374      4.754      5189.589  
5357.927   12.250     68.722     0.010      0.281      0.008      2.704      0.002      0.061      0.001      0.001      0.126      0.000      31.781     31.973     12.428     0.107      0.169      1.654      3.720      0.001      0.043      0.006      0.096      0.216      6.031      5.450      2.560      5.551      6.269      5189.731  
5358.079   12.250     68.803     0.010      0.272      0.007      2.607      0.005      0.053      0.001      0.001      0.131      0.000      32.170     32.382     12.433     0.109      0.176      1.723      3.686      0.001      0.050      0.006      0.097      0.225      5.931      7.001      2.560      7.191      8.553      5189.873  
5358.232   12.250     68.666     0.010      0.269      0.006      2.549      0.008      0.044      0.001      0.001      0.127      0.001      35.355     35.606     12.411     0.109      0.188      1.858      3.749      0.001      0.054      0.006      0.100      0.233      6.013      7.972      2.554      8.254      10.139     5190.015  
5358.384   12.250     69.172     0.011      0.271      0.005      2.504      0.008      0.039      0.001      0.001      0.120      0.001      38.610     38.880     12.406     0.106      0.200      1.960      3.884      0.001      0.063      0.004      0.107      0.243      6.221      7.532      2.544      7.811      9.409      5190.157  
5358.536   12.250     69.376     0.011      0.276      0.004      2.489      0.005      0.039      0.001      0.001      0.115      0.001      39.678     39.927     12.418     0.110      0.207      1.957      3.990      0.000      0.070      0.003      0.119      0.252      6.391      6.333      2.540      6.548      7.613      5190.298  
5358.689   12.250     69.695     0.011      0.283      0.005      2.562      0.002      0.039      0.001      0.001      0.112      0.001      38.925     39.144     12.419     0.115      0.214      1.883      4.038      0.002      0.068      0.006      0.125      0.253      6.410      5.331      2.543      5.497      6.267      5190.440  
5358.841   12.250     69.951     0.010      0.286      0.006      2.800      0.001      0.040      0.001      0.001      0.110      0.000      38.089     38.297     12.405     0.114      0.229      1.766      4.047      0.004      0.066      0.009      0.124      0.245      6.340      4.823      2.546      4.967      5.645      5190.582  
5358.994   12.250     70.468     0.010      0.285      0.007      3.128      0.000      0.043      0.001      0.001      0.108      0.000      37.706     37.913     12.395     0.110      0.246      1.669      4.006      0.003      0.063      0.007      0.119      0.241      6.321      4.746      2.544      4.887      5.613      5190.724  
5359.146   12.250     70.472     0.009      0.280      0.008      3.325      0.001      0.046      0.001      0.001      0.108      0.000      37.727     37.944     12.385     0.103      0.259      1.611      3.940      0.002      0.056      0.006      0.114      0.242      6.338      4.985      2.539      5.135      5.997      5190.866  
5359.298   12.250     70.082     0.009      0.274      0.008      3.267      0.001      0.047      0.001      0.001      0.114      0.000      37.876     38.105     12.387     0.100      0.274      1.586      3.863      0.001      0.050      0.006      0.116      0.243      6.328      5.348      2.538      5.504      6.498      5191.008  
5359.451   12.250     69.911     0.009      0.270      0.009      3.050      0.001      0.044      0.001      0.001      0.123      0.001      37.695     37.917     12.400     0.106      0.288      1.625      3.788      0.000      0.050      0.004      0.120      0.237      6.261      5.539      2.547      5.683      6.657      5191.150  
5359.603   12.250     70.492     0.010      0.270      0.009      2.859      0.001      0.040      0.001      0.001      0.128      0.001      37.360     37.577     12.405     0.113      0.295      1.726      3.747      0.000      0.051      0.003      0.114      0.231      6.221      5.437      2.558      5.547      6.339      5191.292  
5359.756   12.250     71.415     0.010      0.271      0.009      2.791      0.001      0.042      0.001      0.001      0.126      0.001      37.865     38.097     12.385     0.116      0.296      1.851      3.729      0.001      0.050      0.005      0.107      0.230      6.239      5.228      2.567      5.303      5.900      5191.434  
5359.908   12.250     72.461     0.011      0.272      0.008      2.839      0.001      0.053      0.001      0.001      0.119      0.001      38.967     39.209     12.365     0.111      0.292      1.960      3.697      0.001      0.048      0.006      0.115      0.231      6.245      5.124      2.564      5.172      5.642      5191.576  
5360.060   12.250     73.510     0.011      0.274      0.008      3.005      0.001      0.065      0.001      0.001      0.108      0.001      38.520     38.754     12.335     0.102      0.282      2.045      3.636      0.000      0.041      0.001      0.126      0.232      6.078      5.169      2.551      5.198      5.601      5191.718  
