~Version
 VERS              .         2.0                           : CWLS LOG ASCII STANDARD - VERSION 2.0
 WRAP              .         NO                            : ONE LINE PER DEPTH STEP
 DLM               .         SPACE                         : DELIMITING CHARACTER(SPACE TAB OR COMMA)
~Well Information
#_______________________________________________________________________________
#
#PARAMETER_NAME    .UNIT     VALUE                         : DESCRIPTION
#_______________________________________________________________________________
STRT               .M        5060.036                      : First reference value
STOP               .M        5304.790                      : Last reference value
STEP               .M        0.152                         : Step increment
NULL               .         -9999                         : Missing value
COMP               .         PETROBRAS                     : Company
WELL               .         8-SPH-11-SPS                  : Well name
FLD                .         SAPINHOA                      : Field
LOC                .                                       : Location
PROV               .                                       : Province
SRVC               .                                       : Service Company
DATE               .         23/09/2015                    : Date
UWI                .         8-SPH-11-SPS                  : Unique Well ID
APD                .M        24                            : Elevation of Depth Reference (LMF) Above Permanent Datum
API                .                                       : API NUMBER
BHS                .         OPEN                          : Borehole Status (Open or Cased Hole)
BHT                .degF     135                           : Bottom Hole Temperature
BLI                .M        5299.5                        : Bottom Log Interval
BS                 .in       12.25                         : Bit Size
CBDR               .M        5086                          : Casing Bottom (Driller)
CBLO               .M        5084                          : Casing Bottom (Logger)
CSIZ               .in       14                            : Casing Outer Diameter
CWEI               .lbm/ft   115                           : Casing Weight
CTRY               .         BRASIL                        : Nation
DCS                .         22/09/2015                    : Date Circulation Stopped
DFD                .lb/gal   9.7                           : Drilling Fluid Density
DFT                .         Cationico Flex Drill(Base Agua): Drilling Fluid Type
DLAB               .         23/09/2015                    : Date Logging on Bottom
EDF                .M        24                            : Elevation of Drill Floor
EGL                .M        -2165                         : Elevation of Ground Level
EKB                .M        24                            : Elevation of Kelly Bushing
EPD                .M        0                             : Elevation of Permanent Datum (PDAT) above Mean Sea Level
LMF                .         MR                            : Logging Measured From (Name of Logging Elevation Reference)
LUL                .          BRMA                         : Logging Unit Location
LUN                .         OSU-PA 7032                   : Logging Unit Number
LONG               .         -43_13_56,159                 : Longitude
MCST               .degF     77.1                          : Mudcake Sample Temperature
MFST               .degF     78.3                          : Mud Filtrate Sample Temperature
MRT                .degF     135                           : Maximum Recorded Temperature
MST                .degF     77.9                          : Mud Sample Temperature
ORIGINALWELLNAME   .         P09                           : 
PDAT               .         NM                            : Permanent Datum
PRODUCER-CODE      .         440                           : 
PRODUCER-NAME      .         Schlumberger                  : 
RMB                .ohm.m    0.0430009                     : Resistivity of Mud at Bottom Hole Temperature
RMCS               .ohm.m    0.08                          : Resistivity of Mud Cake Sample
RMFS               .ohm.m    0.062                         : Resistivity of Mud Filtrate Sample
RMS                .ohm.m    0.072                         : Resistivity of Mud Sample
RUN                .         3                             : Run Number
STAT               .         SAO PAULO                     : State or Province
TCS                .h        10_30                         : Time Circulation Stopped
TDD                .M        5301                          : Total Depth (Driller)
TDL                .M        5301.5                        : Logger Total Depth
TLAB               .h        23_45                         : Time Logging on Bottom
TLI                .M        5084                          : Top Log Interval
X                  .M        677112.00000000               : 
Y                  .M        7136745.00000000              : 
~Parameter Information Block
#_______________________________________________________________________________
#
#PARAMETER_NAME    .UNIT     VALUE                         : DESCRIPTION
#_______________________________________________________________________________
SET                .         BASE                          : 
TLFamily_BS        .         Bit Size                      : 
TLFamily_DT        .         Compressional Slowness        : 
TLFamily_DWAL      .         Aluminum Weight Fraction      : 
TLFamily_DWCA      .         Calcium Weight Fraction       : 
TLFamily_DWFE      .         Iron Weight Fraction          : 
TLFamily_DWGD      .         Gadolinium Weight Fraction    : 
TLFamily_DWS       .         Sulfur Weight Fraction        : 
TLFamily_DWSI      .         Silicon Weight Fraction       : 
TLFamily_DWTI      .         Titanium Weight Fraction      : 
TLFamily_GR        .         Gamma Ray                     : 
TLFamily_GRt       .         Gamma Ray                     : 
TLFamily_HCAL      .         Caliper                       : 
TLFamily_HDRA      .         Bulk Density Correction       : 
TLFamily_HFK       .         Potassium Concentration       : 
TLFamily_HTHO      .         Thorium Concentration         : 
TLFamily_HURA      .         Uranium Concentration         : 
TLFamily_KSDR      .         NMR Permeability              : 
TLFamily_KTIM      .         NMR Permeability              : 
TLFamily_MD        .         Measured Depth                : 
TLFamily_NMRE_Final .         NMR Bound Fluid Volume Fraction: 
TLFamily_NMRFL_Final .         NMR Free Fluids               : 
TLFamily_NMRT_Final .         NMR Porosity                  : 
TLFamily_NPHI      .         Neutron Porosity              : 
TLFamily_PE        .         Photoelectric Factor          : 
TLFamily_RD        .         Resistivity - Deep            : 
TLFamily_RHOB      .         Bulk Density                  : 
TLFamily_RM        .         Resistivity - Medium          : 
TLFamily_RS        .         Resistivity - Shallow         : 
TLFamily_T2LM      .         NMR T2 Logarithmic Mean       : 
TLFamily_TVDSS     .         True Vertical Depth Sub Sea   : 
~Curve Information
#_______________________________________________________________________________
#
#LOGNAME           .UNIT     LOG_ID                        : DESCRIPTION
#_______________________________________________________________________________
DEPTH              .M                                      :  
BS                 .in                                     : Bit Size 
DT                 .us/ft                                  : Delta-T Compressional 
DWAL               .kg/kg                                  : Dry Weight Fraction Pseudo Aluminum (SpectroLith WALK2 Model) 
DWCA               .kg/kg                                  : Dry Weight Fraction Calcium (SpectroLith WALK2 Model) 
DWFE               .kg/kg                                  : Dry Weight Fraction Iron + 0.14 Aluminum (SpectroLith WALK2 Model) 
DWGD               .ppm                                    : Dry Weight Fraction Gadolinium (SpectroLith WALK2 Model) 
DWS                .kg/kg                                  : Dry Weight Fraction Sulfur (SpectroLith WALK2 Model) 
DWSI               .kg/kg                                  : Dry Weight Fraction Silicon (SpectroLith WALK2 Model) 
DWTI               .kg/kg                                  : Dry Weight Fraction Titanium (SpectroLith WALK2 Model) 
GR                 .gAPI                                   : Gamma Ray 
GRt                .gAPI                                   : HNGS Standard Gamma-Ray 
HCAL               .in                                     : HRCC Caliper Calibrated 
HDRA               .g/cm3                                  : Density Standoff Correction 
HFK                .%                                      : HNGS Formation Potassium Concentration 
HTHO               .ppm                                    : HNGS Formation Thorium Concentration 
HURA               .ppm                                    : HNGS Formation Uranium Concentration 
KSDR               .mD                                     : SDR Permeability 
KTIM               .mD                                     : Timur/Coates Permeability 
NMRE_Final         .m3/m3                                  :  
NMRFL_Final        .unitless                               :  
NMRT_Final         .frac                                   :  
NPHI               .frac                                   : Enhanced Thermal Neutron Porosity in Selected Lithology 
PE                 .b/e                                    : Standard Resolution Formation Photoelectric Factor 
RD                 .ohm.m                                  : Apparent Resistivity from Computed Focusing Mode 5 
RHOB               .g/cm3                                  : Standard Resolution Formation Density 
RM                 .ohm.m                                  : Apparent Resistivity from Computed Focusing Mode 4 
RS                 .ohm.m                                  : Apparent Resistivity from Computed Focusing Mode 3 
T2LM               .ms                                     : T2 Logarithmic Mean 
TVDSS              .M                                      :  
~Ascii
# ...
5292.446   12.250     -9999.000  -9999.000  -9999.000  -9999.000  0.000      0.018      -9999.000  0.000      -9999.000  36.340     12.458     -0.006     -9999.000  -9999.000  -9999.000  0.121      0.106      0.071      0.025      0.093      0.124      4.432      -9999.000  2.500      -9999.000  -9999.000  20.249     5266.497  
5292.598   12.250     -9999.000  -9999.000  -9999.000  -9999.000  0.000      0.018      -9999.000  0.000      -9999.000  36.340     12.428     -0.008     -9999.000  -9999.000  -9999.000  0.267      0.240      0.075      0.034      0.093      0.122      4.567      -9999.000  2.504      -9999.000  -9999.000  29.752     5266.649  
5292.750   12.250     -9999.000  -9999.000  -9999.000  -9999.000  0.000      0.018      -9999.000  0.000      -9999.000  36.340     12.424     -0.010     -9999.000  -9999.000  -9999.000  0.457      0.423      0.084      0.039      0.102      0.124      4.587      -9999.000  2.501      -9999.000  -9999.000  32.772     5266.801  
5292.903   12.250     -9999.000  -9999.000  -9999.000  -9999.000  0.000      0.018      -9999.000  0.000      -9999.000  36.340     12.366     -0.008     -9999.000  -9999.000  -9999.000  0.482      0.506      0.093      0.040      0.116      0.127      4.398      -9999.000  2.483      -9999.000  -9999.000  26.058     5266.952  
5293.055   12.250     -9999.000  -9999.000  -9999.000  -9999.000  0.000      0.018      -9999.000  0.000      -9999.000  36.340     12.335     -0.004     -9999.000  -9999.000  -9999.000  0.336      0.445      0.098      0.037      0.131      0.125      4.052      -9999.000  2.454      -9999.000  -9999.000  16.821     5267.104  
5293.208   12.250     -9999.000  -9999.000  -9999.000  -9999.000  0.000      0.018      -9999.000  0.000      -9999.000  36.340     12.327     0.003      -9999.000  -9999.000  -9999.000  0.126      0.158      0.088      0.024      0.136      0.125      3.862      -9999.000  2.432      -9999.000  -9999.000  9.624      5267.256  
5293.360   12.250     -9999.000  -9999.000  -9999.000  -9999.000  0.000      0.018      -9999.000  0.000      -9999.000  36.340     12.335     0.007      -9999.000  -9999.000  -9999.000  0.044      0.039      0.074      0.014      0.131      0.121      3.854      -9999.000  2.428      -9999.000  -9999.000  6.065      5267.408  
5293.512   12.250     -9999.000  -9999.000  -9999.000  -9999.000  0.000      0.018      -9999.000  0.000      -9999.000  36.340     12.370     0.008      -9999.000  -9999.000  -9999.000  0.021      0.028      0.064      0.013      0.120      0.124      3.920      -9999.000  2.443      -9999.000  -9999.000  5.152      5267.559  
5293.665   12.250     -9999.000  -9999.000  -9999.000  -9999.000  0.000      0.018      -9999.000  0.000      -9999.000  36.340     12.389     0.005      -9999.000  -9999.000  -9999.000  0.020      0.050      0.063      0.017      0.114      0.123      3.924      -9999.000  2.459      -9999.000  -9999.000  5.431      5267.711  
5293.817   12.250     -9999.000  -9999.000  -9999.000  -9999.000  0.000      0.018      -9999.000  0.000      -9999.000  36.340     12.388     0.001      -9999.000  -9999.000  -9999.000  0.035      0.090      0.075      0.020      0.126      0.119      3.956      -9999.000  2.467      -9999.000  -9999.000  5.866      5267.863  
5293.970   12.250     -9999.000  -9999.000  -9999.000  -9999.000  0.000      0.018      -9999.000  0.000      -9999.000  36.340     12.434     -0.001     -9999.000  -9999.000  -9999.000  0.048      0.065      0.082      0.016      0.139      -9999.000  4.040      -9999.000  2.468      -9999.000  -9999.000  5.626      5268.015  
5294.122   12.250     -9999.000  -9999.000  -9999.000  -9999.000  0.000      0.018      -9999.000  0.000      -9999.000  36.340     12.439     -0.002     -9999.000  -9999.000  -9999.000  0.070      0.049      0.088      0.014      0.146      -9999.000  4.188      -9999.000  2.470      -9999.000  -9999.000  6.170      5268.166  
5294.274   12.250     -9999.000  -9999.000  -9999.000  -9999.000  0.000      0.018      -9999.000  0.000      -9999.000  36.340     12.429     -0.002     -9999.000  -9999.000  -9999.000  0.091      0.043      0.089      0.013      0.144      -9999.000  4.318      -9999.000  2.481      -9999.000  -9999.000  7.237      5268.318  
5294.427   12.250     -9999.000  -9999.000  -9999.000  -9999.000  0.000      0.018      -9999.000  0.000      -9999.000  36.340     12.439     -0.005     -9999.000  -9999.000  -9999.000  0.103      0.046      0.086      0.014      0.136      -9999.000  4.446      -9999.000  2.491      -9999.000  -9999.000  8.739      5268.470  
5294.579   12.250     -9999.000  -9999.000  -9999.000  -9999.000  0.000      0.018      -9999.000  0.000      -9999.000  36.340     12.442     -0.006     -9999.000  -9999.000  -9999.000  0.110      0.057      0.085      0.017      0.125      -9999.000  4.534      -9999.000  2.498      -9999.000  -9999.000  10.563     5268.622  
5294.732   12.250     -9999.000  -9999.000  -9999.000  -9999.000  0.000      0.018      -9999.000  0.000      -9999.000  36.340     12.439     -0.008     -9999.000  -9999.000  -9999.000  0.112      0.058      0.083      0.018      0.114      -9999.000  4.624      -9999.000  2.490      -9999.000  -9999.000  12.829     5268.773  
5294.884   12.250     -9999.000  -9999.000  -9999.000  -9999.000  0.000      0.018      -9999.000  0.000      -9999.000  36.340     12.424     -0.003     -9999.000  -9999.000  -9999.000  0.087      0.049      0.076      0.018      0.101      -9999.000  4.669      -9999.000  2.490      -9999.000  -9999.000  14.426     5268.925  
5295.036   12.250     -9999.000  -9999.000  -9999.000  -9999.000  0.000      0.018      -9999.000  0.000      -9999.000  36.340     12.365     0.003      -9999.000  -9999.000  -9999.000  0.066      0.039      0.067      0.018      0.088      -9999.000  4.676      -9999.000  2.493      -9999.000  -9999.000  16.536     5269.077  
5295.189   12.250     -9999.000  -9999.000  -9999.000  -9999.000  0.000      0.018      -9999.000  0.000      -9999.000  36.340     12.350     0.013      -9999.000  -9999.000  -9999.000  0.050      0.033      0.060      0.018      0.080      -9999.000  4.556      -9999.000  2.508      -9999.000  -9999.000  17.614     5269.229  
5295.341   12.250     -9999.000  -9999.000  -9999.000  -9999.000  0.000      0.018      -9999.000  0.000      -9999.000  36.340     12.333     0.020      -9999.000  -9999.000  -9999.000  0.038      0.038      0.057      0.019      0.081      -9999.000  4.367      -9999.000  2.517      -9999.000  -9999.000  14.907     5269.380  
5295.494   12.250     -9999.000  -9999.000  -9999.000  -9999.000  0.000      0.018      -9999.000  0.000      -9999.000  36.340     12.332     0.025      -9999.000  -9999.000  -9999.000  0.028      0.058      0.057      0.020      0.098      -9999.000  4.158      -9999.000  2.526      -9999.000  -9999.000  8.719      5269.532  
5295.646   12.250     -9999.000  -9999.000  -9999.000  -9999.000  0.000      0.018      -9999.000  0.000      -9999.000  36.340     12.331     0.026      -9999.000  -9999.000  -9999.000  0.013      0.025      0.051      0.013      0.115      -9999.000  4.028      -9999.000  2.530      -9999.000  -9999.000  4.348      5269.684  
5295.798   12.250     -9999.000  -9999.000  -9999.000  -9999.000  0.000      0.018      -9999.000  0.000      -9999.000  36.340     12.323     0.023      -9999.000  -9999.000  -9999.000  0.011      0.012      0.050      0.008      0.122      -9999.000  3.987      -9999.000  2.531      -9999.000  -9999.000  3.434      5269.836  
5295.951   12.250     -9999.000  -9999.000  -9999.000  -9999.000  0.000      0.018      -9999.000  0.000      -9999.000  36.340     12.327     0.016      -9999.000  -9999.000  -9999.000  0.015      0.011      0.056      0.008      0.120      -9999.000  3.996      -9999.000  2.528      -9999.000  -9999.000  4.241      5269.987  
5296.103   12.250     -9999.000  -9999.000  -9999.000  -9999.000  0.000      0.018      -9999.000  0.000      -9999.000  36.340     12.324     0.007      -9999.000  -9999.000  -9999.000  0.030      0.020      0.065      0.011      0.116      -9999.000  4.024      -9999.000  2.519      -9999.000  -9999.000  6.415      5270.139  
