~Version
 VERS              .         2.0                           : CWLS LOG ASCII STANDARD - VERSION 2.0
 WRAP              .         NO                            : ONE LINE PER DEPTH STEP
 DLM               .         SPACE                         : DELIMITING CHARACTER(SPACE TAB OR COMMA)
~Well Information
#_______________________________________________________________________________
#
#PARAMETER_NAME    .UNIT     VALUE                         : DESCRIPTION
#_______________________________________________________________________________
STRT               .M        5060.036                      : First reference value
STOP               .M        5304.790                      : Last reference value
STEP               .M        0.152                         : Step increment
NULL               .         -9999                         : Missing value
COMP               .         PETROBRAS                     : Company
WELL               .         8-SPH-11-SPS                  : Well name
FLD                .         SAPINHOA                      : Field
LOC                .                                       : Location
PROV               .                                       : Province
SRVC               .                                       : Service Company
DATE               .         23/09/2015                    : Date
UWI                .         8-SPH-11-SPS                  : Unique Well ID
APD                .M        24                            : Elevation of Depth Reference (LMF) Above Permanent Datum
API                .                                       : API NUMBER
BHS                .         OPEN                          : Borehole Status (Open or Cased Hole)
BHT                .degF     135                           : Bottom Hole Temperature
BLI                .M        5299.5                        : Bottom Log Interval
BS                 .in       12.25                         : Bit Size
CBDR               .M        5086                          : Casing Bottom (Driller)
CBLO               .M        5084                          : Casing Bottom (Logger)
CSIZ               .in       14                            : Casing Outer Diameter
CWEI               .lbm/ft   115                           : Casing Weight
CTRY               .         BRASIL                        : Nation
DCS                .         22/09/2015                    : Date Circulation Stopped
DFD                .lb/gal   9.7                           : Drilling Fluid Density
DFT                .         Cationico Flex Drill(Base Agua): Drilling Fluid Type
DLAB               .         23/09/2015                    : Date Logging on Bottom
EDF                .M        24                            : Elevation of Drill Floor
EGL                .M        -2165                         : Elevation of Ground Level
EKB                .M        24                            : Elevation of Kelly Bushing
EPD                .M        0                             : Elevation of Permanent Datum (PDAT) above Mean Sea Level
LMF                .         MR                            : Logging Measured From (Name of Logging Elevation Reference)
LUL                .          BRMA                         : Logging Unit Location
LUN                .         OSU-PA 7032                   : Logging Unit Number
LONG               .         -43_13_56,159                 : Longitude
MCST               .degF     77.1                          : Mudcake Sample Temperature
MFST               .degF     78.3                          : Mud Filtrate Sample Temperature
MRT                .degF     135                           : Maximum Recorded Temperature
MST                .degF     77.9                          : Mud Sample Temperature
ORIGINALWELLNAME   .         P09                           : 
PDAT               .         NM                            : Permanent Datum
PRODUCER-CODE      .         440                           : 
PRODUCER-NAME      .         Schlumberger                  : 
RMB                .ohm.m    0.0430009                     : Resistivity of Mud at Bottom Hole Temperature
RMCS               .ohm.m    0.08                          : Resistivity of Mud Cake Sample
RMFS               .ohm.m    0.062                         : Resistivity of Mud Filtrate Sample
RMS                .ohm.m    0.072                         : Resistivity of Mud Sample
RUN                .         3                             : Run Number
STAT               .         SAO PAULO                     : State or Province
TCS                .h        10_30                         : Time Circulation Stopped
TDD                .M        5301                          : Total Depth (Driller)
TDL                .M        5301.5                        : Logger Total Depth
TLAB               .h        23_45                         : Time Logging on Bottom
TLI                .M        5084                          : Top Log Interval
X                  .M        677112.00000000               : 
Y                  .M        7136745.00000000              : 
~Parameter Information Block
#_______________________________________________________________________________
#
#PARAMETER_NAME    .UNIT     VALUE                         : DESCRIPTION
#_______________________________________________________________________________
SET                .         BASE                          : 
TLFamily_BS        .         Bit Size                      : 
TLFamily_DT        .         Compressional Slowness        : 
TLFamily_DWAL      .         Aluminum Weight Fraction      : 
TLFamily_DWCA      .         Calcium Weight Fraction       : 
TLFamily_DWFE      .         Iron Weight Fraction          : 
TLFamily_DWGD      .         Gadolinium Weight Fraction    : 
TLFamily_DWS       .         Sulfur Weight Fraction        : 
TLFamily_DWSI      .         Silicon Weight Fraction       : 
TLFamily_DWTI      .         Titanium Weight Fraction      : 
TLFamily_GR        .         Gamma Ray                     : 
TLFamily_GRt       .         Gamma Ray                     : 
TLFamily_HCAL      .         Caliper                       : 
TLFamily_HDRA      .         Bulk Density Correction       : 
TLFamily_HFK       .         Potassium Concentration       : 
TLFamily_HTHO      .         Thorium Concentration         : 
TLFamily_HURA      .         Uranium Concentration         : 
TLFamily_KSDR      .         NMR Permeability              : 
TLFamily_KTIM      .         NMR Permeability              : 
TLFamily_MD        .         Measured Depth                : 
TLFamily_NMRE_Final .         NMR Bound Fluid Volume Fraction: 
TLFamily_NMRFL_Final .         NMR Free Fluids               : 
TLFamily_NMRT_Final .         NMR Porosity                  : 
TLFamily_NPHI      .         Neutron Porosity              : 
TLFamily_PE        .         Photoelectric Factor          : 
TLFamily_RD        .         Resistivity - Deep            : 
TLFamily_RHOB      .         Bulk Density                  : 
TLFamily_RM        .         Resistivity - Medium          : 
TLFamily_RS        .         Resistivity - Shallow         : 
TLFamily_T2LM      .         NMR T2 Logarithmic Mean       : 
TLFamily_TVDSS     .         True Vertical Depth Sub Sea   : 
~Curve Information
#_______________________________________________________________________________
#
#LOGNAME           .UNIT     LOG_ID                        : DESCRIPTION
#_______________________________________________________________________________
DEPTH              .M                                      :  
BS                 .in                                     : Bit Size 
DT                 .us/ft                                  : Delta-T Compressional 
DWAL               .kg/kg                                  : Dry Weight Fraction Pseudo Aluminum (SpectroLith WALK2 Model) 
DWCA               .kg/kg                                  : Dry Weight Fraction Calcium (SpectroLith WALK2 Model) 
DWFE               .kg/kg                                  : Dry Weight Fraction Iron + 0.14 Aluminum (SpectroLith WALK2 Model) 
DWGD               .ppm                                    : Dry Weight Fraction Gadolinium (SpectroLith WALK2 Model) 
DWS                .kg/kg                                  : Dry Weight Fraction Sulfur (SpectroLith WALK2 Model) 
DWSI               .kg/kg                                  : Dry Weight Fraction Silicon (SpectroLith WALK2 Model) 
DWTI               .kg/kg                                  : Dry Weight Fraction Titanium (SpectroLith WALK2 Model) 
GR                 .gAPI                                   : Gamma Ray 
GRt                .gAPI                                   : HNGS Standard Gamma-Ray 
HCAL               .in                                     : HRCC Caliper Calibrated 
HDRA               .g/cm3                                  : Density Standoff Correction 
HFK                .%                                      : HNGS Formation Potassium Concentration 
HTHO               .ppm                                    : HNGS Formation Thorium Concentration 
HURA               .ppm                                    : HNGS Formation Uranium Concentration 
KSDR               .mD                                     : SDR Permeability 
KTIM               .mD                                     : Timur/Coates Permeability 
NMRE_Final         .m3/m3                                  :  
NMRFL_Final        .unitless                               :  
NMRT_Final         .frac                                   :  
NPHI               .frac                                   : Enhanced Thermal Neutron Porosity in Selected Lithology 
PE                 .b/e                                    : Standard Resolution Formation Photoelectric Factor 
RD                 .ohm.m                                  : Apparent Resistivity from Computed Focusing Mode 5 
RHOB               .g/cm3                                  : Standard Resolution Formation Density 
RM                 .ohm.m                                  : Apparent Resistivity from Computed Focusing Mode 4 
RS                 .ohm.m                                  : Apparent Resistivity from Computed Focusing Mode 3 
T2LM               .ms                                     : T2 Logarithmic Mean 
TVDSS              .M                                      :  
~Ascii
# ...
5208.626   12.250     68.982     0.000      0.266      0.000      0.501      0.008      0.152      0.000      34.382     23.888     12.349     -0.005     0.356      1.385      1.618      0.052      0.061      0.082      0.018      0.120      0.189      3.445      6.628      2.526      6.088      6.443      7.880      5183.042  
5208.778   12.250     69.439     0.000      0.262      0.000      0.281      0.007      0.158      0.000      34.888     23.344     12.349     -0.005     0.354      1.214      1.635      0.054      0.068      0.083      0.018      0.123      0.182      3.434      8.415      2.532      7.683      8.081      7.733      5183.194  
5208.930   12.250     70.488     0.000      0.270      0.000      0.000      0.012      0.146      0.000      34.545     23.165     12.352     -0.007     0.357      1.202      1.631      0.055      0.083      0.084      0.019      0.128      0.164      3.554      8.760      2.526      7.964      8.363      7.183      5183.346  
5209.083   12.250     71.223     0.001      0.286      0.000      0.000      0.014      0.125      0.000      33.659     24.702     12.359     -0.009     0.376      1.323      1.731      0.056      0.105      0.086      0.020      0.134      0.166      3.866      7.682      2.513      7.006      7.386      6.603      5183.497  
5209.235   12.250     71.205     0.000      0.298      0.000      0.000      0.012      0.113      0.000      34.074     26.812     12.375     -0.010     0.417      1.386      1.880      0.056      0.105      0.086      0.020      0.134      0.169      4.309      6.354      2.507      5.817      6.168      6.603      5183.649  
5209.388   12.250     70.784     0.000      0.296      0.000      0.000      0.008      0.117      0.000      35.046     27.844     12.387     -0.009     0.442      1.473      1.912      0.056      0.105      0.086      0.020      0.134      0.188      4.683      5.801      2.510      5.309      5.636      6.603      5183.801  
5209.540   12.250     71.906     0.000      0.289      0.000      0.000      0.006      0.127      0.000      36.517     26.974     12.388     -0.009     0.446      1.522      1.751      0.043      0.101      0.080      0.021      0.129      0.213      4.769      5.570      2.517      5.098      5.422      6.197      5183.952  
5209.692   12.250     75.620     0.000      0.289      0.000      0.000      0.006      0.127      0.000      36.353     24.949     12.380     -0.006     0.417      1.334      1.651      0.028      0.075      0.073      0.019      0.120      0.186      4.567      6.334      2.528      5.768      6.122      5.913      5184.104  
5209.845   12.250     78.910     0.000      0.294      0.000      0.000      0.006      0.121      0.000      33.864     22.979     12.396     -0.004     0.374      1.141      1.594      0.020      0.046      0.068      0.017      0.109      0.155      4.279      6.036      2.531      5.531      5.919      6.051      5184.256  
5209.997   12.250     79.926     0.000      0.302      0.000      0.000      0.006      0.112      0.000      31.437     21.855     12.385     -0.002     0.356      1.104      1.519      0.018      0.026      0.069      0.014      0.100      0.167      4.077      4.188      2.522      3.890      4.202      6.725      5184.408  
5210.150   12.250     78.958     0.000      0.306      0.000      0.000      0.004      0.108      0.000      30.928     21.795     12.396     -0.003     0.379      1.140      1.428      0.015      0.010      0.065      0.009      0.099      0.190      4.007      4.729      2.504      4.390      4.723      6.322      5184.559  
5210.302   12.250     75.423     0.000      0.309      0.000      0.708      0.000      0.107      0.000      32.727     22.426     12.423     -0.003     0.398      1.209      1.444      0.010      0.001      0.059      0.004      0.097      0.221      4.016      4.922      2.504      4.567      4.906      5.395      5184.711  
5210.454   12.250     70.394     0.000      0.299      0.000      2.140      0.000      0.117      0.000      33.658     22.512     12.380     -0.005     0.398      1.272      1.423      0.012      0.001      0.065      0.003      0.099      0.231      4.064      4.992      2.514      4.636      4.977      5.578      5184.863  
5210.607   12.250     68.350     0.002      0.283      0.001      2.331      0.000      0.134      0.000      32.856     21.732     12.380     -0.005     0.378      1.246      1.377      0.019      0.005      0.071      0.007      0.101      0.209      4.027      6.091      2.536      5.630      6.008      6.748      5185.015  
5210.759   12.250     68.422     0.003      0.269      0.002      2.249      0.000      0.147      0.000      30.949     20.313     12.387     -0.005     0.353      1.153      1.315      0.024      0.018      0.065      0.012      0.097      0.173      3.890      6.446      2.549      5.948      6.341      8.265      5185.166  
5210.912   12.250     69.327     0.006      0.262      0.003      2.505      0.000      0.152      0.000      29.488     19.313     12.369     -0.004     0.322      1.153      1.294      0.032      0.028      0.068      0.015      0.094      0.149      3.658      7.017      2.558      6.403      6.885      10.203     5185.318  
5211.064   12.250     69.648     0.007      0.252      0.004      4.463      0.000      0.161      0.000      29.369     19.226     12.374     -0.004     0.308      1.177      1.318      0.036      0.030      0.070      0.016      0.090      0.144      3.400      6.599      2.557      6.076      6.538      11.681     5185.470  
5211.216   12.250     68.472     0.009      0.225      0.005      3.822      0.000      0.189      0.000      30.516     19.952     12.373     -0.004     0.318      1.273      1.360      0.030      0.027      0.067      0.016      0.088      0.153      3.182      6.442      2.548      5.893      6.317      11.310     5185.621  
5211.369   12.250     67.152     0.007      0.189      0.004      1.938      0.000      0.234      0.000      31.818     20.759     12.376     -0.006     0.330      1.579      1.309      0.027      0.026      0.064      0.015      0.091      0.154      3.060      6.761      2.537      6.190      6.558      9.913      5185.773  
5211.521   12.250     67.579     0.005      0.156      0.002      0.000      0.001      0.276      0.000      31.658     20.451     12.374     -0.008     0.329      1.728      1.195      0.037      0.029      0.068      0.014      0.102      0.150      3.038      7.084      2.522      6.584      6.916      9.187      5185.925  
5211.674   12.250     69.303     0.005      0.141      0.002      0.000      0.003      0.293      0.000      30.970     19.286     12.398     -0.008     0.308      1.648      1.104      0.071      0.045      0.081      0.017      0.102      0.151      3.015      7.319      2.520      6.723      7.083      12.696     5186.077  
5211.826   12.250     71.371     0.007      0.146      0.004      0.000      0.006      0.282      0.000      30.564     17.879     12.397     -0.006     0.280      1.509      1.051      0.096      0.039      0.089      0.016      0.100      0.147      2.967      7.165      2.528      6.540      6.928      15.368     5186.228  
5211.978   12.250     72.903     0.008      0.162      0.005      0.000      0.012      0.257      0.000      31.305     17.185     12.366     -0.005     0.270      1.491      0.987      0.072      0.026      0.082      0.014      0.096      0.148      2.957      7.836      2.539      7.141      7.537      14.480     5186.380  
5212.131   12.250     73.571     0.007      0.178      0.005      0.000      0.015      0.238      0.000      31.795     17.530     12.368     -0.006     0.282      1.526      0.983      0.047      0.019      0.071      0.013      0.093      0.133      3.021      7.962      2.546      7.224      7.646      12.506     5186.532  
5212.283   12.250     73.250     0.005      0.189      0.004      0.000      0.011      0.231      0.000      32.281     18.271     12.385     -0.006     0.295      1.594      1.022      0.048      0.020      0.071      0.013      0.093      0.124      3.141      7.724      2.543      7.028      7.471      12.530     5186.683  
