~Version
 VERS              .         2.0                           : CWLS LOG ASCII STANDARD - VERSION 2.0
 WRAP              .         NO                            : ONE LINE PER DEPTH STEP
 DLM               .         SPACE                         : DELIMITING CHARACTER(SPACE TAB OR COMMA)
~Well Information
#_______________________________________________________________________________
#
#PARAMETER_NAME    .UNIT     VALUE                         : DESCRIPTION
#_______________________________________________________________________________
STRT               .M        5038.900                      : First reference value
STOP               .M        5526.275                      : Last reference value
STEP               .M        0.152                         : Step increment
NULL               .         -9999                         : Missing value
COMP               .         PETROBRAS                     : Company
WELL               .         8-SPH-23-SPS                  : Well name
FLD                .         SAPINHOA                      : Field
LOC                .                                       : Location
PROV               .                                       : Province
SRVC               .                                       : Service Company
DATE               .         2021-09-13 11_18_58           : Date
UWI                .         8-SPH-23-SPS                  : Unique Well ID
APD                .M        24.0                          : ABOVE PERMANENT DATUM
API                .         863160047300                  : API Code
BHT                .degF     160                           : BOTTOMHOLE TEMPERATURE
BLI                .M        5511.3                        : BOTTOM LOGGED INTERVAL
BS                 .in       12.25                         : BIT SIZE
CTRY               .         BRASIL                        : Nation
DCS                .         10/04/2016                    : DATE CIRCULATION STOPPED
DFD                .lb/gal   9.4                           : DRILLING FLUID DENSITY
DFT                .         OLEDRILL (BASE OLEFINA)       : DRILLING FLUID TYPE
DLAB               .         12/04/2016                    : DATE LOGGING ON BOTTOM
EDF                .M        24.0                          : ELEVATION OF DRILLING FLOOR
EGL                .M        -2146.0                       : ELEVATION OF GROUND LEVEL
EKB                .M        24.0                          : ELEVATION OF KELLY BUSHING
EPD                .M        0.0                           : ELEVATATION OF PERMANENT DATUM
GDAT               .         SIRGAS2000                    : Geodetic Datum
LMF                .         MR                            : LOG MEASURED FROM
LUL                .         MCE                           : LOGGING UNIT LOCATION
LUN                .         12247255                      : LOGGING UNIT NUMBER
LATI               .         -25_42_01.290                 : Latitude
LONG               .         -43_11_39,303                 : LONGITUDE
MCST               .degF     -999.25                       : MUDCAKE SAMPLE TEMPERATURE
MFST               .degF     -999.25                       : MUD FILTRATE SAMPLE TEMPERATURE
MRT                .degF     160.0                         : MAXIMUM RECORDED TEMPERATURE
MST                .degF     -999.25                       : MUD SAMPLE TEMPERATURE
ORIGINALWELLNAME   .         8SPH 0023  SPS                : 
PDAT               .         NM                            : PERMANENT DATUM
PRODUCER-CODE      .         280                           : 
PRODUCER-NAME      .         Halliburton                   : 
RMB                .ohm.m    -999.25                       : RESISTIVITY OF MUD - BHT
RMCS               .ohm.m    -999.25                       : RESISTIVITY OF MUDCAKE SAMPLE
RMFS               .ohm.m    -999.25                       : RESISTIVITY OF MUD FILTRATE SAMPLE
RMS                .ohm.m    -999.25                       : RESISTIVITY OF MUD SAMPLE
RUN                .         02                            : RUN NUMBER 1
STAT               .         SAO PAULO                     : STATE
TCS                .h        03_30                         : TIME CIRCULATION STOPPED
TDD                .M        5517.0                        : DRILLERS DEPTH
TDL                .M        5520.0                        : LOGGERS DEPTH
TLAB               .h        07_30                         : TIME LOGGING ON BOTTOM
TLI                .M        5070.0                        : TOP LOGGED INTERVAL
X                  .M        681190.00000000               : X UTM Coordinate
Y                  .M        7156260.00000000              : Y UTM Coordinate
~Parameter Information Block
#_______________________________________________________________________________
#
#PARAMETER_NAME    .UNIT     VALUE                         : DESCRIPTION
#_______________________________________________________________________________
SET                .         BASE                          : 
TLFamily_BS        .         Bit Size                      : 
TLFamily_DT        .         Compressional Slowness        : 
TLFamily_DWAL      .         Aluminum Weight Fraction      : 
TLFamily_DWCA      .         Calcium Weight Fraction       : 
TLFamily_DWFE      .         Iron Weight Fraction          : 
TLFamily_DWK       .         Potassium Weight Fraction     : 
TLFamily_DWMG      .         Magnesium Weight Fraction     : 
TLFamily_DWMN      .         Manganese Weight Fraction     : 
TLFamily_DWS       .         Sulfur Weight Fraction        : 
TLFamily_DWSI      .         Silicon Weight Fraction       : 
TLFamily_DWTI      .         Titanium Weight Fraction      : 
TLFamily_GR        .         Gamma Ray                     : 
TLFamily_GRt       .         Gamma Ray                     : 
TLFamily_HCAL      .         Caliper                       : 
TLFamily_HFK       .         Potassium Concentration       : 
TLFamily_HTHO      .         Thorium Concentration         : 
TLFamily_HURA      .         Uranium Concentration         : 
TLFamily_MD        .         Measured Depth                : 
TLFamily_MPERM     .         NMR Permeability              : 
TLFamily_NMRE_Final .         NMR Bound Fluid Volume Fraction: 
TLFamily_NMRFL_Final .         NMR Free Fluids               : 
TLFamily_NMRT_Final .         NMR Porosity                  : 
TLFamily_NPHI      .         Neutron Porosity              : 
TLFamily_PE        .         Photoelectric Factor          : 
TLFamily_RD        .         Resistivity - Deep            : 
TLFamily_RHOB      .         Bulk Density                  : 
TLFamily_RM        .         Resistivity - Medium          : 
TLFamily_RS        .         Resistivity - Shallow         : 
TLFamily_T2LM      .         NMR T2 Logarithmic Mean       : 
TLFamily_TVDSS     .         True Vertical Depth Sub Sea   : 
~Curve Information
#_______________________________________________________________________________
#
#LOGNAME           .UNIT     LOG_ID                        : DESCRIPTION
#_______________________________________________________________________________
DEPTH              .M                                      :  
BS                 .in                                     : BS/Bit Size 
DT                 .us/ft                                  : DTC/MonoDeltaT 
DWAL               .kg/kg                                  : DAL/DryrockAlWF 
DWCA               .kg/kg                                  : DCA/DryrockCaWF 
DWFE               .kg/kg                                  : DFE/DryrockFeWF 
DWK                .kg/kg                                  : DK/DryrockKWF 
DWMG               .kg/kg                                  : DMG/DryrockMgWF 
DWMN               .kg/kg                                  : DMN/DryrockMnWF 
DWS                .kg/kg                                  : DSUL/DryrockSuWF 
DWSI               .kg/kg                                  : DSI/DryrockSiWF 
DWTI               .kg/kg                                  : DTI/DryrockTiWF 
GR                 .gAPI                                   : GR/Gamma API 
GRt                .gAPI                                   : GKUT/GammaKUT 
HCAL               .in                                     : CALI/Caliper 
HFK                .%                                      : POTA/Potassium 
HTHO               .ppm                                    : THOR/Thorium 
HURA               .ppm                                    : URAN/Uranium 
MPERM              .mD                                     : MPERMT2/MrilT2KCoat 
NMRE_Final         .m3/m3                                  : MPHIT2/TA-grp T2 Effective Por 
NMRFL_Final        .unitless                               : MFFIT2/TA-grp T2 FreeFluid Ind 
NMRT_Final         .frac                                   : MSIGT2/TA-grp T2 Total Por. 
NPHI               .frac                                   : POROSIDADE NEUTRONICA (COMPOSICAO DE CURVAS CABO E/OU LWD) 
PE                 .b/e                                    : Density PE Filtered 
RD                 .ohm.m                                  : RT90/90in Resistivity 2ft Res 
RHOB               .g/cm3                                  : DENSIDADE (COMPOSICAO DE CURVAS CABO E/OU LWD ) 
RM                 .ohm.m                                  : RT30/30in Resistivity 2ft Res 
RS                 .ohm.m                                  : RT10/10in Resistivity 2ft Res 
T2LM               .ms                                     : T2LM/T2 Log Mean 
TVDSS              .M                                      :  
~Ascii
# ...
5438.950   12.250     49.411     0.017      0.335      0.006      0.019      0.012      0.001      0.008      0.023      0.000      64.222     77.213     11.998     0.298      2.200      7.278      0.000      0.019      0.006      0.020      0.013      9.475      178.621    2.629      254.683    293.914    112.078    5380.484  
5439.102   12.250     49.957     0.018      0.327      0.006      0.017      0.015      0.001      0.008      0.027      0.000      68.709     79.028     11.931     0.290      2.448      7.403      0.001      0.021      0.008      0.021      0.014      9.448      167.634    2.627      244.027    283.372    109.281    5380.636  
5439.255   12.250     50.328     0.018      0.333      0.005      0.015      0.007      0.001      0.010      0.033      0.000      60.687     75.394     11.914     0.287      2.793      6.878      0.002      0.025      0.011      0.026      0.016      9.381      149.552    2.619      224.176    277.812    63.003     5380.789  
5439.407   12.250     51.192     0.019      0.339      0.004      0.013      0.000      0.001      0.011      0.036      0.000      53.544     69.881     11.907     0.288      2.835      6.248      0.003      0.028      0.011      0.034      0.020      9.342      138.431    2.609      208.591    272.223    38.385     5380.941  
5439.559   12.250     51.464     0.016      0.341      0.003      0.012      0.000      0.001      0.011      0.038      0.000      43.445     59.198     11.907     0.278      2.600      5.161      0.004      0.028      0.011      0.039      0.024      9.337      122.809    2.598      182.978    261.695    33.522     5381.093  
5439.712   12.250     51.906     0.015      0.343      0.003      0.012      0.000      0.001      0.011      0.037      0.000      37.163     53.384     11.916     0.263      2.381      4.619      0.006      0.029      0.013      0.041      0.027      9.329      114.348    2.591      167.816    243.829    38.173     5381.245  
5439.864   12.250     51.889     0.011      0.352      0.003      0.013      0.000      0.002      0.011      0.031      0.000      34.891     50.187     11.928     0.232      1.975      4.466      0.006      0.033      0.013      0.040      0.029      9.297      105.943    2.590      151.985    222.076    56.220     5381.398  
5440.017   12.250     51.791     0.012      0.356      0.003      0.014      0.000      0.002      0.012      0.025      0.000      36.964     51.782     11.934     0.206      1.656      4.805      0.006      0.037      0.013      0.040      0.030      9.243      102.527    2.593      145.179    210.017    78.541     5381.550  
5440.169   12.250     51.078     0.013      0.359      0.004      0.016      0.000      0.002      0.013      0.019      0.000      45.496     61.833     11.960     0.167      1.392      6.088      0.012      0.036      0.016      0.038      0.027      9.202      105.149    2.597      149.036    209.249    72.011     5381.702  
5440.321   12.250     50.821     0.014      0.359      0.004      0.018      0.000      0.002      0.014      0.016      0.000      57.026     73.629     11.973     0.118      1.219      7.549      0.014      0.031      0.017      0.035      0.020      9.243      110.187    2.604      157.676    216.507    50.619     5381.855  
5440.474   12.250     50.138     0.016      0.356      0.004      0.018      0.002      0.002      0.016      0.013      0.000      74.666     89.509     11.984     0.098      0.921      9.459      0.009      0.027      0.015      0.033      0.014      9.318      117.949    2.614      172.641    240.571    34.009     5382.007  
5440.626   12.250     49.881     0.015      0.354      0.004      0.018      0.004      0.001      0.017      0.013      0.000      86.990     100.094    12.017     0.099      0.673      10.727     0.004      0.021      0.012      0.031      0.010      9.345      121.481    2.624      181.203    268.788    16.944     5382.159  
5440.779   12.250     49.862     0.019      0.343      0.004      0.016      0.007      0.001      0.018      0.016      0.000      93.423     107.608    12.040     0.159      0.333      11.584     0.001      0.016      0.008      0.031      0.007      9.314      117.583    2.628      178.744    307.212    7.360      5382.311  
5440.931   12.250     49.934     0.023      0.340      0.003      0.015      0.006      0.001      0.016      0.019      0.000      91.611     108.897    12.022     0.225      0.123      11.690     0.001      0.017      0.006      0.033      0.007      9.294      110.207    2.627      168.918    314.207    7.880      5382.464  
5441.083   12.250     50.122     0.032      0.335      0.002      0.015      0.005      0.001      0.016      0.017      0.000      84.361     105.268    12.017     0.291      0.192      11.146     0.001      0.022      0.008      0.035      0.009      9.319      96.208     2.622      147.177    268.349    16.772     5382.616  
5441.236   12.250     50.382     0.034      0.338      0.002      0.015      0.003      0.001      0.016      0.015      0.000      79.691     100.181    12.009     0.316      0.343      10.482     0.004      0.024      0.012      0.033      0.009      9.356      86.290     2.618      131.003    230.802    29.522     5382.768  
5441.388   12.250     50.468     0.037      0.338      0.002      0.017      0.002      0.001      0.015      0.013      0.000      75.722     94.135     11.999     0.317      0.608      9.710      0.011      0.023      0.016      0.029      0.009      9.395      78.090     2.615      117.281    205.901    36.211     5382.921  
5441.541   12.250     51.440     0.042      0.334      0.001      0.018      0.005      0.001      0.013      0.008      0.000      67.795     82.902     12.001     0.255      1.119      8.380      0.011      0.022      0.016      0.031      0.011      9.413      64.206     2.612      92.592     161.317    21.453     5383.073  
5441.693   12.250     51.736     0.046      0.331      0.000      0.021      0.005      0.001      0.011      0.008      0.000      61.711     75.590     12.012     0.228      1.346      7.531      0.013      0.023      0.017      0.038      0.017      9.404      55.193     2.608      76.360     129.992    13.099     5383.225  
5441.845   12.250     54.169     0.034      0.330      0.001      0.027      0.003      0.001      0.008      0.025      0.001      52.427     63.822     12.013     0.204      1.431      6.230      0.022      0.033      0.019      0.046      0.023      9.401      42.306     2.595      54.464     88.796     22.703     5383.378  
5441.998   12.250     56.033     0.029      0.318      0.001      0.030      0.000      0.001      0.007      0.048      0.002      47.494     57.842     11.975     0.209      1.255      5.620      0.044      0.046      0.023      0.053      0.035      9.418      37.163     2.559      46.297     74.865     53.551     5383.530  
5442.150   12.250     57.224     0.023      0.274      0.001      0.028      0.000      0.001      0.009      0.105      0.002      39.333     50.081     11.962     0.225      0.741      4.917      0.232      0.058      0.035      0.064      0.050      9.434      31.541     2.518      37.691     60.242     78.764     5383.682  
5442.303   12.250     59.605     0.021      0.242      0.001      0.026      0.000      0.001      0.011      0.145      0.002      35.812     46.932     12.000     0.243      0.520      4.614      0.922      0.064      0.046      0.070      0.073      9.435      28.477     2.466      33.190     51.455     91.727     5383.834  
5442.455   12.250     60.402     0.018      0.200      0.001      0.022      0.000      0.001      0.014      0.197      0.001      33.632     44.956     12.042     0.257      0.447      4.397      1.745      0.070      0.052      0.073      0.094      9.383      24.657     2.433      27.789     40.122     129.043    5383.987  
5442.607   12.250     61.148     0.017      0.183      0.001      0.021      0.000      0.001      0.015      0.218      0.001      34.818     45.029     12.057     0.271      0.650      4.307      0.937      0.073      0.047      0.074      0.106      9.256      23.835     2.426      26.531     36.847     150.669    5384.139  
