~Version
 VERS              .         2.0                           : CWLS LOG ASCII STANDARD - VERSION 2.0
 WRAP              .         NO                            : ONE LINE PER DEPTH STEP
 DLM               .         SPACE                         : DELIMITING CHARACTER(SPACE TAB OR COMMA)
~Well Information
#_______________________________________________________________________________
#
#PARAMETER_NAME    .UNIT     VALUE                         : DESCRIPTION
#_______________________________________________________________________________
STRT               .M        5060.036                      : First reference value
STOP               .M        5304.790                      : Last reference value
STEP               .M        0.152                         : Step increment
NULL               .         -9999                         : Missing value
COMP               .         PETROBRAS                     : Company
WELL               .         8-SPH-11-SPS                  : Well name
FLD                .         SAPINHOA                      : Field
LOC                .                                       : Location
PROV               .                                       : Province
SRVC               .                                       : Service Company
DATE               .         23/09/2015                    : Date
UWI                .         8-SPH-11-SPS                  : Unique Well ID
APD                .M        24                            : Elevation of Depth Reference (LMF) Above Permanent Datum
API                .                                       : API NUMBER
BHS                .         OPEN                          : Borehole Status (Open or Cased Hole)
BHT                .degF     135                           : Bottom Hole Temperature
BLI                .M        5299.5                        : Bottom Log Interval
BS                 .in       12.25                         : Bit Size
CBDR               .M        5086                          : Casing Bottom (Driller)
CBLO               .M        5084                          : Casing Bottom (Logger)
CSIZ               .in       14                            : Casing Outer Diameter
CWEI               .lbm/ft   115                           : Casing Weight
CTRY               .         BRASIL                        : Nation
DCS                .         22/09/2015                    : Date Circulation Stopped
DFD                .lb/gal   9.7                           : Drilling Fluid Density
DFT                .         Cationico Flex Drill(Base Agua): Drilling Fluid Type
DLAB               .         23/09/2015                    : Date Logging on Bottom
EDF                .M        24                            : Elevation of Drill Floor
EGL                .M        -2165                         : Elevation of Ground Level
EKB                .M        24                            : Elevation of Kelly Bushing
EPD                .M        0                             : Elevation of Permanent Datum (PDAT) above Mean Sea Level
LMF                .         MR                            : Logging Measured From (Name of Logging Elevation Reference)
LUL                .          BRMA                         : Logging Unit Location
LUN                .         OSU-PA 7032                   : Logging Unit Number
LONG               .         -43_13_56,159                 : Longitude
MCST               .degF     77.1                          : Mudcake Sample Temperature
MFST               .degF     78.3                          : Mud Filtrate Sample Temperature
MRT                .degF     135                           : Maximum Recorded Temperature
MST                .degF     77.9                          : Mud Sample Temperature
ORIGINALWELLNAME   .         P09                           : 
PDAT               .         NM                            : Permanent Datum
PRODUCER-CODE      .         440                           : 
PRODUCER-NAME      .         Schlumberger                  : 
RMB                .ohm.m    0.0430009                     : Resistivity of Mud at Bottom Hole Temperature
RMCS               .ohm.m    0.08                          : Resistivity of Mud Cake Sample
RMFS               .ohm.m    0.062                         : Resistivity of Mud Filtrate Sample
RMS                .ohm.m    0.072                         : Resistivity of Mud Sample
RUN                .         3                             : Run Number
STAT               .         SAO PAULO                     : State or Province
TCS                .h        10_30                         : Time Circulation Stopped
TDD                .M        5301                          : Total Depth (Driller)
TDL                .M        5301.5                        : Logger Total Depth
TLAB               .h        23_45                         : Time Logging on Bottom
TLI                .M        5084                          : Top Log Interval
X                  .M        677112.00000000               : 
Y                  .M        7136745.00000000              : 
~Parameter Information Block
#_______________________________________________________________________________
#
#PARAMETER_NAME    .UNIT     VALUE                         : DESCRIPTION
#_______________________________________________________________________________
SET                .         BASE                          : 
TLFamily_BS        .         Bit Size                      : 
TLFamily_DT        .         Compressional Slowness        : 
TLFamily_DWAL      .         Aluminum Weight Fraction      : 
TLFamily_DWCA      .         Calcium Weight Fraction       : 
TLFamily_DWFE      .         Iron Weight Fraction          : 
TLFamily_DWGD      .         Gadolinium Weight Fraction    : 
TLFamily_DWS       .         Sulfur Weight Fraction        : 
TLFamily_DWSI      .         Silicon Weight Fraction       : 
TLFamily_DWTI      .         Titanium Weight Fraction      : 
TLFamily_GR        .         Gamma Ray                     : 
TLFamily_GRt       .         Gamma Ray                     : 
TLFamily_HCAL      .         Caliper                       : 
TLFamily_HDRA      .         Bulk Density Correction       : 
TLFamily_HFK       .         Potassium Concentration       : 
TLFamily_HTHO      .         Thorium Concentration         : 
TLFamily_HURA      .         Uranium Concentration         : 
TLFamily_KSDR      .         NMR Permeability              : 
TLFamily_KTIM      .         NMR Permeability              : 
TLFamily_MD        .         Measured Depth                : 
TLFamily_NMRE_Final .         NMR Bound Fluid Volume Fraction: 
TLFamily_NMRFL_Final .         NMR Free Fluids               : 
TLFamily_NMRT_Final .         NMR Porosity                  : 
TLFamily_NPHI      .         Neutron Porosity              : 
TLFamily_PE        .         Photoelectric Factor          : 
TLFamily_RD        .         Resistivity - Deep            : 
TLFamily_RHOB      .         Bulk Density                  : 
TLFamily_RM        .         Resistivity - Medium          : 
TLFamily_RS        .         Resistivity - Shallow         : 
TLFamily_T2LM      .         NMR T2 Logarithmic Mean       : 
TLFamily_TVDSS     .         True Vertical Depth Sub Sea   : 
~Curve Information
#_______________________________________________________________________________
#
#LOGNAME           .UNIT     LOG_ID                        : DESCRIPTION
#_______________________________________________________________________________
DEPTH              .M                                      :  
BS                 .in                                     : Bit Size 
DT                 .us/ft                                  : Delta-T Compressional 
DWAL               .kg/kg                                  : Dry Weight Fraction Pseudo Aluminum (SpectroLith WALK2 Model) 
DWCA               .kg/kg                                  : Dry Weight Fraction Calcium (SpectroLith WALK2 Model) 
DWFE               .kg/kg                                  : Dry Weight Fraction Iron + 0.14 Aluminum (SpectroLith WALK2 Model) 
DWGD               .ppm                                    : Dry Weight Fraction Gadolinium (SpectroLith WALK2 Model) 
DWS                .kg/kg                                  : Dry Weight Fraction Sulfur (SpectroLith WALK2 Model) 
DWSI               .kg/kg                                  : Dry Weight Fraction Silicon (SpectroLith WALK2 Model) 
DWTI               .kg/kg                                  : Dry Weight Fraction Titanium (SpectroLith WALK2 Model) 
GR                 .gAPI                                   : Gamma Ray 
GRt                .gAPI                                   : HNGS Standard Gamma-Ray 
HCAL               .in                                     : HRCC Caliper Calibrated 
HDRA               .g/cm3                                  : Density Standoff Correction 
HFK                .%                                      : HNGS Formation Potassium Concentration 
HTHO               .ppm                                    : HNGS Formation Thorium Concentration 
HURA               .ppm                                    : HNGS Formation Uranium Concentration 
KSDR               .mD                                     : SDR Permeability 
KTIM               .mD                                     : Timur/Coates Permeability 
NMRE_Final         .m3/m3                                  :  
NMRFL_Final        .unitless                               :  
NMRT_Final         .frac                                   :  
NPHI               .frac                                   : Enhanced Thermal Neutron Porosity in Selected Lithology 
PE                 .b/e                                    : Standard Resolution Formation Photoelectric Factor 
RD                 .ohm.m                                  : Apparent Resistivity from Computed Focusing Mode 5 
RHOB               .g/cm3                                  : Standard Resolution Formation Density 
RM                 .ohm.m                                  : Apparent Resistivity from Computed Focusing Mode 4 
RS                 .ohm.m                                  : Apparent Resistivity from Computed Focusing Mode 3 
T2LM               .ms                                     : T2 Logarithmic Mean 
TVDSS              .M                                      :  
~Ascii
# ...
5178.146   12.250     67.881     0.004      0.344      0.003      0.000      0.000      0.059      0.000      28.393     18.213     12.857     0.005      0.344      1.366      0.995      115.900    117.523    0.146      0.125      0.152      0.188      4.021      5.356      2.437      3.647      3.889      233.307    5152.698  
5178.298   12.250     66.567     0.002      0.351      0.001      0.000      0.000      0.054      0.000      28.451     18.627     12.849     -0.002     0.332      1.263      1.141      99.254     104.685    0.143      0.124      0.153      0.179      4.181      5.002      2.458      3.404      3.631      212.699    5152.850  
5178.450   12.250     65.709     0.000      0.363      0.000      0.000      0.004      0.042      0.000      27.462     18.697     12.786     -0.005     0.323      1.234      1.213      94.640     85.613     0.144      0.123      0.155      0.172      4.350      5.046      2.474      3.424      3.651      201.559    5153.002  
5178.603   12.250     64.653     0.000      0.370      0.000      0.000      0.010      0.030      0.000      26.542     19.511     12.843     -0.008     0.322      1.336      1.314      108.488    77.222     0.145      0.122      0.156      0.179      4.500      5.977      2.476      4.048      4.305      214.805    5153.154  
5178.755   12.250     63.929     0.000      0.371      0.000      0.000      0.015      0.027      0.000      26.028     21.563     12.839     -0.007     0.345      1.366      1.519      138.057    80.797     0.148      0.122      0.155      0.186      4.572      5.833      2.475      3.933      4.184      244.641    5153.305  
5178.908   12.250     63.443     0.000      0.365      0.000      0.000      0.017      0.032      0.000      26.532     23.191     12.840     -0.005     0.381      1.433      1.613      168.150    133.337    0.144      0.123      0.146      0.180      4.581      5.776      2.478      3.960      4.215      304.075    5153.457  
5179.060   12.250     63.985     0.000      0.362      0.000      0.000      0.014      0.038      0.000      27.122     23.204     12.837     -0.004     0.386      1.403      1.621      175.454    165.311    0.145      0.130      0.145      0.185      4.572      5.127      2.479      3.601      3.817      314.151    5153.609  
5179.212   12.250     64.130     0.000      0.361      0.000      0.000      0.010      0.041      0.000      26.724     21.580     12.841     -0.005     0.343      1.289      1.559      76.080     103.223    0.140      0.125      0.149      0.180      4.575      4.927      2.479      3.537      3.752      195.677    5153.760  
5179.365   12.250     63.156     0.000      0.362      0.000      0.000      0.005      0.041      0.000      25.442     20.088     12.843     -0.006     0.308      1.105      1.509      22.084     40.361     0.131      0.111      0.151      0.166      4.568      5.033      2.484      3.709      3.938      103.684    5153.912  
5179.517   12.250     61.416     0.001      0.364      0.001      0.000      0.005      0.039      0.000      23.597     19.611     12.846     -0.005     0.307      0.956      1.496      10.468     16.222     0.121      0.094      0.140      0.149      4.526      8.266      2.505      6.326      6.739      82.644     5154.064  
5179.670   12.250     59.725     0.002      0.364      0.002      0.000      0.007      0.034      0.000      22.052     19.135     12.841     -0.004     0.294      0.868      1.505      12.394     13.362     0.108      0.085      0.117      0.123      4.505      9.025      2.533      7.037      7.549      130.366    5154.216  
5179.822   12.250     58.454     0.003      0.369      0.002      0.000      0.006      0.028      0.000      20.895     18.668     12.868     -0.002     0.284      0.814      1.479      17.286     11.680     0.099      0.081      0.101      0.092      4.493      9.080      2.561      7.072      7.594      206.869    5154.367  
5179.974   12.250     58.055     0.003      0.367      0.002      0.000      0.003      0.033      0.000      20.214     17.695     12.873     -0.002     0.275      0.826      1.346      21.421     7.676      0.090      0.078      0.090      0.094      4.539      9.791      2.575      7.681      8.261      289.605    5154.519  
5180.127   12.250     58.585     0.001      0.359      0.001      0.000      0.000      0.046      0.000      20.516     17.584     12.695     -0.000     0.275      0.832      1.299      22.860     4.685      0.083      0.075      0.083      0.104      4.542      14.440     2.588      11.394     12.313     347.540    5154.671  
5180.279   12.250     59.358     0.000      0.348      0.000      0.000      0.000      0.062      0.000      21.713     17.548     12.702     -0.001     0.287      0.731      1.276      22.224     4.017      0.081      0.072      0.081      0.105      4.595      11.057     2.586      8.795      9.545      358.900    5154.822  
5180.432   12.250     59.674     0.000      0.343      0.000      0.000      0.000      0.067      0.000      23.638     17.584     12.713     -0.003     0.304      0.655      1.256      19.281     6.669      0.084      0.073      0.088      0.103      4.619      9.103      2.581      7.274      7.885      286.830    5154.974  
5180.584   12.250     59.503     0.000      0.344      0.000      0.110      0.000      0.066      0.000      24.917     17.443     12.731     -0.004     0.293      0.677      1.249      15.353     7.258      0.087      0.071      0.089      0.100      4.596      7.635      2.583      6.134      6.649      249.492    5155.126  
5180.736   12.250     58.729     0.000      0.346      0.000      0.423      0.000      0.063      0.000      25.463     17.014     12.735     -0.004     0.275      0.760      1.194      11.195     5.162      0.089      0.067      0.089      0.100      4.504      8.004      2.598      6.456      7.007      210.353    5155.278  
5180.889   12.250     57.775     0.001      0.347      0.000      0.516      0.000      0.061      0.001      25.646     16.907     12.723     -0.004     0.266      0.856      1.167      7.932      3.053      0.090      0.061      0.090      0.097      4.418      11.550     2.613      9.419      10.233     173.792    5155.429  
5181.041   12.250     56.612     0.001      0.349      0.000      0.775      0.000      0.059      0.002      25.551     16.916     12.612     -0.006     0.265      0.954      1.131      5.854      2.036      0.090      0.057      0.090      0.090      4.375      8.573      2.620      7.160      7.844      149.080    5155.581  
5181.194   12.250     55.540     0.001      0.351      0.000      2.197      0.000      0.056      0.002      24.839     17.506     12.614     -0.005     0.266      1.072      1.167      4.210      1.401      0.085      0.053      0.085      0.081      4.324      18.215     2.630      15.153     16.566     141.837    5155.733  
5181.346   12.250     54.803     0.000      0.353      0.000      3.343      0.000      0.055      0.001      24.288     18.574     12.607     -0.002     0.283      1.164      1.224      2.243      0.838      0.073      0.046      0.073      0.083      4.273      23.858     2.639      19.835     21.890     140.228    5155.884  
5181.498   12.250     54.991     0.000      0.355      0.000      2.563      0.002      0.052      0.000      24.237     19.771     12.624     0.008      0.300      1.295      1.282      1.466      0.760      0.067      0.044      0.067      0.092      4.301      20.409     2.650      17.205     19.049     136.873    5156.036  
5181.651   12.250     55.840     0.001      0.355      0.001      0.457      0.009      0.046      0.000      25.202     20.025     12.622     0.008      0.306      1.312      1.288      1.978      1.572      0.072      0.051      0.072      0.098      4.387      28.989     2.634      24.646     27.432     140.222    5156.188  
5181.803   12.250     56.662     0.003      0.352      0.002      0.000      0.018      0.042      0.000      25.278     19.651     12.623     0.004      0.304      1.302      1.252      7.021      7.591      0.091      0.070      0.091      0.098      4.542      26.092     2.607      22.685     25.364     160.844    5156.340  
