~Version
 VERS              .         2.0                           : CWLS LOG ASCII STANDARD - VERSION 2.0
 WRAP              .         NO                            : ONE LINE PER DEPTH STEP
 DLM               .         SPACE                         : DELIMITING CHARACTER(SPACE TAB OR COMMA)
~Well Information
#_______________________________________________________________________________
#
#PARAMETER_NAME    .UNIT     VALUE                         : DESCRIPTION
#_______________________________________________________________________________
STRT               .M        5060.036                      : First reference value
STOP               .M        5304.790                      : Last reference value
STEP               .M        0.152                         : Step increment
NULL               .         -9999                         : Missing value
COMP               .         PETROBRAS                     : Company
WELL               .         8-SPH-11-SPS                  : Well name
FLD                .         SAPINHOA                      : Field
LOC                .                                       : Location
PROV               .                                       : Province
SRVC               .                                       : Service Company
DATE               .         23/09/2015                    : Date
UWI                .         8-SPH-11-SPS                  : Unique Well ID
APD                .M        24                            : Elevation of Depth Reference (LMF) Above Permanent Datum
API                .                                       : API NUMBER
BHS                .         OPEN                          : Borehole Status (Open or Cased Hole)
BHT                .degF     135                           : Bottom Hole Temperature
BLI                .M        5299.5                        : Bottom Log Interval
BS                 .in       12.25                         : Bit Size
CBDR               .M        5086                          : Casing Bottom (Driller)
CBLO               .M        5084                          : Casing Bottom (Logger)
CSIZ               .in       14                            : Casing Outer Diameter
CWEI               .lbm/ft   115                           : Casing Weight
CTRY               .         BRASIL                        : Nation
DCS                .         22/09/2015                    : Date Circulation Stopped
DFD                .lb/gal   9.7                           : Drilling Fluid Density
DFT                .         Cationico Flex Drill(Base Agua): Drilling Fluid Type
DLAB               .         23/09/2015                    : Date Logging on Bottom
EDF                .M        24                            : Elevation of Drill Floor
EGL                .M        -2165                         : Elevation of Ground Level
EKB                .M        24                            : Elevation of Kelly Bushing
EPD                .M        0                             : Elevation of Permanent Datum (PDAT) above Mean Sea Level
LMF                .         MR                            : Logging Measured From (Name of Logging Elevation Reference)
LUL                .          BRMA                         : Logging Unit Location
LUN                .         OSU-PA 7032                   : Logging Unit Number
LONG               .         -43_13_56,159                 : Longitude
MCST               .degF     77.1                          : Mudcake Sample Temperature
MFST               .degF     78.3                          : Mud Filtrate Sample Temperature
MRT                .degF     135                           : Maximum Recorded Temperature
MST                .degF     77.9                          : Mud Sample Temperature
ORIGINALWELLNAME   .         P09                           : 
PDAT               .         NM                            : Permanent Datum
PRODUCER-CODE      .         440                           : 
PRODUCER-NAME      .         Schlumberger                  : 
RMB                .ohm.m    0.0430009                     : Resistivity of Mud at Bottom Hole Temperature
RMCS               .ohm.m    0.08                          : Resistivity of Mud Cake Sample
RMFS               .ohm.m    0.062                         : Resistivity of Mud Filtrate Sample
RMS                .ohm.m    0.072                         : Resistivity of Mud Sample
RUN                .         3                             : Run Number
STAT               .         SAO PAULO                     : State or Province
TCS                .h        10_30                         : Time Circulation Stopped
TDD                .M        5301                          : Total Depth (Driller)
TDL                .M        5301.5                        : Logger Total Depth
TLAB               .h        23_45                         : Time Logging on Bottom
TLI                .M        5084                          : Top Log Interval
X                  .M        677112.00000000               : 
Y                  .M        7136745.00000000              : 
~Parameter Information Block
#_______________________________________________________________________________
#
#PARAMETER_NAME    .UNIT     VALUE                         : DESCRIPTION
#_______________________________________________________________________________
SET                .         BASE                          : 
TLFamily_BS        .         Bit Size                      : 
TLFamily_DT        .         Compressional Slowness        : 
TLFamily_DWAL      .         Aluminum Weight Fraction      : 
TLFamily_DWCA      .         Calcium Weight Fraction       : 
TLFamily_DWFE      .         Iron Weight Fraction          : 
TLFamily_DWGD      .         Gadolinium Weight Fraction    : 
TLFamily_DWS       .         Sulfur Weight Fraction        : 
TLFamily_DWSI      .         Silicon Weight Fraction       : 
TLFamily_DWTI      .         Titanium Weight Fraction      : 
TLFamily_GR        .         Gamma Ray                     : 
TLFamily_GRt       .         Gamma Ray                     : 
TLFamily_HCAL      .         Caliper                       : 
TLFamily_HDRA      .         Bulk Density Correction       : 
TLFamily_HFK       .         Potassium Concentration       : 
TLFamily_HTHO      .         Thorium Concentration         : 
TLFamily_HURA      .         Uranium Concentration         : 
TLFamily_KSDR      .         NMR Permeability              : 
TLFamily_KTIM      .         NMR Permeability              : 
TLFamily_MD        .         Measured Depth                : 
TLFamily_NMRE_Final .         NMR Bound Fluid Volume Fraction: 
TLFamily_NMRFL_Final .         NMR Free Fluids               : 
TLFamily_NMRT_Final .         NMR Porosity                  : 
TLFamily_NPHI      .         Neutron Porosity              : 
TLFamily_PE        .         Photoelectric Factor          : 
TLFamily_RD        .         Resistivity - Deep            : 
TLFamily_RHOB      .         Bulk Density                  : 
TLFamily_RM        .         Resistivity - Medium          : 
TLFamily_RS        .         Resistivity - Shallow         : 
TLFamily_T2LM      .         NMR T2 Logarithmic Mean       : 
TLFamily_TVDSS     .         True Vertical Depth Sub Sea   : 
~Curve Information
#_______________________________________________________________________________
#
#LOGNAME           .UNIT     LOG_ID                        : DESCRIPTION
#_______________________________________________________________________________
DEPTH              .M                                      :  
BS                 .in                                     : Bit Size 
DT                 .us/ft                                  : Delta-T Compressional 
DWAL               .kg/kg                                  : Dry Weight Fraction Pseudo Aluminum (SpectroLith WALK2 Model) 
DWCA               .kg/kg                                  : Dry Weight Fraction Calcium (SpectroLith WALK2 Model) 
DWFE               .kg/kg                                  : Dry Weight Fraction Iron + 0.14 Aluminum (SpectroLith WALK2 Model) 
DWGD               .ppm                                    : Dry Weight Fraction Gadolinium (SpectroLith WALK2 Model) 
DWS                .kg/kg                                  : Dry Weight Fraction Sulfur (SpectroLith WALK2 Model) 
DWSI               .kg/kg                                  : Dry Weight Fraction Silicon (SpectroLith WALK2 Model) 
DWTI               .kg/kg                                  : Dry Weight Fraction Titanium (SpectroLith WALK2 Model) 
GR                 .gAPI                                   : Gamma Ray 
GRt                .gAPI                                   : HNGS Standard Gamma-Ray 
HCAL               .in                                     : HRCC Caliper Calibrated 
HDRA               .g/cm3                                  : Density Standoff Correction 
HFK                .%                                      : HNGS Formation Potassium Concentration 
HTHO               .ppm                                    : HNGS Formation Thorium Concentration 
HURA               .ppm                                    : HNGS Formation Uranium Concentration 
KSDR               .mD                                     : SDR Permeability 
KTIM               .mD                                     : Timur/Coates Permeability 
NMRE_Final         .m3/m3                                  :  
NMRFL_Final        .unitless                               :  
NMRT_Final         .frac                                   :  
NPHI               .frac                                   : Enhanced Thermal Neutron Porosity in Selected Lithology 
PE                 .b/e                                    : Standard Resolution Formation Photoelectric Factor 
RD                 .ohm.m                                  : Apparent Resistivity from Computed Focusing Mode 5 
RHOB               .g/cm3                                  : Standard Resolution Formation Density 
RM                 .ohm.m                                  : Apparent Resistivity from Computed Focusing Mode 4 
RS                 .ohm.m                                  : Apparent Resistivity from Computed Focusing Mode 3 
T2LM               .ms                                     : T2 Logarithmic Mean 
TVDSS              .M                                      :  
~Ascii
# ...
5105.756   12.250     56.715     0.001      0.289      0.001      0.000      0.008      0.124      0.000      38.644     30.152     12.333     -0.009     0.493      1.292      2.168      0.145      0.056      0.039      0.027      0.045      0.082      4.010      393.962    2.640      283.591    371.787    94.979     5080.654  
5105.908   12.250     55.737     0.000      0.294      0.000      0.000      0.003      0.123      0.000      29.517     22.417     12.326     -0.010     0.382      0.983      1.566      0.205      0.075      0.040      0.028      0.046      0.060      4.052      424.198    2.654      302.001    400.556    107.308    5080.806  
5106.060   12.250     55.001     0.000      0.300      0.000      0.000      0.000      0.117      0.000      23.461     17.852     12.323     -0.010     0.308      0.740      1.241      0.312      0.114      0.042      0.030      0.049      0.053      4.099      675.922    2.658      425.349    641.044    118.235    5080.958  
5106.213   12.250     55.131     0.000      0.309      0.000      0.561      0.000      0.107      0.000      21.125     14.720     12.323     -0.010     0.258      0.607      1.023      0.727      0.190      0.047      0.033      0.052      0.053      4.154      1236.072   2.655      604.703    1052.974   156.865    5081.109  
5106.365   12.250     55.528     0.000      0.321      0.000      1.752      0.000      0.093      0.000      19.420     12.817     12.327     -0.011     0.257      0.644      0.787      3.086      0.365      0.056      0.040      0.057      0.059      4.228      1266.788   2.642      609.368    1056.145   268.432    5081.261  
5106.518   12.250     55.696     0.000      0.331      0.000      1.467      0.000      0.081      0.000      18.389     12.176     12.322     -0.011     0.266      0.719      0.670      2.854      0.695      0.060      0.043      0.064      0.065      4.260      1028.617   2.635      544.671    907.612    205.403    5081.412  
5106.670   12.250     55.359     0.000      0.334      0.000      0.814      0.000      0.078      0.000      18.311     11.766     12.320     -0.008     0.271      0.741      0.593      1.566      0.616      0.063      0.043      0.074      0.070      4.227      1156.510   2.642      581.477    938.884    115.563    5081.564  
5106.822   12.250     54.895     0.000      0.331      0.000      1.271      0.001      0.080      0.000      19.188     11.342     12.318     -0.005     0.276      0.784      0.512      1.710      0.647      0.067      0.044      0.077      0.071      4.151      1272.379   2.655      605.169    996.114    110.582    5081.716  
5106.975   12.250     54.574     0.000      0.326      0.000      1.464      0.005      0.085      0.000      20.461     11.252     12.318     -0.003     0.260      0.772      0.541      3.190      0.897      0.071      0.047      0.075      0.073      4.061      1166.773   2.664      573.641    930.887    158.756    5081.867  
5107.127   12.250     54.743     0.000      0.321      0.000      1.194      0.010      0.087      0.000      21.587     12.005     12.318     -0.004     0.249      0.750      0.683      5.476      1.372      0.074      0.050      0.074      0.073      3.979      932.067    2.657      519.900    830.423    216.232    5082.019  
5107.280   12.250     55.928     0.000      0.316      0.000      0.358      0.012      0.092      0.000      22.814     13.620     12.316     -0.006     0.255      0.782      0.854      7.155      2.200      0.075      0.055      0.075      0.078      3.878      839.004    2.643      483.304    769.783    234.934    5082.170  
5107.432   12.250     57.326     0.000      0.310      0.000      0.092      0.013      0.099      0.000      24.016     15.324     12.322     -0.008     0.243      0.809      1.089      6.054      1.657      0.076      0.052      0.076      0.085      3.779      991.084    2.631      525.405    852.214    212.153    5082.322  
5107.584   12.250     58.318     0.001      0.303      0.001      0.646      0.010      0.107      0.000      24.501     16.876     12.320     -0.007     0.237      0.750      1.330      3.396      0.870      0.075      0.047      0.076      0.089      3.703      659.940    2.633      414.379    631.443    158.480    5082.474  
5107.737   12.250     59.217     0.002      0.299      0.001      1.858      0.004      0.112      0.000      26.216     19.158     12.316     -0.005     0.246      0.783      1.600      1.921      0.448      0.072      0.041      0.074      0.089      3.681      596.661    2.639      377.041    546.111    126.941    5082.625  
5107.889   12.250     59.435     0.002      0.293      0.001      1.960      0.000      0.122      0.000      32.904     25.167     12.318     -0.005     0.288      0.915      2.238      1.739      0.306      0.067      0.037      0.067      0.099      3.686      397.572    2.645      281.522    378.258    146.263    5082.777  
5108.042   12.250     59.435     0.000      0.281      0.000      1.061      0.000      0.140      0.000      43.211     33.861     12.318     -0.005     0.352      1.163      3.096      1.415      0.274      0.058      0.035      0.058      0.117      3.624      251.122    2.650      192.959    253.422    179.837    5082.928  
5108.194   12.250     60.028     0.000      0.259      0.000      0.000      0.000      0.165      0.000      49.906     39.072     12.318     -0.004     0.396      1.341      3.579      0.385      0.116      0.046      0.031      0.049      0.127      3.458      677.739    2.647      397.469    544.948    128.498    5083.080  
5108.346   12.250     63.219     0.000      0.243      0.000      0.000      0.000      0.184      0.000      50.723     39.169     12.320     -0.005     0.395      1.331      3.595      0.287      0.126      0.046      0.032      0.054      0.114      3.287      1279.101   2.619      579.743    945.871    95.553     5083.232  
5108.499   12.250     67.252     0.001      0.235      0.001      0.909      0.000      0.191      0.000      51.056     39.847     12.324     -0.010     0.389      1.266      3.725      0.621      0.291      0.056      0.037      0.067      0.106      3.259      2598.507   2.574      771.735    1499.532   88.733     5083.383  
5108.651   12.250     68.926     0.004      0.242      0.002      3.030      0.000      0.177      0.000      53.619     45.299     12.316     -0.012     0.451      1.370      4.241      2.066      0.640      0.072      0.045      0.082      0.129      3.521      4090.868   2.530      880.024    1803.156   106.394    5083.535  
5108.804   12.250     68.223     0.004      0.266      0.002      3.881      0.000      0.149      0.000      51.952     47.481     12.320     -0.010     0.512      1.498      4.323      9.982      2.035      0.095      0.059      0.100      0.146      3.916      2540.887   2.524      746.760    1392.535   158.405    5083.686  
5108.956   12.250     65.077     0.002      0.301      0.001      4.129      0.000      0.113      0.000      42.575     39.528     12.322     -0.008     0.467      1.318      3.485      13.364     2.970      0.093      0.063      0.097      0.132      4.308      1320.933   2.534      564.508    974.357    195.482    5083.838  
5109.108   12.250     62.772     0.000      0.326      0.000      3.587      0.000      0.087      0.000      30.206     26.006     12.335     -0.008     0.338      0.868      2.215      9.489      3.525      0.087      0.064      0.094      0.121      4.491      1464.051   2.553      603.304    1039.340   173.979    5083.990  
5109.261   12.250     62.241     0.001      0.334      0.000      3.823      0.000      0.076      0.000      22.974     16.197     12.335     -0.009     0.226      0.663      1.299      5.042      3.411      0.083      0.064      0.096      0.113      4.524      2052.133   2.561      707.516    1265.241   121.744    5084.141  
5109.413   12.250     62.031     0.001      0.334      0.001      4.365      0.000      0.075      0.000      20.103     13.224     12.331     -0.009     0.203      0.645      0.973      2.740      2.472      0.080      0.061      0.101      0.110      4.519      1202.278   2.564      555.775    910.574    80.846     5084.293  
