~Version
 VERS              .         2.0                           : CWLS LOG ASCII STANDARD - VERSION 2.0
 WRAP              .         NO                            : ONE LINE PER DEPTH STEP
 DLM               .         SPACE                         : DELIMITING CHARACTER(SPACE TAB OR COMMA)
~Well Information
#_______________________________________________________________________________
#
#PARAMETER_NAME    .UNIT     VALUE                         : DESCRIPTION
#_______________________________________________________________________________
STRT               .M        5038.900                      : First reference value
STOP               .M        5526.275                      : Last reference value
STEP               .M        0.152                         : Step increment
NULL               .         -9999                         : Missing value
COMP               .         PETROBRAS                     : Company
WELL               .         8-SPH-23-SPS                  : Well name
FLD                .         SAPINHOA                      : Field
LOC                .                                       : Location
PROV               .                                       : Province
SRVC               .                                       : Service Company
DATE               .         2021-09-13 11_18_58           : Date
UWI                .         8-SPH-23-SPS                  : Unique Well ID
APD                .M        24.0                          : ABOVE PERMANENT DATUM
API                .         863160047300                  : API Code
BHT                .degF     160                           : BOTTOMHOLE TEMPERATURE
BLI                .M        5511.3                        : BOTTOM LOGGED INTERVAL
BS                 .in       12.25                         : BIT SIZE
CTRY               .         BRASIL                        : Nation
DCS                .         10/04/2016                    : DATE CIRCULATION STOPPED
DFD                .lb/gal   9.4                           : DRILLING FLUID DENSITY
DFT                .         OLEDRILL (BASE OLEFINA)       : DRILLING FLUID TYPE
DLAB               .         12/04/2016                    : DATE LOGGING ON BOTTOM
EDF                .M        24.0                          : ELEVATION OF DRILLING FLOOR
EGL                .M        -2146.0                       : ELEVATION OF GROUND LEVEL
EKB                .M        24.0                          : ELEVATION OF KELLY BUSHING
EPD                .M        0.0                           : ELEVATATION OF PERMANENT DATUM
GDAT               .         SIRGAS2000                    : Geodetic Datum
LMF                .         MR                            : LOG MEASURED FROM
LUL                .         MCE                           : LOGGING UNIT LOCATION
LUN                .         12247255                      : LOGGING UNIT NUMBER
LATI               .         -25_42_01.290                 : Latitude
LONG               .         -43_11_39,303                 : LONGITUDE
MCST               .degF     -999.25                       : MUDCAKE SAMPLE TEMPERATURE
MFST               .degF     -999.25                       : MUD FILTRATE SAMPLE TEMPERATURE
MRT                .degF     160.0                         : MAXIMUM RECORDED TEMPERATURE
MST                .degF     -999.25                       : MUD SAMPLE TEMPERATURE
ORIGINALWELLNAME   .         8SPH 0023  SPS                : 
PDAT               .         NM                            : PERMANENT DATUM
PRODUCER-CODE      .         280                           : 
PRODUCER-NAME      .         Halliburton                   : 
RMB                .ohm.m    -999.25                       : RESISTIVITY OF MUD - BHT
RMCS               .ohm.m    -999.25                       : RESISTIVITY OF MUDCAKE SAMPLE
RMFS               .ohm.m    -999.25                       : RESISTIVITY OF MUD FILTRATE SAMPLE
RMS                .ohm.m    -999.25                       : RESISTIVITY OF MUD SAMPLE
RUN                .         02                            : RUN NUMBER 1
STAT               .         SAO PAULO                     : STATE
TCS                .h        03_30                         : TIME CIRCULATION STOPPED
TDD                .M        5517.0                        : DRILLERS DEPTH
TDL                .M        5520.0                        : LOGGERS DEPTH
TLAB               .h        07_30                         : TIME LOGGING ON BOTTOM
TLI                .M        5070.0                        : TOP LOGGED INTERVAL
X                  .M        681190.00000000               : X UTM Coordinate
Y                  .M        7156260.00000000              : Y UTM Coordinate
~Parameter Information Block
#_______________________________________________________________________________
#
#PARAMETER_NAME    .UNIT     VALUE                         : DESCRIPTION
#_______________________________________________________________________________
SET                .         BASE                          : 
TLFamily_BS        .         Bit Size                      : 
TLFamily_DT        .         Compressional Slowness        : 
TLFamily_DWAL      .         Aluminum Weight Fraction      : 
TLFamily_DWCA      .         Calcium Weight Fraction       : 
TLFamily_DWFE      .         Iron Weight Fraction          : 
TLFamily_DWK       .         Potassium Weight Fraction     : 
TLFamily_DWMG      .         Magnesium Weight Fraction     : 
TLFamily_DWMN      .         Manganese Weight Fraction     : 
TLFamily_DWS       .         Sulfur Weight Fraction        : 
TLFamily_DWSI      .         Silicon Weight Fraction       : 
TLFamily_DWTI      .         Titanium Weight Fraction      : 
TLFamily_GR        .         Gamma Ray                     : 
TLFamily_GRt       .         Gamma Ray                     : 
TLFamily_HCAL      .         Caliper                       : 
TLFamily_HFK       .         Potassium Concentration       : 
TLFamily_HTHO      .         Thorium Concentration         : 
TLFamily_HURA      .         Uranium Concentration         : 
TLFamily_MD        .         Measured Depth                : 
TLFamily_MPERM     .         NMR Permeability              : 
TLFamily_NMRE_Final .         NMR Bound Fluid Volume Fraction: 
TLFamily_NMRFL_Final .         NMR Free Fluids               : 
TLFamily_NMRT_Final .         NMR Porosity                  : 
TLFamily_NPHI      .         Neutron Porosity              : 
TLFamily_PE        .         Photoelectric Factor          : 
TLFamily_RD        .         Resistivity - Deep            : 
TLFamily_RHOB      .         Bulk Density                  : 
TLFamily_RM        .         Resistivity - Medium          : 
TLFamily_RS        .         Resistivity - Shallow         : 
TLFamily_T2LM      .         NMR T2 Logarithmic Mean       : 
TLFamily_TVDSS     .         True Vertical Depth Sub Sea   : 
~Curve Information
#_______________________________________________________________________________
#
#LOGNAME           .UNIT     LOG_ID                        : DESCRIPTION
#_______________________________________________________________________________
DEPTH              .M                                      :  
BS                 .in                                     : BS/Bit Size 
DT                 .us/ft                                  : DTC/MonoDeltaT 
DWAL               .kg/kg                                  : DAL/DryrockAlWF 
DWCA               .kg/kg                                  : DCA/DryrockCaWF 
DWFE               .kg/kg                                  : DFE/DryrockFeWF 
DWK                .kg/kg                                  : DK/DryrockKWF 
DWMG               .kg/kg                                  : DMG/DryrockMgWF 
DWMN               .kg/kg                                  : DMN/DryrockMnWF 
DWS                .kg/kg                                  : DSUL/DryrockSuWF 
DWSI               .kg/kg                                  : DSI/DryrockSiWF 
DWTI               .kg/kg                                  : DTI/DryrockTiWF 
GR                 .gAPI                                   : GR/Gamma API 
GRt                .gAPI                                   : GKUT/GammaKUT 
HCAL               .in                                     : CALI/Caliper 
HFK                .%                                      : POTA/Potassium 
HTHO               .ppm                                    : THOR/Thorium 
HURA               .ppm                                    : URAN/Uranium 
MPERM              .mD                                     : MPERMT2/MrilT2KCoat 
NMRE_Final         .m3/m3                                  : MPHIT2/TA-grp T2 Effective Por 
NMRFL_Final        .unitless                               : MFFIT2/TA-grp T2 FreeFluid Ind 
NMRT_Final         .frac                                   : MSIGT2/TA-grp T2 Total Por. 
NPHI               .frac                                   : POROSIDADE NEUTRONICA (COMPOSICAO DE CURVAS CABO E/OU LWD) 
PE                 .b/e                                    : Density PE Filtered 
RD                 .ohm.m                                  : RT90/90in Resistivity 2ft Res 
RHOB               .g/cm3                                  : DENSIDADE (COMPOSICAO DE CURVAS CABO E/OU LWD ) 
RM                 .ohm.m                                  : RT30/30in Resistivity 2ft Res 
RS                 .ohm.m                                  : RT10/10in Resistivity 2ft Res 
T2LM               .ms                                     : T2LM/T2 Log Mean 
TVDSS              .M                                      :  
~Ascii
# ...
5408.470   12.250     61.398     0.019      0.089      0.002      0.023      0.000      0.000      0.009      0.329      0.000      24.289     30.119     12.439     0.180      1.544      2.479      1.135      0.086      0.051      0.089      0.085      9.195      23.356     2.362      29.211     42.694     91.790     5350.022  
5408.622   12.250     61.300     0.017      0.112      0.002      0.021      0.000      0.000      0.010      0.304      0.000      23.217     30.129     12.432     0.167      1.413      2.549      1.350      0.083      0.053      0.091      0.080      9.367      23.031     2.389      28.493     41.938     83.825     5350.175  
5408.775   12.250     61.318     0.016      0.136      0.002      0.020      0.000      0.000      0.009      0.279      0.000      22.190     29.802     12.521     0.129      1.102      2.693      1.673      0.083      0.056      0.093      0.074      9.433      22.791     2.421      27.763     41.718     86.109     5350.327  
5408.927   12.250     61.116     0.016      0.148      0.002      0.020      0.000      0.001      0.008      0.265      0.000      21.847     29.101     12.566     0.078      0.858      2.792      1.826      0.084      0.057      0.093      0.076      9.318      22.220     2.438      26.618     40.182     78.290     5350.479  
5409.079   12.250     60.394     0.016      0.148      0.002      0.020      0.000      0.001      0.008      0.265      0.000      22.259     27.340     12.520     0.035      0.570      2.775      1.216      0.085      0.052      0.097      0.078      9.133      21.399     2.433      25.066     37.644     56.570     5350.632  
5409.232   12.250     60.435     0.016      0.137      0.002      0.020      0.000      0.000      0.008      0.276      0.000      21.365     25.619     12.400     0.026      0.435      2.648      0.995      0.095      0.050      0.106      0.079      9.007      21.312     2.420      24.669     37.295     51.333     5350.784  
5409.384   12.250     60.821     0.018      0.115      0.003      0.023      0.000      0.000      0.007      0.298      0.001      17.046     23.256     12.305     0.043      0.398      2.369      1.125      0.108      0.051      0.117      0.084      8.929      22.705     2.383      26.151     41.594     54.279     5350.936  
5409.537   12.250     61.049     0.020      0.102      0.004      0.025      0.000      0.000      0.008      0.310      0.001      14.230     21.628     12.319     0.081      0.467      2.097      1.121      0.112      0.051      0.120      0.085      8.877      24.501     2.354      28.252     47.613     57.796     5351.089  
5409.689   12.250     61.378     0.021      0.095      0.004      0.026      0.000      0.000      0.010      0.316      0.001      13.248     20.312     12.359     0.117      0.655      1.821      0.895      0.116      0.048      0.119      0.087      8.804      24.926     2.361      28.543     48.811     71.085     5351.241  
5409.841   12.250     61.620     0.021      0.088      0.004      0.027      0.000      0.000      0.014      0.321      0.001      13.151     19.258     12.352     0.166      0.898      1.529      0.871      0.113      0.047      0.118      0.094      8.797      20.654     2.386      22.780     34.657     77.182     5351.393  
5409.994   12.250     61.946     0.021      0.089      0.004      0.026      0.000      0.000      0.015      0.320      0.001      13.149     19.330     12.425     0.188      0.962      1.476      1.074      0.103      0.051      0.115      0.088      8.889      18.605     2.390      20.161     28.764     67.124     5351.546  
5410.146   12.250     61.734     0.019      0.099      0.005      0.023      0.000      0.000      0.019      0.310      0.000      14.901     21.412     12.402     0.199      0.978      1.682      1.498      0.089      0.055      0.105      0.076      8.928      17.697     2.404      18.864     25.312     69.353     5351.698  
5410.299   12.250     61.291     0.017      0.106      0.004      0.021      0.000      0.000      0.022      0.303      0.000      16.826     23.425     12.396     0.197      1.011      1.897      1.653      0.083      0.055      0.092      0.075      8.881      18.395     2.440      19.498     25.591     96.626     5351.850  
5410.451   12.250     60.807     0.016      0.108      0.003      0.020      0.000      0.000      0.023      0.303      0.000      20.842     27.064     12.442     0.192      1.084      2.285      0.538      0.075      0.043      0.080      0.076      8.807      22.652     2.466      23.923     30.892     94.540     5352.003  
5410.603   12.250     60.299     0.015      0.106      0.003      0.019      0.000      0.001      0.021      0.308      0.000      24.061     29.248     12.512     0.184      1.253      2.481      0.101      0.065      0.027      0.073      0.068      8.737      26.945     2.487      28.399     36.386     56.435     5352.155  
5410.756   12.250     58.613     0.015      0.113      0.003      0.019      0.000      0.001      0.017      0.302      0.000      26.218     32.054     12.536     0.155      1.622      2.709      0.033      0.051      0.020      0.063      0.053      8.666      33.885     2.509      35.378     44.570     35.116     5352.307  
5410.908   12.250     58.328     0.017      0.125      0.003      0.021      0.000      0.001      0.013      0.287      0.000      26.164     33.574     12.529     0.138      1.769      2.853      0.028      0.042      0.020      0.053      0.047      8.615      36.685     2.547      37.933     47.632     31.229     5352.460  
5411.061   12.250     57.708     0.019      0.145      0.003      0.023      0.000      0.001      0.008      0.264      0.000      28.380     36.032     12.524     0.134      2.067      3.026      0.017      0.038      0.017      0.050      0.048      8.607      34.572     2.572      35.203     41.997     25.518     5352.612  
5411.213   12.250     57.282     0.020      0.158      0.003      0.025      0.000      0.001      0.005      0.248      0.000      30.365     37.353     12.544     0.145      2.124      3.132      0.010      0.040      0.014      0.051      0.065      8.775      29.779     2.565      30.151     30.362     23.252     5352.764  
5411.365   12.250     56.907     0.020      0.183      0.004      0.025      0.001      0.001      0.004      0.217      0.000      30.663     38.860     12.527     0.179      1.992      3.291      0.012      0.048      0.015      0.054      0.078      9.039      23.047     2.544      23.292     25.477     31.645     5352.916  
5411.518   12.250     56.429     0.020      0.200      0.006      0.025      0.001      0.001      0.004      0.195      0.000      30.207     39.480     12.499     0.214      1.809      3.366      0.022      0.056      0.017      0.063      0.086      9.183      19.759     2.518      20.003     22.989     34.640     5353.069  
5411.670   12.250     56.292     0.020      0.194      0.006      0.025      0.001      0.001      0.007      0.200      0.001      30.103     38.848     12.451     0.261      1.498      3.327      0.038      0.055      0.020      0.074      0.081      9.248      20.377     2.503      20.811     23.408     22.517     5353.221  
5411.823   12.250     56.206     0.018      0.176      0.007      0.023      0.000      0.000      0.010      0.223      0.000      30.110     38.041     12.410     0.301      1.235      3.264      0.062      0.052      0.023      0.079      0.063      9.338      23.521     2.503      24.376     26.982     16.295     5353.373  
5411.975   12.250     56.108     0.015      0.145      0.006      0.019      0.000      0.000      0.014      0.263      0.000      29.598     36.701     12.387     0.311      1.071      3.156      0.065      0.051      0.024      0.072      0.051      9.451      30.152     2.511      32.551     35.420     19.440     5353.526  
5412.127   12.250     56.494     0.014      0.121      0.005      0.017      0.000      0.000      0.016      0.293      0.000      28.739     35.826     12.401     0.296      0.888      3.153      0.047      0.053      0.022      0.065      0.056      9.491      34.069     2.512      38.479     41.655     35.286     5353.678  
