~Version
 VERS              .         2.0                           : CWLS LOG ASCII STANDARD - VERSION 2.0
 WRAP              .         NO                            : ONE LINE PER DEPTH STEP
 DLM               .         SPACE                         : DELIMITING CHARACTER(SPACE TAB OR COMMA)
~Well Information
#_______________________________________________________________________________
#
#PARAMETER_NAME    .UNIT     VALUE                         : DESCRIPTION
#_______________________________________________________________________________
STRT               .M        5060.036                      : First reference value
STOP               .M        5304.790                      : Last reference value
STEP               .M        0.152                         : Step increment
NULL               .         -9999                         : Missing value
COMP               .         PETROBRAS                     : Company
WELL               .         8-SPH-11-SPS                  : Well name
FLD                .         SAPINHOA                      : Field
LOC                .                                       : Location
PROV               .                                       : Province
SRVC               .                                       : Service Company
DATE               .         23/09/2015                    : Date
UWI                .         8-SPH-11-SPS                  : Unique Well ID
APD                .M        24                            : Elevation of Depth Reference (LMF) Above Permanent Datum
API                .                                       : API NUMBER
BHS                .         OPEN                          : Borehole Status (Open or Cased Hole)
BHT                .degF     135                           : Bottom Hole Temperature
BLI                .M        5299.5                        : Bottom Log Interval
BS                 .in       12.25                         : Bit Size
CBDR               .M        5086                          : Casing Bottom (Driller)
CBLO               .M        5084                          : Casing Bottom (Logger)
CSIZ               .in       14                            : Casing Outer Diameter
CWEI               .lbm/ft   115                           : Casing Weight
CTRY               .         BRASIL                        : Nation
DCS                .         22/09/2015                    : Date Circulation Stopped
DFD                .lb/gal   9.7                           : Drilling Fluid Density
DFT                .         Cationico Flex Drill(Base Agua): Drilling Fluid Type
DLAB               .         23/09/2015                    : Date Logging on Bottom
EDF                .M        24                            : Elevation of Drill Floor
EGL                .M        -2165                         : Elevation of Ground Level
EKB                .M        24                            : Elevation of Kelly Bushing
EPD                .M        0                             : Elevation of Permanent Datum (PDAT) above Mean Sea Level
LMF                .         MR                            : Logging Measured From (Name of Logging Elevation Reference)
LUL                .          BRMA                         : Logging Unit Location
LUN                .         OSU-PA 7032                   : Logging Unit Number
LONG               .         -43_13_56,159                 : Longitude
MCST               .degF     77.1                          : Mudcake Sample Temperature
MFST               .degF     78.3                          : Mud Filtrate Sample Temperature
MRT                .degF     135                           : Maximum Recorded Temperature
MST                .degF     77.9                          : Mud Sample Temperature
ORIGINALWELLNAME   .         P09                           : 
PDAT               .         NM                            : Permanent Datum
PRODUCER-CODE      .         440                           : 
PRODUCER-NAME      .         Schlumberger                  : 
RMB                .ohm.m    0.0430009                     : Resistivity of Mud at Bottom Hole Temperature
RMCS               .ohm.m    0.08                          : Resistivity of Mud Cake Sample
RMFS               .ohm.m    0.062                         : Resistivity of Mud Filtrate Sample
RMS                .ohm.m    0.072                         : Resistivity of Mud Sample
RUN                .         3                             : Run Number
STAT               .         SAO PAULO                     : State or Province
TCS                .h        10_30                         : Time Circulation Stopped
TDD                .M        5301                          : Total Depth (Driller)
TDL                .M        5301.5                        : Logger Total Depth
TLAB               .h        23_45                         : Time Logging on Bottom
TLI                .M        5084                          : Top Log Interval
X                  .M        677112.00000000               : 
Y                  .M        7136745.00000000              : 
~Parameter Information Block
#_______________________________________________________________________________
#
#PARAMETER_NAME    .UNIT     VALUE                         : DESCRIPTION
#_______________________________________________________________________________
SET                .         BASE                          : 
TLFamily_BS        .         Bit Size                      : 
TLFamily_DT        .         Compressional Slowness        : 
TLFamily_DWAL      .         Aluminum Weight Fraction      : 
TLFamily_DWCA      .         Calcium Weight Fraction       : 
TLFamily_DWFE      .         Iron Weight Fraction          : 
TLFamily_DWGD      .         Gadolinium Weight Fraction    : 
TLFamily_DWS       .         Sulfur Weight Fraction        : 
TLFamily_DWSI      .         Silicon Weight Fraction       : 
TLFamily_DWTI      .         Titanium Weight Fraction      : 
TLFamily_GR        .         Gamma Ray                     : 
TLFamily_GRt       .         Gamma Ray                     : 
TLFamily_HCAL      .         Caliper                       : 
TLFamily_HDRA      .         Bulk Density Correction       : 
TLFamily_HFK       .         Potassium Concentration       : 
TLFamily_HTHO      .         Thorium Concentration         : 
TLFamily_HURA      .         Uranium Concentration         : 
TLFamily_KSDR      .         NMR Permeability              : 
TLFamily_KTIM      .         NMR Permeability              : 
TLFamily_MD        .         Measured Depth                : 
TLFamily_NMRE_Final .         NMR Bound Fluid Volume Fraction: 
TLFamily_NMRFL_Final .         NMR Free Fluids               : 
TLFamily_NMRT_Final .         NMR Porosity                  : 
TLFamily_NPHI      .         Neutron Porosity              : 
TLFamily_PE        .         Photoelectric Factor          : 
TLFamily_RD        .         Resistivity - Deep            : 
TLFamily_RHOB      .         Bulk Density                  : 
TLFamily_RM        .         Resistivity - Medium          : 
TLFamily_RS        .         Resistivity - Shallow         : 
TLFamily_T2LM      .         NMR T2 Logarithmic Mean       : 
TLFamily_TVDSS     .         True Vertical Depth Sub Sea   : 
~Curve Information
#_______________________________________________________________________________
#
#LOGNAME           .UNIT     LOG_ID                        : DESCRIPTION
#_______________________________________________________________________________
DEPTH              .M                                      :  
BS                 .in                                     : Bit Size 
DT                 .us/ft                                  : Delta-T Compressional 
DWAL               .kg/kg                                  : Dry Weight Fraction Pseudo Aluminum (SpectroLith WALK2 Model) 
DWCA               .kg/kg                                  : Dry Weight Fraction Calcium (SpectroLith WALK2 Model) 
DWFE               .kg/kg                                  : Dry Weight Fraction Iron + 0.14 Aluminum (SpectroLith WALK2 Model) 
DWGD               .ppm                                    : Dry Weight Fraction Gadolinium (SpectroLith WALK2 Model) 
DWS                .kg/kg                                  : Dry Weight Fraction Sulfur (SpectroLith WALK2 Model) 
DWSI               .kg/kg                                  : Dry Weight Fraction Silicon (SpectroLith WALK2 Model) 
DWTI               .kg/kg                                  : Dry Weight Fraction Titanium (SpectroLith WALK2 Model) 
GR                 .gAPI                                   : Gamma Ray 
GRt                .gAPI                                   : HNGS Standard Gamma-Ray 
HCAL               .in                                     : HRCC Caliper Calibrated 
HDRA               .g/cm3                                  : Density Standoff Correction 
HFK                .%                                      : HNGS Formation Potassium Concentration 
HTHO               .ppm                                    : HNGS Formation Thorium Concentration 
HURA               .ppm                                    : HNGS Formation Uranium Concentration 
KSDR               .mD                                     : SDR Permeability 
KTIM               .mD                                     : Timur/Coates Permeability 
NMRE_Final         .m3/m3                                  :  
NMRFL_Final        .unitless                               :  
NMRT_Final         .frac                                   :  
NPHI               .frac                                   : Enhanced Thermal Neutron Porosity in Selected Lithology 
PE                 .b/e                                    : Standard Resolution Formation Photoelectric Factor 
RD                 .ohm.m                                  : Apparent Resistivity from Computed Focusing Mode 5 
RHOB               .g/cm3                                  : Standard Resolution Formation Density 
RM                 .ohm.m                                  : Apparent Resistivity from Computed Focusing Mode 4 
RS                 .ohm.m                                  : Apparent Resistivity from Computed Focusing Mode 3 
T2LM               .ms                                     : T2 Logarithmic Mean 
TVDSS              .M                                      :  
~Ascii
# ...
5235.296   12.250     75.640     0.001      0.361      0.001      0.000      0.008      0.041      0.000      61.004     57.355     12.465     -0.004     0.367      2.185      5.530      0.324      0.023      0.139      0.009      0.152      0.225      5.028      3.085      2.458      2.748      2.947      12.296     5209.594  
5235.448   12.250     75.751     0.001      0.350      0.001      0.002      0.015      0.049      0.000      64.455     60.214     12.458     -0.006     0.392      2.164      5.818      0.205      0.009      0.135      0.006      0.159      0.223      4.935      3.985      2.460      3.502      3.745      8.975      5209.746  
5235.600   12.250     75.897     0.000      0.342      0.000      0.608      0.014      0.061      0.000      72.319     65.126     12.453     -0.007     0.397      2.240      6.391      0.127      0.004      0.126      0.004      0.160      0.217      4.848      3.963      2.467      3.482      3.721      6.948      5209.897  
5235.753   12.250     76.049     0.000      0.341      0.000      3.118      0.008      0.065      0.000      82.891     72.598     12.458     -0.006     0.420      2.214      7.266      0.085      0.004      0.114      0.005      0.155      0.211      4.768      3.779      2.477      3.315      3.543      6.108      5210.049  
5235.905   12.250     76.189     0.000      0.344      0.000      6.798      0.000      0.065      0.000      88.982     80.435     12.465     -0.005     0.440      2.332      8.134      0.068      0.018      0.104      0.009      0.142      0.216      4.671      3.881      2.485      3.396      3.622      6.426      5210.201  
5236.058   12.250     75.573     0.002      0.341      0.001      8.818      0.000      0.066      0.000      89.123     85.325     12.457     -0.004     0.456      2.485      8.630      0.075      0.025      0.103      0.010      0.145      0.225      4.627      3.769      2.485      3.299      3.519      6.521      5210.353  
5236.210   12.250     74.305     0.004      0.333      0.003      6.980      0.000      0.071      0.000      87.659     87.290     12.465     -0.006     0.466      2.524      8.853      0.086      0.018      0.104      0.009      0.147      0.224      4.661      3.719      2.480      3.254      3.471      6.763      5210.504  
5236.362   12.250     73.697     0.003      0.334      0.002      2.844      0.002      0.072      0.000      88.904     87.626     12.472     -0.007     0.459      2.662      8.876      0.113      0.018      0.107      0.009      0.147      0.227      4.742      3.545      2.476      3.107      3.312      7.727      5210.656  
5236.515   12.250     73.234     0.001      0.349      0.001      0.601      0.004      0.056      0.000      86.791     85.747     12.474     -0.009     0.448      2.765      8.625      0.172      0.027      0.114      0.011      0.145      0.223      4.796      6.425      2.468      5.591      5.876      9.934      5210.808  
5236.667   12.250     73.050     0.002      0.369      0.001      1.022      0.001      0.033      0.000      77.255     77.454     12.479     -0.010     0.422      2.546      7.741      0.310      0.059      0.124      0.015      0.141      0.217      4.828      7.835      2.454      6.811      7.136      13.936     5210.960  
5236.820   12.250     73.699     0.003      0.381      0.002      3.394      0.000      0.017      0.000      61.922     62.020     12.481     -0.010     0.366      2.251      6.063      0.505      0.173      0.135      0.024      0.147      0.221      4.851      8.043      2.436      7.021      7.359      16.471     5211.111  
5236.972   12.250     74.719     0.002      0.376      0.001      4.271      0.000      0.025      0.000      49.466     48.194     12.477     -0.009     0.324      1.923      4.527      0.540      0.289      0.136      0.029      0.151      0.245      4.820      7.623      2.421      6.695      7.060      16.141     5211.263  
5237.124   12.250     75.961     0.000      0.352      0.000      3.596      0.001      0.056      0.000      43.622     40.285     12.482     -0.008     0.301      1.754      3.656      0.305      0.236      0.123      0.027      0.145      0.263      4.579      6.960      2.427      6.181      6.552      13.186     5211.415  
5237.277   12.250     77.704     0.000      0.311      0.000      0.943      0.002      0.103      0.000      45.184     38.013     12.470     -0.005     0.319      1.763      3.310      0.115      0.097      0.100      0.021      0.133      0.237      4.176      4.413      2.442      4.105      4.437      9.620      5211.566  
5237.429   12.250     81.090     0.000      0.278      0.000      0.000      0.005      0.141      0.000      49.858     38.467     12.460     -0.001     0.379      2.007      3.146      0.048      0.027      0.079      0.012      0.124      0.193      3.793      3.049      2.451      2.904      3.164      7.128      5211.718  
5237.582   12.250     83.314     0.000      0.271      0.000      0.000      0.006      0.148      0.000      53.758     41.484     12.501     0.013      0.476      2.350      3.210      0.056      0.018      0.077      0.010      0.123      0.198      3.689      3.148      2.444      3.002      3.272      7.780      5211.870  
5237.734   12.250     84.300     0.000      0.289      0.000      0.851      0.004      0.128      0.000      54.472     43.918     12.534     0.033      0.562      2.463      3.268      0.129      0.055      0.090      0.016      0.141      0.257      3.769      2.128      2.425      2.066      2.254      9.119      5212.022  
5237.886   12.250     91.832     0.001      0.303      0.001      3.769      0.000      0.112      0.000      52.625     44.380     12.550     0.057      0.596      2.372      3.268      0.226      0.123      0.101      0.020      0.155      0.289      3.861      1.816      2.412      1.778      1.939      9.858      5212.173  
5238.039   12.250     103.579    0.004      0.296      0.002      6.448      0.000      0.115      0.000      52.299     44.042     12.910     0.067      0.624      2.254      3.204      0.206      0.115      0.100      0.019      0.158      0.286      3.832      1.940      2.384      1.920      2.090      9.048      5212.325  
5238.191   12.250     108.301    0.007      0.278      0.004      5.595      0.000      0.131      0.000      53.954     44.346     12.791     0.072      0.643      2.164      3.253      0.097      0.048      0.084      0.013      0.149      0.300      3.743      2.118      2.372      2.115      2.299      7.021      5212.477  
5238.344   12.250     107.251    0.005      0.264      0.003      1.933      0.000      0.149      0.000      55.415     45.140     13.111     0.058      0.655      2.177      3.286      0.097      0.048      0.084      0.013      0.149      0.323      3.647      2.320      2.360      2.329      2.523      7.020      5212.629  
5238.496   12.250     101.471    0.001      0.250      0.001      0.000      0.001      0.173      0.000      52.724     43.850     12.701     0.034      0.634      2.095      3.224      0.038      0.011      0.067      0.008      0.139      0.325      3.597      3.388      2.367      3.435      3.695      5.058      5212.780  
5238.648   12.250     94.670     0.001      0.230      0.000      0.000      0.001      0.197      0.000      47.870     41.008     12.824     0.010      0.575      1.850      3.170      0.015      0.004      0.053      0.005      0.126      0.296      3.553      4.725      2.397      4.849      5.186      3.895      5212.932  
5238.801   12.250     89.306     0.001      0.211      0.000      0.000      0.000      0.220      0.000      43.996     37.392     12.422     -0.001     0.523      1.566      2.960      0.010      0.004      0.049      0.005      0.119      0.258      3.464      4.317      2.450      4.497      4.839      3.582      5213.084  
5238.953   12.250     85.500     0.000      0.201      0.000      0.000      0.000      0.233      0.000      41.758     34.159     12.405     -0.002     0.481      1.499      2.702      0.015      0.008      0.060      0.007      0.122      0.228      3.370      4.723      2.494      4.947      5.335      4.073      5213.236  
