~Version
 VERS              .         2.0                           : CWLS LOG ASCII STANDARD - VERSION 2.0
 WRAP              .         NO                            : ONE LINE PER DEPTH STEP
 DLM               .         SPACE                         : DELIMITING CHARACTER(SPACE TAB OR COMMA)
~Well Information
#_______________________________________________________________________________
#
#PARAMETER_NAME    .UNIT     VALUE                         : DESCRIPTION
#_______________________________________________________________________________
STRT               .M        5159.045                      : First reference value
STOP               .M        5591.861                      : Last reference value
STEP               .M        0.152                         : Step increment
NULL               .         -9999                         : Missing value
COMP               .         PETROBRAS                     : Company
WELL               .         8-SPH-19D-SPS                 : Well name
FLD                .         SAPINHOA                      : Field
LOC                .                                       : Location
PROV               .                                       : Province
SRVC               .                                       : Service Company
DATE               .         2020-11-17 00_10_26           : Date
UWI                .         8SPH0019DSPS                  : Unique Well ID
APD                .M        26                            : Above Permanent Datum
API                .                                       : API NUMBER
BHT                .degF     150                           : Bottom Hole Temperature
BLI                .M        5581.8                        : Bottom Log Interval
BS                 .in       12.25                         : Bit Size
CNTY               .                                       : County
CTRY               .         BRASIL                        : Nation
DCS                .         04/08/2015                    : Date Ciculation Stopped
DFD                .lbm/gal  9.5                           : Drilling Fluid Density
DFT                .         NAO AQUOSO (BASE OLEFINA)     : Drilling Fluid Type
DLAB               .         05/08/2015                    : Date Logger At Bottom
EDF                .M        26                            : Elevation of Derreck Floor
EGL                .M        -2132                         : Elevation of Ground Level
EKB                .M        -999.25                       : Elevation of Kelly Bushing
EPD                .M        0                             : Elevation Of Permanent Datum
GDAT               .         SIRGAS2000                    : Geodetic Datum
LMF                .         MR                            : Log Measured From
LATI               .         -25_46_45.710                 : Latitude
LONG               .         -43_12_21,306                 : Longitude
MCST               .degF     -999.25                       : Mud Cake Sample Temperature
MFST               .degF     -999.25                       : Mud Filtrate Sample Temperature
MRT                .degF     150                           : Maximum Recorded Temperature
MST                .degF     -999.25                       : Mud Sample Temperature
ORIGINALWELLNAME   .         8-sph-19d-sps_petrobras       : 
PDAT               .         NM                            : Permanent Datum
PRODUCER-CODE      .         150                           : 
PRODUCER-NAME      .         ATLAS                         : 
RMB                .ohm.m    -999.25                       : Resistivity Of Mud - BHT
RMCS               .ohm.m    -999.25                       : Resistivity Of Mud Cake Sample
RMFS               .ohm.m    -999.25                       : Mud Filtrate Sample Resistivity
RMS                .ohm.m    -999.25                       : Mud Sample Resistivity
RUN                .         2                             : Run Number
STAT               .         SAO PAULO                     : State
TCS                .h        02_00                         : Time Ciculation Stopped
TDD                .M        5583                          : Total Depht - Driller
TDL                .M        5585.4                        : Total Depht - Logger
TLAB               .h        18_45                         : Time Logger At Bottom
TLI                .M        5200                          : Top Log Interval
X                  .M        679908.00000000               : Surface X
Y                  .M        7148113.00000000              : Surface Y
~Parameter Information Block
#_______________________________________________________________________________
#
#PARAMETER_NAME    .UNIT     VALUE                         : DESCRIPTION
#_______________________________________________________________________________
SET                .         BASE                          : 
TLFamily_BS        .         Bit Size                      : 
TLFamily_DT        .         Compressional Slowness        : 
TLFamily_DWAL      .         Aluminum Weight Fraction      : 
TLFamily_DWCA      .         Calcium Weight Fraction       : 
TLFamily_DWFE      .         Iron Weight Fraction          : 
TLFamily_DWGD      .         Gadolinium Weight Fraction    : 
TLFamily_DWK       .         Potassium Weight Fraction     : 
TLFamily_DWMG      .         Magnesium Weight Fraction     : 
TLFamily_DWMN      .         Manganese Weight Fraction     : 
TLFamily_DWS       .         Sulfur Weight Fraction        : 
TLFamily_DWSI      .         Silicon Weight Fraction       : 
TLFamily_DWTI      .         Titanium Weight Fraction      : 
TLFamily_GR        .         Gamma Ray                     : 
TLFamily_GRt       .         Gamma Ray                     : 
TLFamily_HCAL      .         Caliper                       : 
TLFamily_HDRA      .         Bulk Density Correction       : 
TLFamily_HFK       .         Potassium Concentration       : 
TLFamily_HTHO      .         Thorium Concentration         : 
TLFamily_HURA      .         Uranium Concentration         : 
TLFamily_MD        .         Measured Depth                : 
TLFamily_MPERM     .         NMR Permeability              : 
TLFamily_NMRE_Final .         NMR Bound Fluid Volume Fraction: 
TLFamily_NMRFL_Final .         NMR Free Fluids               : 
TLFamily_NMRT_Final .         NMR Porosity                  : 
TLFamily_NPHI      .         Neutron Porosity              : 
TLFamily_PE        .         Photoelectric Factor          : 
TLFamily_RD        .         Resistivity - Deep            : 
TLFamily_RHOB      .         Bulk Density                  : 
TLFamily_RM        .         Resistivity - Medium          : 
TLFamily_RS        .         Resistivity - Shallow         : 
TLFamily_TVDSS     .         True Vertical Depth Sub Sea   : 
~Curve Information
#_______________________________________________________________________________
#
#LOGNAME           .UNIT     LOG_ID                        : DESCRIPTION
#_______________________________________________________________________________
DEPTH              .M                                      :  
BS                 .in                                     :  
DT                 .us/ft                                  : SONICO COMPRESSIONAL (COMPOSICAO DE CURVAS CABO E/OU LWD) 
DWAL               .kg/kg                                  :  
DWCA               .kg/kg                                  :  
DWFE               .kg/kg                                  :  
DWGD               .ppm                                    :  
DWK                .kg/kg                                  :  
DWMG               .kg/kg                                  :  
DWMN               .kg/kg                                  :  
DWS                .kg/kg                                  :  
DWSI               .kg/kg                                  :  
DWTI               .kg/kg                                  :  
GR                 .gAPI                                   :  
GRt                .gAPI                                   :  
HCAL               .in                                     : CALIPER (COMPOSICAO DE CURVAS CABO E/OU LWD) 
HDRA               .g/cm3                                  : Density Delta Rho Filtered 
HFK                .%                                      :  
HTHO               .ppm                                    :  
HURA               .ppm                                    :  
MPERM              .mD                                     :  
NMRE_Final         .m3/m3                                  :  
NMRFL_Final        .unitless                               :  
NMRT_Final         .frac                                   :  
NPHI               .frac                                   : Neutron Porosity Limestone Filtered 
PE                 .b/e                                    : Density PE Filtered 
RD                 .ohm.m                                  : Vertical 2-foot resolution matched resistivity, 90-inch DOI 
RHOB               .g/cm3                                  : Bulk Density Filtered 
RM                 .ohm.m                                  : Vertical 2-foot resolution matched resistivity, 30-inch DOI 
RS                 .ohm.m                                  : Vertical 2-foot resolution matched resistivity, 10-inch DOI 
TVDSS              .M                                      :  
~Ascii
# ...
5210.251   12.250     66.323     -9999.000  -9999.000  -9999.000  -9999.000  -9999.000  -9999.000  -9999.000  -9999.000  -9999.000  -9999.000  8.323      8.383      -9999.000  -4.489     0.129      0.862      0.582      -9999.000  -9999.000  -9999.000  -9999.000  0.112      12.661     1485.576   -1.532     1500.906   1586.431   5052.846  
5210.404   12.250     66.831     -9999.000  -9999.000  -9999.000  -9999.000  -9999.000  -9999.000  -9999.000  -9999.000  -9999.000  -9999.000  8.113      8.165      -9999.000  -4.256     0.129      0.850      0.595      -9999.000  -9999.000  -9999.000  -9999.000  0.101      12.633     1465.049   -1.293     1759.786   2380.133   5052.986  
5210.556   12.250     67.535     -9999.000  -9999.000  -9999.000  -9999.000  -9999.000  -9999.000  -9999.000  -9999.000  -9999.000  -9999.000  7.896      7.945      -9999.000  -4.198     0.132      0.826      0.594      -9999.000  -9999.000  -9999.000  -9999.000  0.098      12.670     1359.733   -1.234     2120.919   4635.038   5053.127  
5210.708   12.250     68.068     -9999.000  -9999.000  -9999.000  -9999.000  -9999.000  -9999.000  -9999.000  -9999.000  -9999.000  -9999.000  7.754      7.802      -9999.000  -4.290     0.140      0.781      0.581      -9999.000  -9999.000  -9999.000  -9999.000  0.095      12.665     1074.654   -1.321     2303.591   4325.128   5053.267  
5210.861   12.250     68.402     -9999.000  -9999.000  -9999.000  -9999.000  -9999.000  -9999.000  -9999.000  -9999.000  -9999.000  -9999.000  7.481      7.530      -9999.000  -4.389     0.147      0.723      0.571      -9999.000  -9999.000  -9999.000  -9999.000  0.095      12.627     499.688    -1.417     1122.788   1548.460   5053.408  
5211.013   12.250     68.043     -9999.000  -9999.000  -9999.000  -9999.000  -9999.000  -9999.000  -9999.000  -9999.000  -9999.000  -9999.000  7.227      7.279      -9999.000  -4.624     0.153      0.665      0.570      -9999.000  -9999.000  -9999.000  -9999.000  0.093      12.534     227.355    -1.646     180.582    249.327    5053.548  
5211.166   12.250     67.852     -9999.000  -9999.000  -9999.000  -9999.000  -9999.000  -9999.000  -9999.000  -9999.000  -9999.000  -9999.000  7.339      7.391      -9999.000  -4.644     0.155      0.622      0.584      -9999.000  -9999.000  -9999.000  -9999.000  0.092      12.544     165.915    -1.655     85.792     292.531    5053.689  
5211.318   12.250     68.273     -9999.000  -9999.000  -9999.000  -9999.000  -9999.000  -9999.000  -9999.000  -9999.000  -9999.000  -9999.000  7.658      7.703      -9999.000  -4.204     0.150      0.606      0.629      -9999.000  -9999.000  -9999.000  -9999.000  0.092      12.617     169.860    -1.125     66.336     351.376    5053.830  
5211.470   12.250     69.190     -9999.000  -9999.000  -9999.000  -9999.000  -9999.000  -9999.000  -9999.000  -9999.000  -9999.000  -9999.000  7.912      7.955      -9999.000  -4.076     0.140      0.614      0.697      -9999.000  -9999.000  -9999.000  -9999.000  0.092      12.623     191.025    -0.921     59.619     373.934    5053.970  
5211.623   12.250     69.851     -9999.000  -9999.000  -9999.000  -9999.000  -9999.000  -9999.000  -9999.000  -9999.000  -9999.000  -9999.000  8.132      8.183      -9999.000  -5.060     0.130      0.647      0.755      -9999.000  -9999.000  -9999.000  -9999.000  0.091      12.661     242.397    -1.767     60.354     333.129    5054.111  
5211.775   12.250     69.562     -9999.000  -9999.000  -9999.000  -9999.000  -9999.000  -9999.000  -9999.000  -9999.000  -9999.000  -9999.000  8.364      8.419      -9999.000  -5.947     0.124      0.693      0.786      -9999.000  -9999.000  -9999.000  -9999.000  0.092      12.650     315.104    -2.623     64.816     268.779    5054.251  
5211.928   12.250     68.385     -9999.000  -9999.000  -9999.000  -9999.000  -9999.000  -9999.000  -9999.000  -9999.000  -9999.000  -9999.000  8.501      8.551      -9999.000  -6.768     0.124      0.727      0.785      -9999.000  -9999.000  -9999.000  -9999.000  0.096      12.527     296.797    -3.487     62.794     192.463    5054.392  
5212.080   12.250     66.686     -9999.000  -9999.000  -9999.000  -9999.000  -9999.000  -9999.000  -9999.000  -9999.000  -9999.000  -9999.000  8.518      8.560      -9999.000  -6.337     0.133      0.725      0.754      -9999.000  -9999.000  -9999.000  -9999.000  0.103      12.529     440.438    -3.122     61.011     205.566    5054.532  
5212.232   12.250     65.066     -9999.000  -9999.000  -9999.000  -9999.000  -9999.000  -9999.000  -9999.000  -9999.000  -9999.000  -9999.000  8.415      8.453      -9999.000  -4.726     0.149      0.706      0.694      -9999.000  -9999.000  -9999.000  -9999.000  0.095      12.752     623.174    -1.652     61.244     250.853    5054.673  
5212.385   12.250     63.691     -9999.000  -9999.000  -9999.000  -9999.000  -9999.000  -9999.000  -9999.000  -9999.000  -9999.000  -9999.000  8.266      8.306      -9999.000  -4.313     0.164      0.694      0.610      -9999.000  -9999.000  -9999.000  -9999.000  0.094      12.831     661.542    -1.283     64.583     250.712    5054.814  
5212.537   12.250     62.084     -9999.000  -9999.000  -9999.000  -9999.000  -9999.000  -9999.000  -9999.000  -9999.000  -9999.000  -9999.000  8.152      8.196      -9999.000  -4.203     0.178      0.679      0.523      -9999.000  -9999.000  -9999.000  -9999.000  0.094      12.796     633.181    -1.226     75.527     192.549    5054.954  
5212.690   12.250     60.177     -9999.000  -9999.000  -9999.000  -9999.000  -9999.000  -9999.000  -9999.000  -9999.000  -9999.000  -9999.000  8.064      8.104      -9999.000  -4.125     0.190      0.660      0.447      -9999.000  -9999.000  -9999.000  -9999.000  0.095      12.740     606.404    -1.158     91.699     139.336    5055.095  
5212.842   12.250     58.921     -9999.000  -9999.000  -9999.000  -9999.000  -9999.000  -9999.000  -9999.000  -9999.000  -9999.000  -9999.000  8.040      8.072      -9999.000  -4.011     0.192      0.655      0.399      -9999.000  -9999.000  -9999.000  -9999.000  0.097      12.678     658.459    -1.041     236.575    287.001    5055.235  
5212.994   12.250     58.746     -9999.000  -9999.000  -9999.000  -9999.000  -9999.000  -9999.000  -9999.000  -9999.000  -9999.000  -9999.000  8.117      8.148      -9999.000  -3.991     0.185      0.675      0.375      -9999.000  -9999.000  -9999.000  -9999.000  0.093      12.735     767.539    -1.023     1476.999   7097.232   5055.376  
5213.147   12.250     58.390     -9999.000  -9999.000  -9999.000  -9999.000  -9999.000  -9999.000  -9999.000  -9999.000  -9999.000  -9999.000  8.211      8.249      -9999.000  -3.991     0.176      0.714      0.374      -9999.000  -9999.000  -9999.000  -9999.000  0.093      12.746     1076.269   -1.026     1474.738   10000.000  5055.517  
5213.299   12.250     58.753     -9999.000  -9999.000  -9999.000  -9999.000  -9999.000  -9999.000  -9999.000  -9999.000  -9999.000  -9999.000  8.182      8.225      -9999.000  -4.027     0.165      0.755      0.407      -9999.000  -9999.000  -9999.000  -9999.000  0.098      12.716     1352.658   -1.063     1522.589   9998.946   5055.657  
5213.452   12.250     58.470     -9999.000  -9999.000  -9999.000  -9999.000  -9999.000  -9999.000  -9999.000  -9999.000  -9999.000  -9999.000  8.063      8.108      -9999.000  -4.062     0.152      0.798      0.470      -9999.000  -9999.000  -9999.000  -9999.000  0.098      12.689     1539.370   -1.100     1767.729   3738.720   5055.798  
5213.604   12.250     58.334     -9999.000  -9999.000  -9999.000  -9999.000  -9999.000  -9999.000  -9999.000  -9999.000  -9999.000  -9999.000  8.082      8.126      -9999.000  -4.145     0.139      0.834      0.558      -9999.000  -9999.000  -9999.000  -9999.000  0.094      12.622     1524.117   -1.193     1648.845   1847.325   5055.938  
5213.756   12.250     58.051     -9999.000  -9999.000  -9999.000  -9999.000  -9999.000  -9999.000  -9999.000  -9999.000  -9999.000  -9999.000  8.393      8.435      -9999.000  -4.189     0.130      0.841      0.668      -9999.000  -9999.000  -9999.000  -9999.000  0.092      12.582     1260.281   -1.241     1258.137   1258.142   5056.079  
