~Version
 VERS              .         2.0                           : CWLS LOG ASCII STANDARD - VERSION 2.0
 WRAP              .         NO                            : ONE LINE PER DEPTH STEP
 DLM               .         SPACE                         : DELIMITING CHARACTER(SPACE TAB OR COMMA)
~Well Information
#_______________________________________________________________________________
#
#PARAMETER_NAME    .UNIT     VALUE                         : DESCRIPTION
#_______________________________________________________________________________
STRT               .M        5159.045                      : First reference value
STOP               .M        5591.861                      : Last reference value
STEP               .M        0.152                         : Step increment
NULL               .         -9999                         : Missing value
COMP               .         PETROBRAS                     : Company
WELL               .         8-SPH-19D-SPS                 : Well name
FLD                .         SAPINHOA                      : Field
LOC                .                                       : Location
PROV               .                                       : Province
SRVC               .                                       : Service Company
DATE               .         2020-11-17 00_10_26           : Date
UWI                .         8SPH0019DSPS                  : Unique Well ID
APD                .M        26                            : Above Permanent Datum
API                .                                       : API NUMBER
BHT                .degF     150                           : Bottom Hole Temperature
BLI                .M        5581.8                        : Bottom Log Interval
BS                 .in       12.25                         : Bit Size
CNTY               .                                       : County
CTRY               .         BRASIL                        : Nation
DCS                .         04/08/2015                    : Date Ciculation Stopped
DFD                .lbm/gal  9.5                           : Drilling Fluid Density
DFT                .         NAO AQUOSO (BASE OLEFINA)     : Drilling Fluid Type
DLAB               .         05/08/2015                    : Date Logger At Bottom
EDF                .M        26                            : Elevation of Derreck Floor
EGL                .M        -2132                         : Elevation of Ground Level
EKB                .M        -999.25                       : Elevation of Kelly Bushing
EPD                .M        0                             : Elevation Of Permanent Datum
GDAT               .         SIRGAS2000                    : Geodetic Datum
LMF                .         MR                            : Log Measured From
LATI               .         -25_46_45.710                 : Latitude
LONG               .         -43_12_21,306                 : Longitude
MCST               .degF     -999.25                       : Mud Cake Sample Temperature
MFST               .degF     -999.25                       : Mud Filtrate Sample Temperature
MRT                .degF     150                           : Maximum Recorded Temperature
MST                .degF     -999.25                       : Mud Sample Temperature
ORIGINALWELLNAME   .         8-sph-19d-sps_petrobras       : 
PDAT               .         NM                            : Permanent Datum
PRODUCER-CODE      .         150                           : 
PRODUCER-NAME      .         ATLAS                         : 
RMB                .ohm.m    -999.25                       : Resistivity Of Mud - BHT
RMCS               .ohm.m    -999.25                       : Resistivity Of Mud Cake Sample
RMFS               .ohm.m    -999.25                       : Mud Filtrate Sample Resistivity
RMS                .ohm.m    -999.25                       : Mud Sample Resistivity
RUN                .         2                             : Run Number
STAT               .         SAO PAULO                     : State
TCS                .h        02_00                         : Time Ciculation Stopped
TDD                .M        5583                          : Total Depht - Driller
TDL                .M        5585.4                        : Total Depht - Logger
TLAB               .h        18_45                         : Time Logger At Bottom
TLI                .M        5200                          : Top Log Interval
X                  .M        679908.00000000               : Surface X
Y                  .M        7148113.00000000              : Surface Y
~Parameter Information Block
#_______________________________________________________________________________
#
#PARAMETER_NAME    .UNIT     VALUE                         : DESCRIPTION
#_______________________________________________________________________________
SET                .         BASE                          : 
TLFamily_BS        .         Bit Size                      : 
TLFamily_DT        .         Compressional Slowness        : 
TLFamily_DWAL      .         Aluminum Weight Fraction      : 
TLFamily_DWCA      .         Calcium Weight Fraction       : 
TLFamily_DWFE      .         Iron Weight Fraction          : 
TLFamily_DWGD      .         Gadolinium Weight Fraction    : 
TLFamily_DWK       .         Potassium Weight Fraction     : 
TLFamily_DWMG      .         Magnesium Weight Fraction     : 
TLFamily_DWMN      .         Manganese Weight Fraction     : 
TLFamily_DWS       .         Sulfur Weight Fraction        : 
TLFamily_DWSI      .         Silicon Weight Fraction       : 
TLFamily_DWTI      .         Titanium Weight Fraction      : 
TLFamily_GR        .         Gamma Ray                     : 
TLFamily_GRt       .         Gamma Ray                     : 
TLFamily_HCAL      .         Caliper                       : 
TLFamily_HDRA      .         Bulk Density Correction       : 
TLFamily_HFK       .         Potassium Concentration       : 
TLFamily_HTHO      .         Thorium Concentration         : 
TLFamily_HURA      .         Uranium Concentration         : 
TLFamily_MD        .         Measured Depth                : 
TLFamily_MPERM     .         NMR Permeability              : 
TLFamily_NMRE_Final .         NMR Bound Fluid Volume Fraction: 
TLFamily_NMRFL_Final .         NMR Free Fluids               : 
TLFamily_NMRT_Final .         NMR Porosity                  : 
TLFamily_NPHI      .         Neutron Porosity              : 
TLFamily_PE        .         Photoelectric Factor          : 
TLFamily_RD        .         Resistivity - Deep            : 
TLFamily_RHOB      .         Bulk Density                  : 
TLFamily_RM        .         Resistivity - Medium          : 
TLFamily_RS        .         Resistivity - Shallow         : 
TLFamily_TVDSS     .         True Vertical Depth Sub Sea   : 
~Curve Information
#_______________________________________________________________________________
#
#LOGNAME           .UNIT     LOG_ID                        : DESCRIPTION
#_______________________________________________________________________________
DEPTH              .M                                      :  
BS                 .in                                     :  
DT                 .us/ft                                  : SONICO COMPRESSIONAL (COMPOSICAO DE CURVAS CABO E/OU LWD) 
DWAL               .kg/kg                                  :  
DWCA               .kg/kg                                  :  
DWFE               .kg/kg                                  :  
DWGD               .ppm                                    :  
DWK                .kg/kg                                  :  
DWMG               .kg/kg                                  :  
DWMN               .kg/kg                                  :  
DWS                .kg/kg                                  :  
DWSI               .kg/kg                                  :  
DWTI               .kg/kg                                  :  
GR                 .gAPI                                   :  
GRt                .gAPI                                   :  
HCAL               .in                                     : CALIPER (COMPOSICAO DE CURVAS CABO E/OU LWD) 
HDRA               .g/cm3                                  : Density Delta Rho Filtered 
HFK                .%                                      :  
HTHO               .ppm                                    :  
HURA               .ppm                                    :  
MPERM              .mD                                     :  
NMRE_Final         .m3/m3                                  :  
NMRFL_Final        .unitless                               :  
NMRT_Final         .frac                                   :  
NPHI               .frac                                   : Neutron Porosity Limestone Filtered 
PE                 .b/e                                    : Density PE Filtered 
RD                 .ohm.m                                  : Vertical 2-foot resolution matched resistivity, 90-inch DOI 
RHOB               .g/cm3                                  : Bulk Density Filtered 
RM                 .ohm.m                                  : Vertical 2-foot resolution matched resistivity, 30-inch DOI 
RS                 .ohm.m                                  : Vertical 2-foot resolution matched resistivity, 10-inch DOI 
TVDSS              .M                                      :  
~Ascii
# ...
5235.854   12.250     59.542     0.005      0.332      0.003      2.885      0.002      0.054      0.001      0.001      0.086      0.004      18.414     18.525     12.261     0.084      0.212      0.804      1.759      8.955      0.117      0.080      0.123      0.169      6.292      392.406    2.564      394.305    390.929    5076.480  
5236.007   12.250     58.583     0.005      0.334      0.003      2.657      0.001      0.064      0.001      0.001      0.090      0.004      20.057     20.172     12.274     0.082      0.213      0.805      1.984      4.719      0.121      0.072      0.132      0.166      6.305      441.027    2.568      444.957    439.072    5076.621  
5236.159   12.250     58.422     0.005      0.332      0.004      2.415      0.001      0.069      0.001      0.001      0.094      0.003      23.191     23.324     12.274     0.084      0.219      0.880      2.358      3.347      0.121      0.067      0.129      0.162      6.287      477.084    2.576      479.037    479.671    5076.762  
5236.312   12.250     58.638     0.006      0.326      0.006      2.204      0.001      0.064      0.001      0.001      0.100      0.002      30.144     30.323     12.270     0.085      0.235      1.055      3.168      3.525      0.118      0.068      0.120      0.158      6.235      627.514    2.586      677.104    719.016    5076.903  
5236.464   12.250     59.719     0.006      0.313      0.007      2.100      0.001      0.051      0.001      0.001      0.113      0.001      40.587     40.830     12.271     0.085      0.266      1.072      4.273      3.557      0.111      0.067      0.112      0.156      6.160      764.583    2.593      870.050    1015.240   5077.043  
5236.616   12.250     60.466     0.006      0.292      0.007      2.156      0.003      0.038      0.001      0.001      0.131      0.001      49.438     49.735     12.280     0.084      0.290      0.934      4.974      1.857      0.097      0.057      0.099      0.157      6.091      755.262    2.593      845.987    1012.884   5077.184  
5236.769   12.250     61.294     0.005      0.269      0.007      2.322      0.006      0.033      0.001      0.001      0.145      0.002      49.482     49.779     12.283     0.083      0.295      0.901      4.982      0.674      0.082      0.045      0.087      0.163      5.954      618.643    2.584      656.057    726.207    5077.325  
5236.921   12.250     61.332     0.005      0.257      0.008      2.468      0.008      0.032      0.001      0.001      0.146      0.003      39.748     39.990     12.280     0.083      0.290      0.883      4.307      1.167      0.085      0.051      0.097      0.178      5.578      444.706    2.551      441.945    427.436    5077.466  
5237.074   12.250     61.090     0.004      0.262      0.008      2.539      0.008      0.035      0.001      0.001      0.134      0.003      28.116     28.291     12.276     0.084      0.268      0.783      3.249      5.790      0.099      0.070      0.110      0.184      5.440      350.240    2.531      341.769    318.792    5077.607  
5237.226   12.250     60.607     0.004      0.276      0.008      2.573      0.007      0.044      0.001      0.001      0.117      0.003      22.090     22.216     12.276     0.089      0.241      0.660      2.615      17.964     0.108      0.085      0.115      0.181      5.583      317.773    2.545      312.247    299.034    5077.747  
5237.378   12.250     60.294     0.004      0.287      0.006      2.590      0.007      0.056      0.001      0.001      0.103      0.004      21.552     21.656     12.274     0.090      0.225      0.601      2.480      25.040     0.109      0.088      0.113      0.181      5.691      317.842    2.560      315.806    313.851    5077.888  
5237.531   12.250     60.274     0.003      0.292      0.003      2.593      0.010      0.062      0.001      0.001      0.097      0.004      21.980     22.085     12.275     0.087      0.216      0.580      2.419      24.106     0.110      0.088      0.111      0.188      5.799      309.580    2.566      308.257    306.922    5078.029  
5237.683   12.250     60.482     0.003      0.297      0.002      2.631      0.012      0.057      0.001      0.001      0.099      0.004      20.359     20.469     12.278     0.082      0.197      0.561      2.266      27.373     0.120      0.094      0.121      0.196      5.867      302.010    2.557      300.500    295.604    5078.170  
5237.836   12.250     60.997     0.004      0.305      0.001      2.711      0.012      0.046      0.001      0.001      0.104      0.004      16.833     16.937     12.275     0.078      0.172      0.629      1.964      36.194     0.143      0.107      0.148      0.197      5.889      316.327    2.530      315.553    313.087    5078.311  
5237.988   12.250     61.421     0.004      0.318      0.002      2.740      0.009      0.037      0.001      0.001      0.107      0.003      13.720     13.809     12.271     0.075      0.161      0.746      1.704      42.979     0.161      0.116      0.171      0.195      5.932      330.188    2.497      329.733    328.489    5078.452  
5238.140   12.250     60.754     0.005      0.331      0.003      2.601      0.005      0.033      0.001      0.001      0.104      0.002      12.850     12.935     12.273     0.077      0.160      0.798      1.629      43.266     0.152      0.113      0.163      0.189      5.937      332.097    2.499      330.994    324.699    5078.592  
5238.293   12.250     58.848     0.005      0.338      0.003      2.284      0.001      0.033      0.001      0.001      0.098      0.002      14.535     14.632     12.274     0.083      0.164      0.836      1.699      35.144     0.128      0.100      0.138      0.175      5.865      365.520    2.525      365.983    364.632    5078.733  
5238.445   12.250     56.762     0.005      0.339      0.003      1.913      0.001      0.034      0.001      0.001      0.092      0.003      18.795     18.931     12.276     0.088      0.177      0.840      2.061      19.354     0.110      0.086      0.122      0.169      5.815      436.144    2.559      442.372    467.603    5078.874  
5238.598   12.250     55.728     0.004      0.332      0.003      1.652      0.000      0.037      0.001      0.001      0.091      0.003      25.087     25.267     12.283     0.091      0.202      0.725      2.762      11.220     0.099      0.077      0.109      0.168      5.800      476.530    2.601      487.959    555.236    5079.015  
5238.750   12.250     55.948     0.003      0.321      0.003      1.590      0.000      0.041      0.001      0.001      0.096      0.003      32.099     32.314     12.294     0.091      0.257      0.550      3.529      7.017      0.094      0.071      0.097      0.172      5.787      455.651    2.611      467.067    531.033    5079.156  
5238.902   12.250     56.085     0.003      0.308      0.004      1.747      0.001      0.041      0.001      0.001      0.112      0.002      38.704     38.951     12.308     0.083      0.362      0.479      4.022      3.169      0.088      0.061      0.087      0.162      5.680      385.331    2.583      392.228    426.599    5079.297  
5239.055   12.250     56.596     0.003      0.296      0.005      2.069      0.002      0.035      0.001      0.001      0.137      0.001      43.207     43.480     12.318     0.087      0.445      0.511      4.166      1.309      0.084      0.052      0.085      0.142      5.536      293.614    2.566      295.144    302.756    5079.437  
5239.207   12.250     58.017     0.003      0.291      0.006      2.437      0.004      0.024      0.001      0.001      0.161      0.000      44.032     44.311     12.324     0.097      0.467      0.544      4.151      1.530      0.095      0.055      0.101      0.134      5.297      213.883    2.575      212.376    206.969    5079.578  
5239.360   12.250     60.428     0.004      0.298      0.006      2.723      0.008      0.014      0.001      0.001      0.168      0.000      40.952     41.213     12.282     0.091      0.469      0.636      3.961      4.403      0.120      0.071      0.134      0.170      5.402      169.890    2.548      167.764    160.857    5079.719  
