~Version
 VERS              .         2.0                           : CWLS LOG ASCII STANDARD - VERSION 2.0
 WRAP              .         NO                            : ONE LINE PER DEPTH STEP
 DLM               .         SPACE                         : DELIMITING CHARACTER(SPACE TAB OR COMMA)
~Well Information
#_______________________________________________________________________________
#
#PARAMETER_NAME    .UNIT     VALUE                         : DESCRIPTION
#_______________________________________________________________________________
STRT               .M        5027.447                      : First reference value
STOP               .M        5499.430                      : Last reference value
STEP               .M        0.152                         : Step increment
NULL               .         -9999                         : Missing value
COMP               .         PETROBRAS                     : Company
WELL               .         8-SPH-10-SPS                  : Well name
FLD                .         SAPINHOA                      : Field
LOC                .                                       : Location
PROV               .                                       : Province
SRVC               .                                       : Service Company
DATE               .         2021-09-13 11_18_58           : Date
UWI                .         8-SPH-10-SPS                  : Unique Well ID
APD                .M        24                            : Above Permanent Datum
API                .                                       : API NUMBER
BHT                .degF     153                           : Bottom Hole Temperature
BLI                .M        5494.8                        : Bottom Log Interval
BS                 .in       8.5                           : Bit Size
CTRY               .         BRASIL                        : Nation
DCS                .         15/06/2015                    : Date Ciculation Stopped
DFD                .lb/gal   9.7                           : Drilling Fluid Density
DFT                .         CATIONICO FLEX DRILL (BASE AGUA): Drilling Fluid Type
DLAB               .         18/06/2015                    : Date Logger At Bottom
EDF                .M        24                            : Elevation of Derreck Floor
EGL                .M        -2125                         : Elevation of Ground Level
EKB                .M        -999.25                       : Elevation of Kelly Bushing
EPD                .M        0                             : Elevation Of Permanent Datum
LMF                .         MR                            : Log Measured From
LONG               .         -43_10_14,760                 : Longitude
MCST               .degF     67                            : Mud Cake Sample Temperature
MFST               .degF     67                            : Mud Filtrate Sample Temperature
MRT                .degF     153                           : Maximum Recorded Temperature
MST                .degF     67                            : Mud Sample Temperature
ORIGINALWELLNAME   .         P08                           : 
PDAT               .         NM                            : Permanent Datum
PRODUCER-CODE      .         150                           : 
PRODUCER-NAME      .         ATLAS                         : 
RMB                .ohm.m    -999.25                       : Resistivity Of Mud - BHT
RMCS               .ohm.m    0.078                         : Resistivity Of Mud Cake Sample
RMFS               .ohm.m    0.064                         : Mud Filtrate Sample Resistivity
RMS                .ohm.m    0.071                         : Mud Sample Resistivity
RUN                .         3                             : Run Number
STAT               .         SAO PAULO                     : State
TCS                .h        22_00                         : Time Ciculation Stopped
TDD                .M        5496                          : Total Depht - Driller
TDL                .M        5495.5                        : Total Depht - Logger
TLAB               .h        10_45                         : Time Logger At Bottom
TLI                .M        5114                          : Top Log Interval
X                  .M        683623.00000000               : 
Y                  .M        7161727.00000000              : 
~Parameter Information Block
#_______________________________________________________________________________
#
#PARAMETER_NAME    .UNIT     VALUE                         : DESCRIPTION
#_______________________________________________________________________________
SET                .         BASE                          : 
TLFamily_BS        .         Bit Size                      : 
TLFamily_DT        .         Compressional Slowness        : 
TLFamily_DWAL      .         Aluminum Weight Fraction      : 
TLFamily_DWCA      .         Calcium Weight Fraction       : 
TLFamily_DWFE      .         Iron Weight Fraction          : 
TLFamily_DWGD      .         Gadolinium Weight Fraction    : 
TLFamily_DWK       .         Potassium Weight Fraction     : 
TLFamily_DWMG      .         Magnesium Weight Fraction     : 
TLFamily_DWMN      .         Manganese Weight Fraction     : 
TLFamily_DWS       .         Sulfur Weight Fraction        : 
TLFamily_DWSI      .         Silicon Weight Fraction       : 
TLFamily_DWTI      .         Titanium Weight Fraction      : 
TLFamily_GR        .         Gamma Ray                     : 
TLFamily_GRt       .         Gamma Ray                     : 
TLFamily_HCAL      .         Caliper                       : 
TLFamily_HDRA      .         Bulk Density Correction       : 
TLFamily_HFK       .         Potassium Concentration       : 
TLFamily_HTHO      .         Thorium Concentration         : 
TLFamily_HURA      .         Uranium Concentration         : 
TLFamily_MD        .         Measured Depth                : 
TLFamily_MPERM     .         NMR Permeability              : 
TLFamily_NMRE_Final .         NMR Bound Fluid Volume Fraction: 
TLFamily_NMRFL_Final .         NMR Free Fluids               : 
TLFamily_NMRT_Final .         NMR Porosity                  : 
TLFamily_NPHI      .         Neutron Porosity              : 
TLFamily_PE        .         Photoelectric Factor          : 
TLFamily_RD        .         Resistivity - Deep            : 
TLFamily_RHOB      .         Bulk Density                  : 
TLFamily_RS        .         Resistivity - Shallow         : 
TLFamily_TVDSS     .         True Vertical Depth Sub Sea   : 
~Curve Information
#_______________________________________________________________________________
#
#LOGNAME           .UNIT     LOG_ID                        : DESCRIPTION
#_______________________________________________________________________________
DEPTH              .M                                      :  
BS                 .in                                     : Bit size 
DT                 .us/ft                                  : Slowness over 24-inch interval 
DWAL               .kg/kg                                  : Weight fraction of aluminum derived from thorium in dry rock 
DWCA               .kg/kg                                  : Weight fraction of calcium in dry rock 
DWFE               .kg/kg                                  : Weight fraction of iron in dry rock 
DWGD               .ppm                                    : Weight fraction of gadolinium in dry rock 
DWK                .kg/kg                                  : Weight fraction of potassium in dry rock 
DWMG               .kg/kg                                  : Weight fraction of magnesium in dry rock 
DWMN               .kg/kg                                  : Weight fraction of manganese in dry rock 
DWS                .kg/kg                                  : Weight fraction of sulfur in dry rock 
DWSI               .kg/kg                                  : Weight fraction of silicon in dry rock 
DWTI               .kg/kg                                  : Weight fraction of titanium in dry rock 
GR                 .gAPI                                   : Gamma ray 
GRt                .gAPI                                   : Gamma ray from 1329 spectrum 
HCAL               .in                                     : Caliper 
HDRA               .g/cm3                                  : Density correction 
HFK                .%                                      : Potassium content 
HTHO               .ppm                                    : Thorium concentration 
HURA               .ppm                                    : Uranium content 
MPERM              .mD                                     : MR permeability 
NMRE_Final         .m3/m3                                  : MR effective porosity 
NMRFL_Final        .unitless                               : MR moveable fluids 
NMRT_Final         .frac                                   : MR total porosity 
NPHI               .frac                                   : Borehole size corrected compensated neutron porosity 
PE                 .b/e                                    : Photo electric cross-section 
RD                 .ohm.m                                  : Deep resistivity 
RHOB               .g/cm3                                  : Formation bulk density 
RS                 .ohm.m                                  : Shallow resistivity 
TVDSS              .M                                      :  
~Ascii
# ...
5187.467   8.500      54.674     0.008      0.213      0.003      1.857      0.005      0.025      0.001      0.001      0.102      0.006      31.959     32.089     8.894      -0.017     0.543      1.588      2.431      0.030      0.049      0.021      0.051      0.108      4.521      15.711     2.618      25.397     5163.151  
5187.620   8.500      54.257     0.008      0.215      0.003      1.860      0.006      0.026      0.001      0.001      0.094      0.006      30.203     30.327     8.894      -0.014     0.533      1.532      2.438      0.011      0.055      0.014      0.056      0.106      4.588      17.028     2.628      28.088     5163.303  
5187.772   8.500      54.331     0.007      0.221      0.003      1.847      0.006      0.030      0.001      0.001      0.086      0.006      29.694     29.816     8.894      -0.010     0.523      1.476      2.464      0.006      0.052      0.012      0.058      0.108      4.465      18.210     2.634      30.834     5163.456  
5187.925   8.500      55.045     0.007      0.225      0.003      1.873      0.006      0.036      0.001      0.001      0.079      0.005      30.271     30.393     8.895      -0.011     0.520      1.429      2.518      0.007      0.050      0.012      0.063      0.113      4.285      16.708     2.621      28.825     5163.608  
5188.077   8.500      56.342     0.007      0.224      0.003      2.039      0.004      0.039      0.001      0.001      0.072      0.005      32.146     32.276     8.895      -0.017     0.536      1.407      2.620      0.011      0.055      0.014      0.070      0.111      4.168      12.405     2.590      21.357     5163.760  
5188.229   8.500      57.724     0.007      0.218      0.002      2.325      0.003      0.040      0.001      0.001      0.066      0.005      35.512     35.658     8.894      -0.024     0.566      1.430      2.735      0.021      0.068      0.016      0.078      0.108      4.133      8.619      2.564      14.472     5163.913  
5188.382   8.500      58.390     0.007      0.213      0.002      2.541      0.001      0.041      0.001      0.001      0.063      0.006      39.018     39.179     8.894      -0.026     0.590      1.460      2.780      0.045      0.079      0.020      0.087      0.116      4.208      7.358      2.562      12.010     5164.065  
5188.534   8.500      57.826     0.007      0.211      0.002      2.553      0.001      0.043      0.001      0.001      0.063      0.006      40.040     40.205     8.894      -0.025     0.603      1.470      2.755      0.054      0.080      0.021      0.090      0.130      4.366      8.432      2.579      13.463     5164.218  
5188.687   8.500      55.329     0.007      0.212      0.002      2.435      0.001      0.045      0.001      0.001      0.067      0.005      37.982     38.138     8.894      -0.021     0.618      1.470      2.639      0.029      0.074      0.018      0.090      0.130      4.439      12.841     2.605      20.356     5164.370  
5188.839   8.500      53.784     0.007      0.214      0.002      2.331      0.001      0.047      0.001      0.001      0.074      0.004      34.769     34.912     8.894      -0.015     0.623      1.454      2.449      0.008      0.064      0.012      0.084      0.116      4.362      19.497     2.634      31.580     5164.522  
5188.991   8.500      52.987     0.007      0.216      0.002      2.286      0.001      0.049      0.001      0.001      0.082      0.004      31.892     32.026     8.895      -0.011     0.598      1.414      2.365      0.005      0.054      0.010      0.073      0.105      4.307      24.178     2.659      40.085     5164.675  
5189.144   8.500      53.270     0.007      0.219      0.001      2.239      0.001      0.048      0.001      0.001      0.088      0.004      30.111     30.238     8.895      -0.011     0.570      1.383      2.394      0.008      0.050      0.013      0.060      0.100      4.384      24.790     2.668      41.605     5164.827  
5189.296   8.500      53.675     0.007      0.224      0.001      2.149      0.001      0.044      0.001      0.001      0.090      0.004      31.111     31.241     8.896      -0.015     0.529      1.349      2.556      0.008      0.047      0.013      0.052      0.099      4.484      23.425     2.663      39.179     5164.979  
5189.449   8.500      53.899     0.006      0.229      0.000      2.075      0.001      0.041      0.001      0.001      0.089      0.005      35.500     35.644     8.896      -0.018     0.432      1.281      3.125      0.004      0.042      0.011      0.048      0.102      4.475      22.020     2.655      36.339     5165.132  
5189.601   8.500      53.415     0.006      0.230      0.000      2.084      0.000      0.040      0.001      0.001      0.087      0.005      41.228     41.391     8.896      -0.018     0.321      1.242      3.978      0.002      0.038      0.008      0.044      0.105      4.287      21.400     2.652      34.616     5165.284  
5189.753   8.500      52.771     0.006      0.225      0.001      2.121      0.001      0.040      0.001      0.001      0.092      0.005      47.181     47.365     8.896      -0.015     0.254      1.256      4.625      0.004      0.045      0.011      0.052      0.107      3.927      22.490     2.654      35.896     5165.437  
5189.906   8.500      52.707     0.006      0.217      0.001      2.065      0.001      0.040      0.001      0.001      0.104      0.005      52.511     52.714     8.896      -0.010     0.226      1.276      4.903      0.013      0.058      0.014      0.067      0.105      3.630      24.562     2.656      39.379     5165.589  
5190.058   8.500      54.349     0.006      0.210      0.001      1.909      0.001      0.039      0.001      0.001      0.121      0.004      52.823     53.023     8.901      -0.006     0.221      1.265      4.902      0.020      0.069      0.016      0.080      0.101      3.560      25.271     2.646      40.681     5165.741  
5190.211   8.500      56.256     0.006      0.201      0.001      1.793      0.001      0.039      0.001      0.001      0.134      0.003      45.751     45.928     8.901      -0.003     0.229      1.180      4.423      0.030      0.075      0.018      0.085      0.102      3.631      22.685     2.621      36.166     5165.894  
5190.363   8.500      58.357     0.005      0.193      0.002      1.824      0.001      0.039      0.001      0.001      0.143      0.003      35.605     35.748     8.865      -0.003     0.218      1.053      3.459      0.101      0.078      0.027      0.079      0.114      3.750      17.086     2.585      26.809     5166.046  
5190.515   8.500      60.750     0.005      0.187      0.002      1.989      0.001      0.039      0.001      0.001      0.149      0.004      27.041     27.152     8.792      -0.002     0.171      0.926      2.560      0.587      0.077      0.043      0.077      0.135      3.819      10.749     2.547      16.732     5166.198  
5190.668   8.500      63.056     0.004      0.182      0.001      2.183      0.001      0.038      0.001      0.001      0.155      0.004      20.948     21.033     8.732      0.002      0.126      0.803      2.022      3.003      0.087      0.060      0.086      0.151      3.662      6.018      2.517      9.439      5166.351  
5190.820   8.500      65.210     0.004      0.173      0.001      2.270      0.001      0.034      0.001      0.001      0.166      0.004      17.454     17.524     8.713      0.010      0.105      0.709      1.768      8.780      0.103      0.076      0.105      0.158      3.327      3.403      2.494      5.467      5166.503  
5190.973   8.500      66.838     0.003      0.160      0.001      2.193      0.001      0.027      0.001      0.001      0.184      0.004      15.950     16.016     8.712      0.015      0.100      0.645      1.670      17.894     0.118      0.089      0.126      0.160      3.096      2.260      2.470      3.673      5166.656  
5191.125   8.500      67.871     0.003      0.145      0.003      2.014      0.001      0.021      0.001      0.001      0.201      0.004      15.314     15.377     8.712      0.017      0.096      0.604      1.651      32.197     0.119      0.095      0.129      0.157      3.092      1.914      2.445      3.056      5166.808  
