~Version
 VERS              .         2.0                           : CWLS LOG ASCII STANDARD - VERSION 2.0
 WRAP              .         NO                            : ONE LINE PER DEPTH STEP
 DLM               .         SPACE                         : DELIMITING CHARACTER(SPACE TAB OR COMMA)
~Well Information
#_______________________________________________________________________________
#
#PARAMETER_NAME    .UNIT     VALUE                         : DESCRIPTION
#_______________________________________________________________________________
STRT               .M        5027.447                      : First reference value
STOP               .M        5499.430                      : Last reference value
STEP               .M        0.152                         : Step increment
NULL               .         -9999                         : Missing value
COMP               .         PETROBRAS                     : Company
WELL               .         8-SPH-10-SPS                  : Well name
FLD                .         SAPINHOA                      : Field
LOC                .                                       : Location
PROV               .                                       : Province
SRVC               .                                       : Service Company
DATE               .         2021-09-13 11_18_58           : Date
UWI                .         8-SPH-10-SPS                  : Unique Well ID
APD                .M        24                            : Above Permanent Datum
API                .                                       : API NUMBER
BHT                .degF     153                           : Bottom Hole Temperature
BLI                .M        5494.8                        : Bottom Log Interval
BS                 .in       8.5                           : Bit Size
CTRY               .         BRASIL                        : Nation
DCS                .         15/06/2015                    : Date Ciculation Stopped
DFD                .lb/gal   9.7                           : Drilling Fluid Density
DFT                .         CATIONICO FLEX DRILL (BASE AGUA): Drilling Fluid Type
DLAB               .         18/06/2015                    : Date Logger At Bottom
EDF                .M        24                            : Elevation of Derreck Floor
EGL                .M        -2125                         : Elevation of Ground Level
EKB                .M        -999.25                       : Elevation of Kelly Bushing
EPD                .M        0                             : Elevation Of Permanent Datum
LMF                .         MR                            : Log Measured From
LONG               .         -43_10_14,760                 : Longitude
MCST               .degF     67                            : Mud Cake Sample Temperature
MFST               .degF     67                            : Mud Filtrate Sample Temperature
MRT                .degF     153                           : Maximum Recorded Temperature
MST                .degF     67                            : Mud Sample Temperature
ORIGINALWELLNAME   .         P08                           : 
PDAT               .         NM                            : Permanent Datum
PRODUCER-CODE      .         150                           : 
PRODUCER-NAME      .         ATLAS                         : 
RMB                .ohm.m    -999.25                       : Resistivity Of Mud - BHT
RMCS               .ohm.m    0.078                         : Resistivity Of Mud Cake Sample
RMFS               .ohm.m    0.064                         : Mud Filtrate Sample Resistivity
RMS                .ohm.m    0.071                         : Mud Sample Resistivity
RUN                .         3                             : Run Number
STAT               .         SAO PAULO                     : State
TCS                .h        22_00                         : Time Ciculation Stopped
TDD                .M        5496                          : Total Depht - Driller
TDL                .M        5495.5                        : Total Depht - Logger
TLAB               .h        10_45                         : Time Logger At Bottom
TLI                .M        5114                          : Top Log Interval
X                  .M        683623.00000000               : 
Y                  .M        7161727.00000000              : 
~Parameter Information Block
#_______________________________________________________________________________
#
#PARAMETER_NAME    .UNIT     VALUE                         : DESCRIPTION
#_______________________________________________________________________________
SET                .         BASE                          : 
TLFamily_BS        .         Bit Size                      : 
TLFamily_DT        .         Compressional Slowness        : 
TLFamily_DWAL      .         Aluminum Weight Fraction      : 
TLFamily_DWCA      .         Calcium Weight Fraction       : 
TLFamily_DWFE      .         Iron Weight Fraction          : 
TLFamily_DWGD      .         Gadolinium Weight Fraction    : 
TLFamily_DWK       .         Potassium Weight Fraction     : 
TLFamily_DWMG      .         Magnesium Weight Fraction     : 
TLFamily_DWMN      .         Manganese Weight Fraction     : 
TLFamily_DWS       .         Sulfur Weight Fraction        : 
TLFamily_DWSI      .         Silicon Weight Fraction       : 
TLFamily_DWTI      .         Titanium Weight Fraction      : 
TLFamily_GR        .         Gamma Ray                     : 
TLFamily_GRt       .         Gamma Ray                     : 
TLFamily_HCAL      .         Caliper                       : 
TLFamily_HDRA      .         Bulk Density Correction       : 
TLFamily_HFK       .         Potassium Concentration       : 
TLFamily_HTHO      .         Thorium Concentration         : 
TLFamily_HURA      .         Uranium Concentration         : 
TLFamily_MD        .         Measured Depth                : 
TLFamily_MPERM     .         NMR Permeability              : 
TLFamily_NMRE_Final .         NMR Bound Fluid Volume Fraction: 
TLFamily_NMRFL_Final .         NMR Free Fluids               : 
TLFamily_NMRT_Final .         NMR Porosity                  : 
TLFamily_NPHI      .         Neutron Porosity              : 
TLFamily_PE        .         Photoelectric Factor          : 
TLFamily_RD        .         Resistivity - Deep            : 
TLFamily_RHOB      .         Bulk Density                  : 
TLFamily_RS        .         Resistivity - Shallow         : 
TLFamily_TVDSS     .         True Vertical Depth Sub Sea   : 
~Curve Information
#_______________________________________________________________________________
#
#LOGNAME           .UNIT     LOG_ID                        : DESCRIPTION
#_______________________________________________________________________________
DEPTH              .M                                      :  
BS                 .in                                     : Bit size 
DT                 .us/ft                                  : Slowness over 24-inch interval 
DWAL               .kg/kg                                  : Weight fraction of aluminum derived from thorium in dry rock 
DWCA               .kg/kg                                  : Weight fraction of calcium in dry rock 
DWFE               .kg/kg                                  : Weight fraction of iron in dry rock 
DWGD               .ppm                                    : Weight fraction of gadolinium in dry rock 
DWK                .kg/kg                                  : Weight fraction of potassium in dry rock 
DWMG               .kg/kg                                  : Weight fraction of magnesium in dry rock 
DWMN               .kg/kg                                  : Weight fraction of manganese in dry rock 
DWS                .kg/kg                                  : Weight fraction of sulfur in dry rock 
DWSI               .kg/kg                                  : Weight fraction of silicon in dry rock 
DWTI               .kg/kg                                  : Weight fraction of titanium in dry rock 
GR                 .gAPI                                   : Gamma ray 
GRt                .gAPI                                   : Gamma ray from 1329 spectrum 
HCAL               .in                                     : Caliper 
HDRA               .g/cm3                                  : Density correction 
HFK                .%                                      : Potassium content 
HTHO               .ppm                                    : Thorium concentration 
HURA               .ppm                                    : Uranium content 
MPERM              .mD                                     : MR permeability 
NMRE_Final         .m3/m3                                  : MR effective porosity 
NMRFL_Final        .unitless                               : MR moveable fluids 
NMRT_Final         .frac                                   : MR total porosity 
NPHI               .frac                                   : Borehole size corrected compensated neutron porosity 
PE                 .b/e                                    : Photo electric cross-section 
RD                 .ohm.m                                  : Deep resistivity 
RHOB               .g/cm3                                  : Formation bulk density 
RS                 .ohm.m                                  : Shallow resistivity 
TVDSS              .M                                      :  
~Ascii
# ...
5457.977   8.500      66.270     0.027      0.090      0.011      2.606      0.023      0.070      0.001      0.000      0.190      0.003      112.990    113.453    8.659      -0.014     2.318      6.217      5.831      0.003      0.050      0.008      0.062      0.170      3.616      449.691    2.592      955.332    5433.609  
5458.130   8.500      70.325     0.028      0.093      0.011      2.689      0.021      0.073      0.001      0.000      0.179      0.003      107.394    107.830    8.659      -0.016     2.367      6.259      5.517      0.002      0.039      0.008      0.051      0.157      3.865      502.685    2.584      1083.500   5433.761  
5458.282   8.500      76.097     0.027      0.097      0.011      2.700      0.018      0.077      0.001      0.000      0.172      0.003      101.895    102.312    8.659      -0.020     2.412      6.163      5.276      0.001      0.029      0.007      0.042      0.151      3.983      532.496    2.551      1150.281   5433.913  
5458.435   8.500      81.727     0.027      0.101      0.012      2.660      0.017      0.080      0.001      0.000      0.173      0.003      101.250    101.667    8.660      -0.022     2.450      6.041      5.213      0.000      0.021      0.006      0.039      0.155      3.833      563.589    2.515      1797.730   5434.066  
5458.587   8.500      85.609     0.026      0.103      0.012      2.603      0.017      0.081      0.001      0.000      0.179      0.002      107.022    107.469    8.659      -0.020     2.600      5.806      5.315      0.000      0.017      0.006      0.042      0.168      3.568      700.497    2.499      11400.462  5434.218  
5458.739   8.500      83.040     0.025      0.100      0.013      2.531      0.021      0.078      0.001      0.000      0.185      0.003      117.472    117.964    8.658      -0.015     2.894      5.567      5.692      0.000      0.020      0.007      0.047      0.183      3.446      995.881    2.508      36437.152  5434.371  
5458.892   8.500      75.350     0.025      0.094      0.013      2.445      0.026      0.073      0.001      0.001      0.189      0.003      128.813    129.350    8.659      -0.011     3.103      5.474      6.300      0.000      0.021      0.004      0.047      0.192      3.528      1254.840   2.530      57853.875  5434.523  
5459.044   8.500      70.834     0.025      0.089      0.013      2.382      0.029      0.066      0.001      0.001      0.188      0.004      136.590    137.152    8.659      -0.011     3.135      5.427      6.725      0.000      0.018      0.004      0.047      0.192      3.646      1206.024   2.548      50232.410  5434.675  
5459.197   8.500      67.952     0.024      0.088      0.013      2.358      0.030      0.060      0.001      0.001      0.181      0.005      138.151    138.716    8.659      -0.014     3.110      5.394      6.841      0.000      0.022      0.006      0.053      0.190      3.668      895.191    2.550      23085.660  5434.828  
5459.349   8.500      66.631     0.024      0.091      0.014      2.355      0.029      0.055      0.001      0.001      0.170      0.005      133.215    133.751    8.658      -0.017     3.009      5.352      6.862      0.001      0.039      0.006      0.066      0.189      3.692      578.966    2.544      4740.810   5434.980  
5459.501   8.500      66.316     0.024      0.092      0.013      2.366      0.030      0.055      0.001      0.001      0.163      0.005      124.037    124.526    8.658      -0.016     2.818      5.278      6.611      0.000      0.061      0.003      0.079      0.184      3.859      353.884    2.542      641.335    5435.132  
5459.654   8.500      66.538     0.024      0.092      0.012      2.388      0.030      0.056      0.001      0.000      0.162      0.004      113.780    114.227    8.658      -0.011     2.683      5.194      5.921      0.000      0.054      0.002      0.073      0.178      4.096      188.137    2.542      301.925    5435.285  
5459.806   8.500      67.077     0.023      0.091      0.012      2.420      0.029      0.059      0.001      0.000      0.161      0.003      105.001    105.422    8.657      -0.007     2.675      5.016      5.090      0.000      0.041      0.005      0.064      0.179      4.205      92.321     2.532      151.272    5435.437  
5459.959   8.500      67.792     0.022      0.092      0.012      2.465      0.028      0.061      0.001      0.001      0.159      0.002      97.500     97.898     8.657      -0.007     2.700      4.707      4.341      0.003      0.038      0.011      0.064      0.190      4.143      56.620     2.512      98.088     5435.589  
5460.111   8.500      68.436     0.020      0.096      0.012      2.510      0.027      0.061      0.001      0.001      0.156      0.002      88.698     89.059     8.657      -0.009     2.642      4.371      3.763      0.043      0.053      0.022      0.077      0.203      4.041      38.887     2.495      68.519     5435.742  
5460.263   8.500      68.714     0.020      0.102      0.011      2.506      0.026      0.058      0.001      0.001      0.151      0.002      80.242     80.562     8.658      -0.011     2.542      4.146      3.502      0.457      0.073      0.041      0.100      0.207      4.018      25.530     2.491      44.338     5435.894  
5460.416   8.500      68.444     0.019      0.108      0.010      2.429      0.026      0.053      0.001      0.001      0.144      0.001      77.545     77.852     8.660      -0.013     2.511      4.038      3.491      1.451      0.091      0.054      0.116      0.196      4.077      17.091     2.499      29.162     5436.046  
5460.568   8.500      67.669     0.018      0.112      0.010      2.323      0.028      0.049      0.001      0.001      0.137      0.001      82.172     82.498     8.660      -0.014     2.544      3.892      3.629      2.124      0.105      0.060      0.121      0.188      4.152      12.853     2.514      21.685     5436.199  
5460.721   8.500      66.683     0.018      0.118      0.010      2.256      0.029      0.045      0.001      0.001      0.132      0.001      88.187     88.537     8.660      -0.014     2.604      3.683      3.898      1.861      0.110      0.058      0.116      0.186      4.184      12.384     2.529      20.802     5436.351  
5460.873   8.500      65.857     0.017      0.126      0.010      2.245      0.030      0.041      0.001      0.001      0.128      0.002      91.987     92.357     8.660      -0.014     2.661      3.572      4.183      0.974      0.094      0.050      0.104      0.183      4.129      15.924     2.535      27.108     5436.503  
5461.025   8.500      65.381     0.018      0.133      0.011      2.263      0.030      0.039      0.001      0.001      0.125      0.003      97.038     97.425     8.660      -0.015     2.718      3.686      4.507      0.372      0.082      0.039      0.101      0.184      4.019      21.559     2.530      37.714     5436.656  
5461.178   8.500      65.294     0.019      0.134      0.011      2.309      0.029      0.040      0.001      0.000      0.125      0.003      105.972    106.387    8.659      -0.015     2.891      4.078      4.842      0.180      0.081      0.032      0.103      0.188      3.990      26.130     2.519      46.977     5436.808  
5461.330   8.500      65.761     0.021      0.126      0.010      2.404      0.029      0.042      0.001      0.000      0.127      0.004      115.357    115.814    8.660      -0.017     3.276      4.578      4.811      0.143      0.088      0.029      0.105      0.186      4.082      28.038     2.509      51.726     5436.960  
5461.483   8.500      67.079     0.022      0.111      0.010      2.526      0.030      0.042      0.001      0.000      0.132      0.004      121.390    121.879    8.660      -0.018     3.687      4.951      4.424      0.113      0.088      0.027      0.102      0.181      4.206      26.623     2.498      50.466     5437.113  
5461.635   8.500      69.266     0.023      0.093      0.010      2.601      0.033      0.041      0.001      0.000      0.137      0.005      124.037    124.535    8.660      -0.018     3.891      5.141      4.128      0.139      0.093      0.028      0.107      0.191      4.280      21.878     2.474      42.134     5437.265  
