~Version
 VERS              .         2.0                           : CWLS LOG ASCII STANDARD - VERSION 2.0
 WRAP              .         NO                            : ONE LINE PER DEPTH STEP
 DLM               .         SPACE                         : DELIMITING CHARACTER(SPACE TAB OR COMMA)
~Well Information
#_______________________________________________________________________________
#
#PARAMETER_NAME    .UNIT     VALUE                         : DESCRIPTION
#_______________________________________________________________________________
STRT               .M        5159.045                      : First reference value
STOP               .M        5591.861                      : Last reference value
STEP               .M        0.152                         : Step increment
NULL               .         -9999                         : Missing value
COMP               .         PETROBRAS                     : Company
WELL               .         8-SPH-19D-SPS                 : Well name
FLD                .         SAPINHOA                      : Field
LOC                .                                       : Location
PROV               .                                       : Province
SRVC               .                                       : Service Company
DATE               .         2020-11-17 00_10_26           : Date
UWI                .         8SPH0019DSPS                  : Unique Well ID
APD                .M        26                            : Above Permanent Datum
API                .                                       : API NUMBER
BHT                .degF     150                           : Bottom Hole Temperature
BLI                .M        5581.8                        : Bottom Log Interval
BS                 .in       12.25                         : Bit Size
CNTY               .                                       : County
CTRY               .         BRASIL                        : Nation
DCS                .         04/08/2015                    : Date Ciculation Stopped
DFD                .lbm/gal  9.5                           : Drilling Fluid Density
DFT                .         NAO AQUOSO (BASE OLEFINA)     : Drilling Fluid Type
DLAB               .         05/08/2015                    : Date Logger At Bottom
EDF                .M        26                            : Elevation of Derreck Floor
EGL                .M        -2132                         : Elevation of Ground Level
EKB                .M        -999.25                       : Elevation of Kelly Bushing
EPD                .M        0                             : Elevation Of Permanent Datum
GDAT               .         SIRGAS2000                    : Geodetic Datum
LMF                .         MR                            : Log Measured From
LATI               .         -25_46_45.710                 : Latitude
LONG               .         -43_12_21,306                 : Longitude
MCST               .degF     -999.25                       : Mud Cake Sample Temperature
MFST               .degF     -999.25                       : Mud Filtrate Sample Temperature
MRT                .degF     150                           : Maximum Recorded Temperature
MST                .degF     -999.25                       : Mud Sample Temperature
ORIGINALWELLNAME   .         8-sph-19d-sps_petrobras       : 
PDAT               .         NM                            : Permanent Datum
PRODUCER-CODE      .         150                           : 
PRODUCER-NAME      .         ATLAS                         : 
RMB                .ohm.m    -999.25                       : Resistivity Of Mud - BHT
RMCS               .ohm.m    -999.25                       : Resistivity Of Mud Cake Sample
RMFS               .ohm.m    -999.25                       : Mud Filtrate Sample Resistivity
RMS                .ohm.m    -999.25                       : Mud Sample Resistivity
RUN                .         2                             : Run Number
STAT               .         SAO PAULO                     : State
TCS                .h        02_00                         : Time Ciculation Stopped
TDD                .M        5583                          : Total Depht - Driller
TDL                .M        5585.4                        : Total Depht - Logger
TLAB               .h        18_45                         : Time Logger At Bottom
TLI                .M        5200                          : Top Log Interval
X                  .M        679908.00000000               : Surface X
Y                  .M        7148113.00000000              : Surface Y
~Parameter Information Block
#_______________________________________________________________________________
#
#PARAMETER_NAME    .UNIT     VALUE                         : DESCRIPTION
#_______________________________________________________________________________
SET                .         BASE                          : 
TLFamily_BS        .         Bit Size                      : 
TLFamily_DT        .         Compressional Slowness        : 
TLFamily_DWAL      .         Aluminum Weight Fraction      : 
TLFamily_DWCA      .         Calcium Weight Fraction       : 
TLFamily_DWFE      .         Iron Weight Fraction          : 
TLFamily_DWGD      .         Gadolinium Weight Fraction    : 
TLFamily_DWK       .         Potassium Weight Fraction     : 
TLFamily_DWMG      .         Magnesium Weight Fraction     : 
TLFamily_DWMN      .         Manganese Weight Fraction     : 
TLFamily_DWS       .         Sulfur Weight Fraction        : 
TLFamily_DWSI      .         Silicon Weight Fraction       : 
TLFamily_DWTI      .         Titanium Weight Fraction      : 
TLFamily_GR        .         Gamma Ray                     : 
TLFamily_GRt       .         Gamma Ray                     : 
TLFamily_HCAL      .         Caliper                       : 
TLFamily_HDRA      .         Bulk Density Correction       : 
TLFamily_HFK       .         Potassium Concentration       : 
TLFamily_HTHO      .         Thorium Concentration         : 
TLFamily_HURA      .         Uranium Concentration         : 
TLFamily_MD        .         Measured Depth                : 
TLFamily_MPERM     .         NMR Permeability              : 
TLFamily_NMRE_Final .         NMR Bound Fluid Volume Fraction: 
TLFamily_NMRFL_Final .         NMR Free Fluids               : 
TLFamily_NMRT_Final .         NMR Porosity                  : 
TLFamily_NPHI      .         Neutron Porosity              : 
TLFamily_PE        .         Photoelectric Factor          : 
TLFamily_RD        .         Resistivity - Deep            : 
TLFamily_RHOB      .         Bulk Density                  : 
TLFamily_RM        .         Resistivity - Medium          : 
TLFamily_RS        .         Resistivity - Shallow         : 
TLFamily_TVDSS     .         True Vertical Depth Sub Sea   : 
~Curve Information
#_______________________________________________________________________________
#
#LOGNAME           .UNIT     LOG_ID                        : DESCRIPTION
#_______________________________________________________________________________
DEPTH              .M                                      :  
BS                 .in                                     :  
DT                 .us/ft                                  : SONICO COMPRESSIONAL (COMPOSICAO DE CURVAS CABO E/OU LWD) 
DWAL               .kg/kg                                  :  
DWCA               .kg/kg                                  :  
DWFE               .kg/kg                                  :  
DWGD               .ppm                                    :  
DWK                .kg/kg                                  :  
DWMG               .kg/kg                                  :  
DWMN               .kg/kg                                  :  
DWS                .kg/kg                                  :  
DWSI               .kg/kg                                  :  
DWTI               .kg/kg                                  :  
GR                 .gAPI                                   :  
GRt                .gAPI                                   :  
HCAL               .in                                     : CALIPER (COMPOSICAO DE CURVAS CABO E/OU LWD) 
HDRA               .g/cm3                                  : Density Delta Rho Filtered 
HFK                .%                                      :  
HTHO               .ppm                                    :  
HURA               .ppm                                    :  
MPERM              .mD                                     :  
NMRE_Final         .m3/m3                                  :  
NMRFL_Final        .unitless                               :  
NMRT_Final         .frac                                   :  
NPHI               .frac                                   : Neutron Porosity Limestone Filtered 
PE                 .b/e                                    : Density PE Filtered 
RD                 .ohm.m                                  : Vertical 2-foot resolution matched resistivity, 90-inch DOI 
RHOB               .g/cm3                                  : Bulk Density Filtered 
RM                 .ohm.m                                  : Vertical 2-foot resolution matched resistivity, 30-inch DOI 
RS                 .ohm.m                                  : Vertical 2-foot resolution matched resistivity, 10-inch DOI 
TVDSS              .M                                      :  
~Ascii
# ...
5378.501   12.250     72.076     0.013      0.288      0.009      3.018      0.003      0.080      0.001      0.001      0.082      0.000      23.575     23.711     12.403     0.094      0.098      2.287      2.429      0.102      0.124      0.021      0.153      0.296      5.701      5.060      2.429      5.489      6.973      5208.892  
5378.653   12.250     72.245     0.013      0.295      0.008      2.911      0.004      0.078      0.001      0.001      0.078      0.000      23.411     23.552     12.401     0.096      0.097      2.295      2.497      0.046      0.115      0.016      0.149      0.298      5.741      4.580      2.434      4.916      6.024      5209.034  
5378.806   12.250     72.207     0.013      0.300      0.007      2.748      0.005      0.066      0.001      0.001      0.077      0.000      23.463     23.610     12.407     0.097      0.112      2.301      2.518      0.059      0.116      0.018      0.153      0.299      5.846      4.463      2.441      4.767      5.723      5209.176  
5378.958   12.250     72.369     0.013      0.301      0.006      2.700      0.005      0.052      0.001      0.001      0.079      0.001      23.830     23.995     12.404     0.098      0.137      2.277      2.516      0.133      0.125      0.024      0.155      0.295      6.000      4.514      2.452      4.807      5.691      5209.318  
5379.110   12.250     72.446     0.013      0.300      0.005      2.728      0.006      0.043      0.001      0.001      0.080      0.002      24.402     24.578     12.398     0.100      0.160      2.237      2.506      0.162      0.132      0.025      0.158      0.289      5.988      4.515      2.466      4.788      5.593      5209.460  
5379.263   12.250     72.479     0.013      0.301      0.004      2.697      0.008      0.043      0.001      0.001      0.080      0.003      24.905     25.074     12.408     0.102      0.172      2.246      2.463      0.128      0.135      0.022      0.168      0.285      5.945      4.481      2.482      4.728      5.465      5209.602  
5379.415   12.250     72.642     0.013      0.304      0.003      2.527      0.009      0.049      0.001      0.001      0.080      0.003      25.169     25.328     12.410     0.098      0.173      2.323      2.391      0.100      0.131      0.020      0.168      0.290      5.984      4.553      2.476      4.786      5.508      5209.744  
5379.568   12.250     72.897     0.014      0.306      0.003      2.195      0.011      0.053      0.001      0.001      0.081      0.003      25.077     25.236     12.402     0.092      0.163      2.424      2.320      0.089      0.122      0.020      0.161      0.294      6.064      4.783      2.457      5.015      5.771      5209.886  
5379.720   12.250     73.173     0.014      0.304      0.002      1.749      0.012      0.055      0.001      0.001      0.084      0.003      24.521     24.686     12.405     0.091      0.141      2.529      2.256      0.090      0.117      0.021      0.157      0.292      6.117      5.268      2.447      5.520      6.369      5210.028  
5379.872   12.250     73.420     0.014      0.297      0.003      1.346      0.012      0.058      0.001      0.001      0.086      0.003      23.580     23.737     12.416     0.096      0.117      2.610      2.217      0.112      0.113      0.023      0.143      0.283      6.317      5.996      2.443      6.286      7.269      5210.170  
5380.025   12.250     73.429     0.014      0.286      0.003      1.176      0.011      0.064      0.001      0.001      0.087      0.002      22.819     22.955     12.406     0.100      0.103      2.604      2.241      0.112      0.105      0.024      0.128      0.281      6.457      6.238      2.446      6.515      7.423      5210.312  
5380.177   12.250     73.482     0.014      0.276      0.003      1.299      0.010      0.072      0.001      0.001      0.085      0.001      22.616     22.745     12.410     0.100      0.104      2.505      2.307      0.073      0.108      0.020      0.132      0.285      6.482      5.562      2.448      5.755      6.366      5210.454  
5380.330   12.250     73.566     0.013      0.269      0.003      1.625      0.007      0.080      0.001      0.001      0.080      0.000      22.860     22.998     12.431     0.098      0.121      2.393      2.357      0.044      0.118      0.016      0.141      0.289      6.396      4.878      2.448      5.008      5.435      5210.596  
5380.482   12.250     73.706     0.013      0.267      0.003      1.969      0.004      0.087      0.001      0.001      0.077      0.000      23.132     23.270     12.436     0.097      0.148      2.322      2.370      0.033      0.119      0.013      0.140      0.295      6.119      4.858      2.456      4.973      5.377      5210.738  
5380.634   12.250     74.089     0.013      0.267      0.004      2.158      0.002      0.093      0.001      0.001      0.080      0.000      23.277     23.406     12.427     0.099      0.181      2.291      2.348      0.033      0.115      0.014      0.145      0.295      6.075      5.562      2.470      5.696      6.206      5210.880  
5380.787   12.250     74.747     0.013      0.268      0.006      2.142      0.001      0.097      0.001      0.001      0.088      0.000      23.285     23.414     12.420     0.099      0.213      2.285      2.292      0.057      0.119      0.017      0.158      0.292      6.132      6.839      2.475      7.024      7.736      5211.022  
5380.939   12.250     75.755     0.013      0.270      0.008      2.064      0.001      0.095      0.001      0.001      0.097      0.000      23.223     23.352     12.415     0.096      0.240      2.313      2.214      0.076      0.121      0.019      0.161      0.294      6.097      7.912      2.475      8.147      8.993      5211.164  
5381.092   12.250     76.663     0.013      0.271      0.009      2.130      0.001      0.088      0.001      0.001      0.102      0.000      23.318     23.447     12.416     0.096      0.259      2.373      2.143      0.043      0.108      0.016      0.149      0.297      6.034      7.909      2.477      8.137      8.807      5211.306  
5381.244   12.250     77.252     0.014      0.269      0.010      2.410      0.001      0.078      0.001      0.001      0.100      0.000      23.732     23.874     12.420     0.101      0.266      2.452      2.105      0.021      0.086      0.014      0.137      0.293      6.073      7.046      2.482      7.227      7.607      5211.448  
5381.396   12.250     77.400     0.014      0.264      0.010      2.763      0.001      0.071      0.001      0.001      0.096      0.000      24.270     24.430     12.414     0.103      0.259      2.546      2.111      0.013      0.073      0.013      0.132      0.286      6.142      6.208      2.482      6.358      6.576      5211.590  
5381.549   12.250     77.653     0.015      0.259      0.009      2.961      0.001      0.071      0.001      0.001      0.092      0.001      24.827     24.987     12.386     0.102      0.239      2.656      2.167      0.007      0.078      0.009      0.133      0.281      6.148      5.651      2.478      5.784      5.938      5211.732  
5381.701   12.250     77.560     0.015      0.255      0.008      2.862      0.003      0.073      0.001      0.001      0.091      0.001      25.624     25.760     12.368     0.100      0.214      2.741      2.273      0.007      0.083      0.009      0.129      0.279      6.088      5.103      2.478      5.219      5.361      5211.874  
5381.854   12.250     77.504     0.015      0.255      0.008      2.536      0.006      0.069      0.001      0.001      0.096      0.002      26.404     26.529     12.350     0.099      0.191      2.733      2.402      0.011      0.081      0.011      0.126      0.277      5.925      4.523      2.485      4.618      4.762      5212.015  
5382.006   12.250     77.388     0.015      0.256      0.007      2.244      0.008      0.058      0.001      0.001      0.108      0.002      26.752     26.889     12.351     0.098      0.177      2.664      2.510      0.012      0.080      0.012      0.128      0.277      5.840      4.157      2.487      4.236      4.383      5212.157  
