~Version
 VERS              .         2.0                           : CWLS LOG ASCII STANDARD - VERSION 2.0
 WRAP              .         NO                            : ONE LINE PER DEPTH STEP
 DLM               .         SPACE                         : DELIMITING CHARACTER(SPACE TAB OR COMMA)
~Well Information
#_______________________________________________________________________________
#
#PARAMETER_NAME    .UNIT     VALUE                         : DESCRIPTION
#_______________________________________________________________________________
STRT               .M        2228.000                      : First reference value
STOP               .M        5446.688                      : Last reference value
STEP               .M        0.152                         : Step increment
NULL               .         -9999                         : Missing value
COMP               .         Petrobras                     : Company
WELL               .         8-SPH-13-SPS                  : Well name
FLD                .         Sapinhoa                      : Field
LOC                .                                       : Location
CNTY               .                                       : County
STAT               .         SAO PAULO                     : State
CTRY               .         BRASIL                        : Country
SRVC               .                                       : Service Company
DATE               .                                       : Date
API                .         863160035500                  : API number
APD                .M        24                            : Above Permanent Datum
BHT                .degF     120                           : Bottom Hole Temperature
BLI                .M        5180.5                        : Bottom Log Interval
BS                 .in       12.25x14.75                   : Bit Size
DCS                .         07/04/2014                    : Date Ciculation Stopped
DFD                .lbm/gal  10.1                          : Drilling Fluid Density
DFT                .         BR-MUL                        : Drilling Fluid Type
DLAB               .         08/04/2014                    : Date Logger At Bottom
EDF                .M        24                            : Elevation of Derreck Floor
EGL                .M        -2119                         : Elevation of Ground Level
EKB                .M        -999.25                       : ELEVATION OF KELLY BUSHING
EPD                .M        0                             : Elevation Of Permanent Datum
GDAT               .         SIRGAS2000                    : Geodetic Datum
LMF                .         MR                            : Log Measured From
LUL                .         MCE                           : LOGGING UNIT LOCATION
LUN                .         -999.25                       : LOGGING UNIT NUMBER
LATI               .         -25_42_39.196                 : Latitude
LONG               .         -43_09_15.905                 : Longitude
MCST               .degF     -999.25                       : Mud Cake Sample Temperature
MFST               .degF     -999.25                       : Mud Filtrate Sample Temperature
MRT                .degF     120                           : Maximum Recorded Temperature
MST                .degF     -999.25                       : Mud Sample Temperature
ORIGINALWELLNAME   .         8SPH 0013  SPS                : 
PDAT               .         NM                            : Permanent Datum
PRODUCER-CODE      .         15                            : 
PRODUCER-NAME      .         INTEQ                         : 
RMB                .ohm.m    -999.25                       : RESISTIVITY OF MUD - BHT
RMCS               .ohm.m    -999.25                       : Resistivity Of Mud Cake Sample
RMFS               .ohm.m    -999.25                       : Mud Filtrate Sample Resistivity
RMS                .ohm.m    -999.25                       : Mud Sample Resistivity
RUN                .         1                             : Run
TCS                .h        15_00                         : Time Ciculation Stopped
TDD                .M        5184                          : Total Depht - Driller
TDL                .M        5184                          : Total Depht - Logger
TLAB               .h        11_00                         : Time Logger At Bottom
TLI                .M        3543                          : Top Log Interval
X                  .M        685128.30900000               : X COORDINATE N
Y                  .M        7155027.01100000              : Y COORDINATE E
~Parameter Information Block
#_______________________________________________________________________________
#
#PARAMETER_NAME    .UNIT     VALUE                         : DESCRIPTION
#_______________________________________________________________________________
SET                .         BASE                          : 
TLFamily_DT        .         Compressional Slowness        : 
TLFamily_GR        .         Gamma Ray                     : 
TLFamily_HCAL      .         Caliper                       : 
TLFamily_MD        .         Measured Depth                : 
TLFamily_NMRE_Final .         NMR Bound Fluid Volume Fraction: 
TLFamily_NMRFL_Final .         NMR Free Fluids               : 
TLFamily_NMRT_Final .         NMR Porosity                  : 
TLFamily_NPHI      .         Neutron Porosity              : 
TLFamily_RD        .         Resistivity - Deep            : 
TLFamily_RHOB      .         Bulk Density                  : 
TLFamily_RM        .         Resistivity - Medium          : 
TLFamily_RS        .         Resistivity - Shallow         : 
~Curve Information
#_______________________________________________________________________________
#
#LOGNAME           .UNIT     LOG_ID                        : DESCRIPTION
#_______________________________________________________________________________
DEPTH              .M                                      :  
DT                 .us/ft                                  : SONICO COMPRESSIONAL (COMPOSICAO DE CURVAS CABO E/OU LWD) 
GR                 .gAPI                                   : RAIOS GAMA (COMPOSICAO DE CURVAS CABO E/OU LWD) 
HCAL               .in                                     : CALIPER (COMPOSICAO DE CURVAS CABO E/OU LWD) 
NMRE_Final         .m3/m3                                  : 03/02 - MRIL (HALLIBURTON) - MRIL EFFECTIVE POROSITY 
NMRFL_Final        .unitless                               : 03/02 - MRIL (HALLIBURTON) - FREE FLUID INDEX T2 
NMRT_Final         .frac                                   : 03/02 - MRIL (HALLIBURTON) - MRIAN MRIL TOTAL POROSITY 
NPHI               .frac                                   : POROSIDADE NEUTRONICA (COMPOSICAO DE CURVAS CABO E/OU LWD) 
RD                 .ohm.m                                  : RESISTIVIDADE PROFUNDA (COMPOSICAO DE CURVAS CABO E/OU LWD) 
RHOB               .g/cm3                                  : DENSIDADE (COMPOSICAO DE CURVAS CABO E/OU LWD ) 
RM                 .ohm.m                                  : RESISTIVIDADE MEDIA (COMPOSICAO DE CURVAS CABO E/OU LWD) 
RS                 .ohm.m                                  : RESISTIVIDADE RASA (COMPOSICAO DE CURVAS CABO E/OU LWD) 
~Ascii
# ...
5435.258   74.545     11.407     -9999.000  0.104      0.025      0.124      -9999.000  3.048      -9999.000  2.903      2.903     
5435.410   73.912     10.371     -9999.000  0.118      0.027      0.125      -9999.000  3.142      -9999.000  3.318      3.318     
5435.563   73.518     10.096     -9999.000  0.126      0.033      0.128      -9999.000  3.295      -9999.000  3.781      3.781     
5435.715   73.232     9.764      -9999.000  0.128      0.044      0.133      -9999.000  3.469      -9999.000  4.018      4.018     
5435.868   72.983     9.998      -9999.000  0.130      0.051      0.143      -9999.000  3.635      -9999.000  4.210      4.210     
5436.020   72.658     10.212     -9999.000  0.133      0.055      0.153      -9999.000  3.758      -9999.000  4.299      4.299     
5436.172   72.219     10.262     -9999.000  0.140      0.052      0.153      -9999.000  3.845      -9999.000  4.295      4.295     
5436.325   71.947     10.732     -9999.000  0.137      0.046      0.147      -9999.000  3.920      -9999.000  4.303      4.303     
5436.477   71.907     11.370     -9999.000  0.125      0.038      0.134      -9999.000  3.963      -9999.000  4.285      4.285     
5436.630   72.251     12.598     -9999.000  0.112      0.033      0.121      -9999.000  4.013      -9999.000  4.267      4.267     
5436.782   73.318     13.125     -9999.000  0.099      0.028      0.109      -9999.000  4.054      -9999.000  4.249      4.249     
5436.934   74.926     11.885     -9999.000  0.091      0.020      0.098      -9999.000  4.046      -9999.000  4.238      4.238     
5437.087   76.802     11.708     -9999.000  0.084      0.012      0.088      -9999.000  4.013      -9999.000  4.263      4.263     
5437.239   78.390     12.708     -9999.000  0.077      0.006      0.080      -9999.000  3.960      -9999.000  4.228      4.228     
5437.392   79.706     15.909     -9999.000  0.060      0.004      0.073      -9999.000  3.890      -9999.000  4.141      4.141     
5437.544   80.670     21.501     -9999.000  0.046      0.003      0.067      -9999.000  3.753      -9999.000  3.892      3.892     
5437.696   81.316     27.166     -9999.000  0.046      0.003      0.064      -9999.000  3.668      -9999.000  3.588      3.588     
5437.849   81.700     27.614     -9999.000  0.048      0.005      0.063      -9999.000  3.618      -9999.000  3.273      3.273     
5438.001   82.449     37.346     -9999.000  0.052      0.007      0.063      -9999.000  3.472      -9999.000  3.304      3.304     
5438.154   83.688     36.680     -9999.000  0.037      0.006      0.064      -9999.000  3.429      -9999.000  3.208      3.208     
5438.306   85.232     31.997     -9999.000  0.027      0.004      0.062      -9999.000  3.399      -9999.000  3.170      3.170     
5438.458   86.783     34.863     -9999.000  0.022      0.002      0.057      -9999.000  3.247      -9999.000  3.437      3.437     
5438.611   87.891     36.606     -9999.000  0.029      0.002      0.057      -9999.000  3.184      -9999.000  3.447      3.447     
5438.763   88.379     34.750     -9999.000  0.038      0.002      0.058      -9999.000  3.100      -9999.000  3.012      3.012     
5438.916   88.200     39.688     -9999.000  0.035      0.001      0.057      -9999.000  2.992      -9999.000  2.811      2.811     
5439.068   87.552     41.314     -9999.000  0.032      0.002      0.054      -9999.000  2.912      -9999.000  2.602      2.602     
5439.220   86.581     43.563     -9999.000  0.032      0.002      0.047      -9999.000  2.861      -9999.000  2.485      2.485     
5439.373   85.631     44.039     -9999.000  0.033      0.002      0.048      -9999.000  2.819      -9999.000  2.423      2.423     
5439.525   85.126     36.374     -9999.000  0.034      0.002      0.051      -9999.000  2.779      -9999.000  2.543      2.543     
5439.678   84.942     29.162     -9999.000  0.032      0.003      0.055      -9999.000  2.704      -9999.000  2.858      2.858     
5439.830   84.923     28.194     -9999.000  0.034      0.005      0.055      -9999.000  2.640      -9999.000  3.144      3.144     
5439.982   -9999.000  31.411     -9999.000  0.038      0.005      0.053      -9999.000  2.635      -9999.000  2.984      2.984     
5440.135   -9999.000  29.861     -9999.000  0.043      0.004      0.055      -9999.000  2.641      -9999.000  2.614      2.614     
5440.287   -9999.000  32.873     -9999.000  0.045      0.003      0.057      -9999.000  2.584      -9999.000  2.388      2.388     
5440.440   -9999.000  39.150     -9999.000  0.043      0.002      0.055      -9999.000  2.549      -9999.000  2.245      2.245     
5440.592   -9999.000  -9999.000  -9999.000  0.036      0.001      0.051      -9999.000  2.540      -9999.000  2.095      2.095     
5440.744   -9999.000  -9999.000  -9999.000  0.027      0.002      0.046      -9999.000  2.565      -9999.000  2.006      2.006     
5440.897   -9999.000  -9999.000  -9999.000  0.024      0.002      0.050      -9999.000  2.611      -9999.000  2.023      2.023     
5441.049   -9999.000  -9999.000  -9999.000  0.024      0.003      0.058      -9999.000  2.649      -9999.000  2.132      2.132     
5441.202   -9999.000  -9999.000  -9999.000  0.028      0.004      0.071      -9999.000  2.706      -9999.000  2.313      2.313     
5441.354   -9999.000  -9999.000  -9999.000  0.036      0.005      0.076      -9999.000  2.790      -9999.000  2.566      2.566     
5441.506   -9999.000  -9999.000  -9999.000  0.047      0.006      0.078      -9999.000  2.849      -9999.000  3.088      3.088     
5441.659   -9999.000  -9999.000  -9999.000  0.050      0.006      0.104      -9999.000  2.916      -9999.000  3.620      3.620     
5441.811   -9999.000  -9999.000  -9999.000  0.051      0.005      0.116      -9999.000  3.019      -9999.000  3.556      3.556     
5441.964   -9999.000  -9999.000  -9999.000  0.047      0.004      0.108      -9999.000  3.130      -9999.000  3.351      3.351     
5442.116   -9999.000  -9999.000  -9999.000  0.060      0.003      0.098      -9999.000  3.215      -9999.000  3.349      3.349     
5442.268   -9999.000  -9999.000  -9999.000  0.076      0.002      0.091      -9999.000  3.243      -9999.000  3.457      3.457     
5442.421   -9999.000  -9999.000  -9999.000  0.073      0.002      0.103      -9999.000  3.311      -9999.000  3.462      3.462     
5442.573   -9999.000  -9999.000  -9999.000  0.077      0.002      0.112      -9999.000  3.376      -9999.000  3.427      3.427     
5442.726   -9999.000  -9999.000  -9999.000  0.088      0.002      0.118      -9999.000  3.475      -9999.000  3.373      3.373     
5442.878   -9999.000  -9999.000  -9999.000  0.073      0.002      0.114      -9999.000  3.527      -9999.000  3.470      3.470     
5443.030   -9999.000  -9999.000  -9999.000  0.056      0.003      0.107      -9999.000  3.561      -9999.000  3.684      3.684     
5443.183   -9999.000  -9999.000  -9999.000  0.050      0.004      0.094      -9999.000  3.572      -9999.000  3.746      3.746     
5443.335   -9999.000  -9999.000  -9999.000  0.048      0.006      0.088      -9999.000  3.062      -9999.000  2.966      2.966     
5443.488   -9999.000  -9999.000  -9999.000  0.049      0.010      0.086      -9999.000  2.890      -9999.000  2.803      2.803     
5443.640   -9999.000  -9999.000  -9999.000  0.058      0.008      0.091      -9999.000  2.841      -9999.000  2.754      2.754     
5443.792   -9999.000  -9999.000  -9999.000  0.067      0.007      0.093      -9999.000  3.154      -9999.000  3.045      3.045     
5443.945   -9999.000  -9999.000  -9999.000  0.074      0.006      0.085      -9999.000  3.718      -9999.000  3.583      3.583     
5444.097   -9999.000  -9999.000  -9999.000  0.074      0.007      0.078      -9999.000  4.702      -9999.000  4.519      4.519     
5444.250   -9999.000  -9999.000  -9999.000  0.070      0.008      0.071      -9999.000  5.082      -9999.000  4.877      4.877     
5444.402   -9999.000  -9999.000  -9999.000  0.061      0.009      0.068      -9999.000  5.225      -9999.000  5.006      5.006     
