~Version
 VERS              .         2.0                           : CWLS LOG ASCII STANDARD - VERSION 2.0
 WRAP              .         NO                            : ONE LINE PER DEPTH STEP
 DLM               .         SPACE                         : DELIMITING CHARACTER(SPACE TAB OR COMMA)
~Well Information
#_______________________________________________________________________________
#
#PARAMETER_NAME    .UNIT     VALUE                         : DESCRIPTION
#_______________________________________________________________________________
STRT               .M        5060.036                      : First reference value
STOP               .M        5304.790                      : Last reference value
STEP               .M        0.152                         : Step increment
NULL               .         -9999                         : Missing value
COMP               .         PETROBRAS                     : Company
WELL               .         8-SPH-11-SPS                  : Well name
FLD                .         SAPINHOA                      : Field
LOC                .                                       : Location
PROV               .                                       : Province
SRVC               .                                       : Service Company
DATE               .         23/09/2015                    : Date
UWI                .         8-SPH-11-SPS                  : Unique Well ID
APD                .M        24                            : Elevation of Depth Reference (LMF) Above Permanent Datum
API                .                                       : API NUMBER
BHS                .         OPEN                          : Borehole Status (Open or Cased Hole)
BHT                .degF     135                           : Bottom Hole Temperature
BLI                .M        5299.5                        : Bottom Log Interval
BS                 .in       12.25                         : Bit Size
CBDR               .M        5086                          : Casing Bottom (Driller)
CBLO               .M        5084                          : Casing Bottom (Logger)
CSIZ               .in       14                            : Casing Outer Diameter
CWEI               .lbm/ft   115                           : Casing Weight
CTRY               .         BRASIL                        : Nation
DCS                .         22/09/2015                    : Date Circulation Stopped
DFD                .lb/gal   9.7                           : Drilling Fluid Density
DFT                .         Cationico Flex Drill(Base Agua): Drilling Fluid Type
DLAB               .         23/09/2015                    : Date Logging on Bottom
EDF                .M        24                            : Elevation of Drill Floor
EGL                .M        -2165                         : Elevation of Ground Level
EKB                .M        24                            : Elevation of Kelly Bushing
EPD                .M        0                             : Elevation of Permanent Datum (PDAT) above Mean Sea Level
LMF                .         MR                            : Logging Measured From (Name of Logging Elevation Reference)
LUL                .          BRMA                         : Logging Unit Location
LUN                .         OSU-PA 7032                   : Logging Unit Number
LONG               .         -43_13_56,159                 : Longitude
MCST               .degF     77.1                          : Mudcake Sample Temperature
MFST               .degF     78.3                          : Mud Filtrate Sample Temperature
MRT                .degF     135                           : Maximum Recorded Temperature
MST                .degF     77.9                          : Mud Sample Temperature
ORIGINALWELLNAME   .         P09                           : 
PDAT               .         NM                            : Permanent Datum
PRODUCER-CODE      .         440                           : 
PRODUCER-NAME      .         Schlumberger                  : 
RMB                .ohm.m    0.0430009                     : Resistivity of Mud at Bottom Hole Temperature
RMCS               .ohm.m    0.08                          : Resistivity of Mud Cake Sample
RMFS               .ohm.m    0.062                         : Resistivity of Mud Filtrate Sample
RMS                .ohm.m    0.072                         : Resistivity of Mud Sample
RUN                .         3                             : Run Number
STAT               .         SAO PAULO                     : State or Province
TCS                .h        10_30                         : Time Circulation Stopped
TDD                .M        5301                          : Total Depth (Driller)
TDL                .M        5301.5                        : Logger Total Depth
TLAB               .h        23_45                         : Time Logging on Bottom
TLI                .M        5084                          : Top Log Interval
X                  .M        677112.00000000               : 
Y                  .M        7136745.00000000              : 
~Parameter Information Block
#_______________________________________________________________________________
#
#PARAMETER_NAME    .UNIT     VALUE                         : DESCRIPTION
#_______________________________________________________________________________
SET                .         BASE                          : 
TLFamily_BS        .         Bit Size                      : 
TLFamily_DT        .         Compressional Slowness        : 
TLFamily_DWAL      .         Aluminum Weight Fraction      : 
TLFamily_DWCA      .         Calcium Weight Fraction       : 
TLFamily_DWFE      .         Iron Weight Fraction          : 
TLFamily_DWGD      .         Gadolinium Weight Fraction    : 
TLFamily_DWS       .         Sulfur Weight Fraction        : 
TLFamily_DWSI      .         Silicon Weight Fraction       : 
TLFamily_DWTI      .         Titanium Weight Fraction      : 
TLFamily_GR        .         Gamma Ray                     : 
TLFamily_GRt       .         Gamma Ray                     : 
TLFamily_HCAL      .         Caliper                       : 
TLFamily_HDRA      .         Bulk Density Correction       : 
TLFamily_HFK       .         Potassium Concentration       : 
TLFamily_HTHO      .         Thorium Concentration         : 
TLFamily_HURA      .         Uranium Concentration         : 
TLFamily_KSDR      .         NMR Permeability              : 
TLFamily_KTIM      .         NMR Permeability              : 
TLFamily_MD        .         Measured Depth                : 
TLFamily_NMRE_Final .         NMR Bound Fluid Volume Fraction: 
TLFamily_NMRFL_Final .         NMR Free Fluids               : 
TLFamily_NMRT_Final .         NMR Porosity                  : 
TLFamily_NPHI      .         Neutron Porosity              : 
TLFamily_PE        .         Photoelectric Factor          : 
TLFamily_RD        .         Resistivity - Deep            : 
TLFamily_RHOB      .         Bulk Density                  : 
TLFamily_RM        .         Resistivity - Medium          : 
TLFamily_RS        .         Resistivity - Shallow         : 
TLFamily_T2LM      .         NMR T2 Logarithmic Mean       : 
TLFamily_TVDSS     .         True Vertical Depth Sub Sea   : 
~Curve Information
#_______________________________________________________________________________
#
#LOGNAME           .UNIT     LOG_ID                        : DESCRIPTION
#_______________________________________________________________________________
DEPTH              .M                                      :  
BS                 .in                                     : Bit Size 
DT                 .us/ft                                  : Delta-T Compressional 
DWAL               .kg/kg                                  : Dry Weight Fraction Pseudo Aluminum (SpectroLith WALK2 Model) 
DWCA               .kg/kg                                  : Dry Weight Fraction Calcium (SpectroLith WALK2 Model) 
DWFE               .kg/kg                                  : Dry Weight Fraction Iron + 0.14 Aluminum (SpectroLith WALK2 Model) 
DWGD               .ppm                                    : Dry Weight Fraction Gadolinium (SpectroLith WALK2 Model) 
DWS                .kg/kg                                  : Dry Weight Fraction Sulfur (SpectroLith WALK2 Model) 
DWSI               .kg/kg                                  : Dry Weight Fraction Silicon (SpectroLith WALK2 Model) 
DWTI               .kg/kg                                  : Dry Weight Fraction Titanium (SpectroLith WALK2 Model) 
GR                 .gAPI                                   : Gamma Ray 
GRt                .gAPI                                   : HNGS Standard Gamma-Ray 
HCAL               .in                                     : HRCC Caliper Calibrated 
HDRA               .g/cm3                                  : Density Standoff Correction 
HFK                .%                                      : HNGS Formation Potassium Concentration 
HTHO               .ppm                                    : HNGS Formation Thorium Concentration 
HURA               .ppm                                    : HNGS Formation Uranium Concentration 
KSDR               .mD                                     : SDR Permeability 
KTIM               .mD                                     : Timur/Coates Permeability 
NMRE_Final         .m3/m3                                  :  
NMRFL_Final        .unitless                               :  
NMRT_Final         .frac                                   :  
NPHI               .frac                                   : Enhanced Thermal Neutron Porosity in Selected Lithology 
PE                 .b/e                                    : Standard Resolution Formation Photoelectric Factor 
RD                 .ohm.m                                  : Apparent Resistivity from Computed Focusing Mode 5 
RHOB               .g/cm3                                  : Standard Resolution Formation Density 
RM                 .ohm.m                                  : Apparent Resistivity from Computed Focusing Mode 4 
RS                 .ohm.m                                  : Apparent Resistivity from Computed Focusing Mode 3 
T2LM               .ms                                     : T2 Logarithmic Mean 
TVDSS              .M                                      :  
~Ascii
# ...
5265.776   12.250     73.037     0.000      0.357      0.000      2.330      0.000      0.051      0.000      27.669     22.220     12.364     -0.011     0.287      2.354      1.414      3.510      0.922      0.156      0.042      0.176      0.269      4.542      5.630      2.400      5.417      5.785      30.338     5239.941  
5265.928   12.250     72.554     0.000      0.355      0.000      0.686      0.000      0.053      0.000      26.655     22.241     12.367     -0.011     0.286      2.314      1.413      2.744      0.761      0.155      0.039      0.173      0.256      4.562      8.256      2.403      7.900      8.363      27.707     5240.093  
5266.080   12.250     72.258     0.003      0.348      0.002      1.015      0.000      0.055      0.000      25.830     22.039     12.370     -0.011     0.274      2.181      1.459      1.567      0.522      0.149      0.034      0.172      0.234      4.501      7.196      2.405      6.937      7.395      21.109     5240.245  
5266.233   12.250     72.607     0.007      0.345      0.004      1.506      0.000      0.053      0.000      25.537     21.742     12.375     -0.010     0.255      2.013      1.507      0.949      0.378      0.143      0.029      0.173      0.240      4.434      6.334      2.400      6.137      6.562      16.282     5240.396  
5266.385   12.250     74.081     0.006      0.348      0.004      2.185      0.000      0.051      0.000      26.159     22.379     12.397     -0.009     0.257      2.008      1.563      0.892      0.357      0.142      0.029      0.173      0.268      4.405      6.669      2.399      6.454      6.911      15.868     5240.548  
5266.538   12.250     75.984     0.005      0.349      0.003      2.260      0.002      0.050      0.000      27.906     24.941     12.399     -0.008     0.279      2.075      1.823      0.420      0.179      0.129      0.022      0.167      0.269      4.428      7.069      2.407      6.844      7.326      11.652     5240.700  
5266.690   12.250     77.985     0.004      0.347      0.003      2.027      0.006      0.051      0.000      33.907     30.074     12.391     -0.007     0.357      2.332      2.197      0.217      0.087      0.119      0.017      0.157      0.240      4.483      6.839      2.423      6.656      7.147      9.433      5240.852  
5266.842   12.250     79.293     0.010      0.338      0.006      1.888      0.001      0.055      0.000      41.348     35.279     12.388     -0.007     0.427      2.635      2.575      0.166      0.064      0.115      0.015      0.153      0.234      4.542      4.099      2.436      4.043      4.388      8.709      5241.003  
5266.995   12.250     79.345     0.016      0.327      0.010      1.040      0.000      0.056      0.000      47.245     39.262     12.384     -0.008     0.465      2.777      2.936      0.139      0.046      0.111      0.013      0.147      0.250      4.608      3.128      2.440      3.102      3.374      8.613      5241.155  
5267.147   12.250     79.488     0.019      0.318      0.012      0.308      0.001      0.061      0.000      47.507     40.148     12.365     -0.008     0.463      2.818      3.023      0.079      0.016      0.098      0.009      0.131      0.256      4.647      2.956      2.442      2.934      3.194      8.241      5241.307  
5267.300   12.250     80.894     0.017      0.312      0.011      0.000      0.006      0.070      0.000      45.741     39.665     12.360     -0.007     0.451      2.771      3.006      0.036      0.003      0.084      0.005      0.117      0.247      4.653      2.854      2.446      2.842      3.093      7.020      5241.459  
5267.452   12.250     83.620     0.013      0.307      0.010      0.802      0.013      0.077      0.000      43.043     37.300     12.366     -0.005     0.422      2.533      2.870      0.024      0.001      0.077      0.003      0.118      0.228      4.618      2.740      2.456      2.741      2.976      5.510      5241.610  
5267.604   12.250     85.440     0.012      0.303      0.009      3.556      0.016      0.083      0.000      39.930     34.298     12.367     -0.003     0.380      2.398      2.650      0.020      0.001      0.074      0.002      0.130      0.224      4.457      2.927      2.470      2.933      3.182      4.179      5241.762  
5267.757   12.250     85.192     0.011      0.296      0.008      5.432      0.015      0.094      0.000      36.078     30.363     12.367     -0.003     0.333      2.214      2.320      0.017      0.001      0.071      0.002      0.142      0.245      4.153      2.927      2.481      2.944      3.184      3.274      5241.914  
5267.909   12.250     82.981     0.010      0.283      0.007      3.213      0.019      0.109      0.000      32.904     27.022     12.344     -0.003     0.300      2.052      2.041      0.015      0.001      0.067      0.002      0.146      0.256      3.812      2.953      2.491      2.976      3.206      2.852      5242.066  
5268.062   12.250     81.045     0.006      0.277      0.005      0.295      0.024      0.120      0.000      32.771     23.915     12.343     -0.003     0.262      1.864      1.806      0.014      0.001      0.066      0.002      0.142      0.243      3.698      3.423      2.495      3.439      3.697      2.943      5242.217  
5268.214   12.250     80.755     0.002      0.283      0.002      0.000      0.029      0.118      0.000      33.715     23.294     12.366     -0.005     0.249      1.819      1.775      0.013      0.000      0.063      0.002      0.136      0.226      3.940      4.280      2.491      4.290      4.577      3.031      5242.369  
5268.366   12.250     80.763     0.000      0.296      0.000      0.000      0.024      0.109      0.000      35.071     24.917     12.360     -0.007     0.259      1.913      1.928      0.013      0.001      0.060      0.002      0.136      0.222      4.324      4.621      2.482      4.617      4.906      3.039      5242.521  
5268.519   12.250     80.430     0.002      0.306      0.001      0.000      0.015      0.100      0.001      36.477     28.221     12.365     -0.010     0.294      2.025      2.249      0.013      0.003      0.056      0.004      0.139      0.236      4.579      3.606      2.472      3.644      3.889      2.915      5242.673  
5268.671   12.250     79.557     0.006      0.310      0.004      0.000      0.011      0.089      0.001      38.244     31.265     12.366     -0.011     0.328      2.115      2.552      0.010      0.003      0.049      0.004      0.138      0.240      4.602      3.410      2.465      3.483      3.736      2.679      5242.824  
5268.824   12.250     78.550     0.009      0.314      0.006      0.000      0.017      0.075      0.001      39.402     33.378     12.393     -0.009     0.348      2.229      2.731      0.010      0.003      0.049      0.004      0.138      0.218      4.491      3.284      2.464      3.355      3.619      2.679      5242.976  
5268.976   12.250     78.282     0.008      0.328      0.005      0.000      0.019      0.061      0.001      39.421     34.744     12.394     -0.006     0.383      2.312      2.788      0.009      0.001      0.047      0.003      0.127      0.208      4.349      3.279      2.468      3.349      3.617      2.931      5243.128  
5269.128   12.250     81.779     0.003      0.339      0.002      0.000      0.014      0.058      0.001      38.418     35.394     12.298     -0.002     0.417      2.332      2.794      0.008      0.001      0.043      0.003      0.124      0.213      4.210      3.293      2.473      3.365      3.639      2.939      5243.280  
5269.281   12.250     90.546     0.000      0.331      0.000      0.759      0.007      0.077      0.000      37.753     34.513     12.500     -0.001     0.419      2.231      2.698      0.009      0.003      0.039      0.005      0.133      0.217      4.043      3.243      2.471      3.299      3.573      2.612      5243.431  
5269.433   12.250     97.367     0.000      0.294      0.000      2.436      0.013      0.117      0.000      36.306     31.353     12.284     -0.000     0.397      2.022      2.415      0.010      0.014      0.035      0.007      0.152      0.220      3.755      3.355      2.468      3.395      3.667      2.160      5243.583  
