~Version
 VERS              .         2.0                           : CWLS LOG ASCII STANDARD - VERSION 2.0
 WRAP              .         NO                            : ONE LINE PER DEPTH STEP
 DLM               .         SPACE                         : DELIMITING CHARACTER(SPACE TAB OR COMMA)
~Well Information
#_______________________________________________________________________________
#
#PARAMETER_NAME    .UNIT     VALUE                         : DESCRIPTION
#_______________________________________________________________________________
STRT               .M        5027.447                      : First reference value
STOP               .M        5499.430                      : Last reference value
STEP               .M        0.152                         : Step increment
NULL               .         -9999                         : Missing value
COMP               .         PETROBRAS                     : Company
WELL               .         8-SPH-10-SPS                  : Well name
FLD                .         SAPINHOA                      : Field
LOC                .                                       : Location
PROV               .                                       : Province
SRVC               .                                       : Service Company
DATE               .         2021-09-13 11_18_58           : Date
UWI                .         8-SPH-10-SPS                  : Unique Well ID
APD                .M        24                            : Above Permanent Datum
API                .                                       : API NUMBER
BHT                .degF     153                           : Bottom Hole Temperature
BLI                .M        5494.8                        : Bottom Log Interval
BS                 .in       8.5                           : Bit Size
CTRY               .         BRASIL                        : Nation
DCS                .         15/06/2015                    : Date Ciculation Stopped
DFD                .lb/gal   9.7                           : Drilling Fluid Density
DFT                .         CATIONICO FLEX DRILL (BASE AGUA): Drilling Fluid Type
DLAB               .         18/06/2015                    : Date Logger At Bottom
EDF                .M        24                            : Elevation of Derreck Floor
EGL                .M        -2125                         : Elevation of Ground Level
EKB                .M        -999.25                       : Elevation of Kelly Bushing
EPD                .M        0                             : Elevation Of Permanent Datum
LMF                .         MR                            : Log Measured From
LONG               .         -43_10_14,760                 : Longitude
MCST               .degF     67                            : Mud Cake Sample Temperature
MFST               .degF     67                            : Mud Filtrate Sample Temperature
MRT                .degF     153                           : Maximum Recorded Temperature
MST                .degF     67                            : Mud Sample Temperature
ORIGINALWELLNAME   .         P08                           : 
PDAT               .         NM                            : Permanent Datum
PRODUCER-CODE      .         150                           : 
PRODUCER-NAME      .         ATLAS                         : 
RMB                .ohm.m    -999.25                       : Resistivity Of Mud - BHT
RMCS               .ohm.m    0.078                         : Resistivity Of Mud Cake Sample
RMFS               .ohm.m    0.064                         : Mud Filtrate Sample Resistivity
RMS                .ohm.m    0.071                         : Mud Sample Resistivity
RUN                .         3                             : Run Number
STAT               .         SAO PAULO                     : State
TCS                .h        22_00                         : Time Ciculation Stopped
TDD                .M        5496                          : Total Depht - Driller
TDL                .M        5495.5                        : Total Depht - Logger
TLAB               .h        10_45                         : Time Logger At Bottom
TLI                .M        5114                          : Top Log Interval
X                  .M        683623.00000000               : 
Y                  .M        7161727.00000000              : 
~Parameter Information Block
#_______________________________________________________________________________
#
#PARAMETER_NAME    .UNIT     VALUE                         : DESCRIPTION
#_______________________________________________________________________________
SET                .         BASE                          : 
TLFamily_BS        .         Bit Size                      : 
TLFamily_DT        .         Compressional Slowness        : 
TLFamily_DWAL      .         Aluminum Weight Fraction      : 
TLFamily_DWCA      .         Calcium Weight Fraction       : 
TLFamily_DWFE      .         Iron Weight Fraction          : 
TLFamily_DWGD      .         Gadolinium Weight Fraction    : 
TLFamily_DWK       .         Potassium Weight Fraction     : 
TLFamily_DWMG      .         Magnesium Weight Fraction     : 
TLFamily_DWMN      .         Manganese Weight Fraction     : 
TLFamily_DWS       .         Sulfur Weight Fraction        : 
TLFamily_DWSI      .         Silicon Weight Fraction       : 
TLFamily_DWTI      .         Titanium Weight Fraction      : 
TLFamily_GR        .         Gamma Ray                     : 
TLFamily_GRt       .         Gamma Ray                     : 
TLFamily_HCAL      .         Caliper                       : 
TLFamily_HDRA      .         Bulk Density Correction       : 
TLFamily_HFK       .         Potassium Concentration       : 
TLFamily_HTHO      .         Thorium Concentration         : 
TLFamily_HURA      .         Uranium Concentration         : 
TLFamily_MD        .         Measured Depth                : 
TLFamily_MPERM     .         NMR Permeability              : 
TLFamily_NMRE_Final .         NMR Bound Fluid Volume Fraction: 
TLFamily_NMRFL_Final .         NMR Free Fluids               : 
TLFamily_NMRT_Final .         NMR Porosity                  : 
TLFamily_NPHI      .         Neutron Porosity              : 
TLFamily_PE        .         Photoelectric Factor          : 
TLFamily_RD        .         Resistivity - Deep            : 
TLFamily_RHOB      .         Bulk Density                  : 
TLFamily_RS        .         Resistivity - Shallow         : 
TLFamily_TVDSS     .         True Vertical Depth Sub Sea   : 
~Curve Information
#_______________________________________________________________________________
#
#LOGNAME           .UNIT     LOG_ID                        : DESCRIPTION
#_______________________________________________________________________________
DEPTH              .M                                      :  
BS                 .in                                     : Bit size 
DT                 .us/ft                                  : Slowness over 24-inch interval 
DWAL               .kg/kg                                  : Weight fraction of aluminum derived from thorium in dry rock 
DWCA               .kg/kg                                  : Weight fraction of calcium in dry rock 
DWFE               .kg/kg                                  : Weight fraction of iron in dry rock 
DWGD               .ppm                                    : Weight fraction of gadolinium in dry rock 
DWK                .kg/kg                                  : Weight fraction of potassium in dry rock 
DWMG               .kg/kg                                  : Weight fraction of magnesium in dry rock 
DWMN               .kg/kg                                  : Weight fraction of manganese in dry rock 
DWS                .kg/kg                                  : Weight fraction of sulfur in dry rock 
DWSI               .kg/kg                                  : Weight fraction of silicon in dry rock 
DWTI               .kg/kg                                  : Weight fraction of titanium in dry rock 
GR                 .gAPI                                   : Gamma ray 
GRt                .gAPI                                   : Gamma ray from 1329 spectrum 
HCAL               .in                                     : Caliper 
HDRA               .g/cm3                                  : Density correction 
HFK                .%                                      : Potassium content 
HTHO               .ppm                                    : Thorium concentration 
HURA               .ppm                                    : Uranium content 
MPERM              .mD                                     : MR permeability 
NMRE_Final         .m3/m3                                  : MR effective porosity 
NMRFL_Final        .unitless                               : MR moveable fluids 
NMRT_Final         .frac                                   : MR total porosity 
NPHI               .frac                                   : Borehole size corrected compensated neutron porosity 
PE                 .b/e                                    : Photo electric cross-section 
RD                 .ohm.m                                  : Deep resistivity 
RHOB               .g/cm3                                  : Formation bulk density 
RS                 .ohm.m                                  : Shallow resistivity 
TVDSS              .M                                      :  
~Ascii
# ...
5358.917   8.500      80.675     0.001      0.110      0.000      1.184      0.004      0.001      0.001      0.001      0.316      0.002      31.962     32.084     9.039      -0.010     0.057      0.232      3.633      2.831      0.100      0.063      0.111      0.122      2.483      5.474      2.496      9.107      5334.573  
5359.070   8.500      82.170     0.001      0.116      0.000      1.229      0.003      0.001      0.001      0.001      0.307      0.002      32.403     32.529     9.040      -0.011     0.055      0.262      3.623      2.667      0.102      0.062      0.116      0.118      2.537      5.576      2.500      9.014      5334.725  
5359.222   8.500      81.342     0.002      0.121      0.000      1.307      0.003      0.002      0.001      0.001      0.300      0.002      31.215     31.342     9.039      -0.010     0.049      0.294      3.606      2.554      0.101      0.062      0.114      0.114      2.422      6.650      2.507      10.560     5334.877  
5359.375   8.500      79.116     0.002      0.120      0.000      1.370      0.002      0.001      0.001      0.001      0.298      0.002      29.839     29.963     9.040      -0.007     0.047      0.341      3.559      2.063      0.097      0.059      0.108      0.113      2.334      8.379      2.518      13.308     5335.030  
5359.527   8.500      76.220     0.002      0.117      0.000      1.372      0.001      0.002      0.001      0.001      0.296      0.003      29.264     29.385     9.041      -0.005     0.052      0.391      3.486      2.049      0.100      0.059      0.113      0.116      2.429      9.789      2.523      15.596     5335.182  
5359.679   8.500      72.984     0.002      0.115      0.000      1.362      0.002      0.005      0.001      0.001      0.289      0.003      28.942     29.059     9.041      -0.007     0.062      0.435      3.397      2.421      0.108      0.062      0.121      0.126      2.619      10.173     2.515      16.096     5335.334  
5359.832   8.500      69.811     0.002      0.115      0.001      1.437      0.003      0.012      0.001      0.001      0.275      0.004      28.115     28.226     9.041      -0.010     0.072      0.477      3.287      2.776      0.110      0.064      0.121      0.141      2.695      9.710      2.502      15.090     5335.487  
5359.984   8.500      67.707     0.002      0.118      0.001      1.597      0.004      0.025      0.001      0.001      0.258      0.005      26.864     26.969     9.041      -0.010     0.078      0.503      3.158      3.696      0.108      0.067      0.116      0.155      2.646      8.968      2.503      13.610     5335.639  
5360.137   8.500      67.649     0.003      0.120      0.001      1.765      0.004      0.045      0.001      0.001      0.247      0.005      25.609     25.708     9.041      -0.007     0.076      0.506      3.030      8.363      0.110      0.078      0.117      0.166      2.697      8.238      2.522      12.158     5335.792  
5360.289   8.500      69.415     0.003      0.119      0.002      1.883      0.003      0.070      0.001      0.001      0.244      0.005      24.759     24.858     9.041      -0.001     0.069      0.502      2.924      18.505     0.115      0.088      0.124      0.168      2.902      7.721      2.541      11.006     5335.944  
5360.441   8.500      71.523     0.003      0.116      0.003      1.937      0.002      0.089      0.001      0.001      0.244      0.004      24.537     24.639     9.041      0.006      0.064      0.520      2.830      22.831     0.119      0.092      0.127      0.162      3.018      7.711      2.542      10.597     5336.096  
5360.594   8.500      72.130     0.003      0.117      0.003      1.918      0.001      0.091      0.001      0.001      0.242      0.003      24.557     24.659     9.042      0.012      0.064      0.584      2.733      16.735     0.119      0.088      0.128      0.153      2.947      8.275      2.531      11.075     5336.249  
5360.746   8.500      70.403     0.004      0.118      0.002      1.813      0.001      0.076      0.001      0.001      0.240      0.003      24.624     24.725     9.042      0.019      0.062      0.698      2.644      9.595      0.115      0.081      0.127      0.150      2.863      9.078      2.521      11.989     5336.401  
5360.899   8.500      67.489     0.004      0.118      0.002      1.650      0.001      0.053      0.001      0.001      0.241      0.003      25.387     25.492     9.041      0.021      0.059      0.844      2.574      6.223      0.108      0.074      0.119      0.147      2.889      9.740      2.511      12.772     5336.553  
5361.051   8.500      65.875     0.005      0.118      0.003      1.466      0.003      0.037      0.001      0.001      0.244      0.003      26.712     26.821     9.041      0.015      0.058      0.971      2.520      10.951     0.104      0.078      0.110      0.143      2.963      10.204     2.502      13.283     5336.706  
5361.203   8.500      67.345     0.005      0.121      0.004      1.290      0.006      0.032      0.001      0.001      0.246      0.003      27.285     27.395     9.041      0.008      0.059      1.027      2.495      18.723     0.099      0.081      0.103      0.143      2.958      10.831     2.498      13.980     5336.858  
5361.356   8.500      71.490     0.005      0.122      0.004      1.193      0.008      0.031      0.001      0.001      0.250      0.002      26.465     26.572     9.042      0.004      0.057      0.970      2.526      8.911      0.099      0.074      0.102      0.144      2.847      11.843     2.504      15.062     5337.011  
5361.508   8.500      75.888     0.004      0.117      0.005      1.223      0.007      0.030      0.001      0.001      0.261      0.002      24.941     25.045     9.042      0.008      0.056      0.806      2.612      2.154      0.102      0.060      0.105      0.138      2.685      12.540     2.504      15.365     5337.163  
5361.661   8.500      77.641     0.003      0.104      0.004      1.314      0.005      0.026      0.001      0.001      0.277      0.002      23.986     24.088     9.043      0.016      0.056      0.659      2.700      1.144      0.097      0.052      0.098      0.132      2.544      12.189     2.490      14.055     5337.315  
5361.813   8.500      75.381     0.003      0.089      0.002      1.343      0.002      0.024      0.001      0.001      0.289      0.002      24.574     24.676     9.044      0.025      0.057      0.569      2.805      1.100      0.089      0.051      0.089      0.136      2.480      11.174     2.481      12.175     5337.468  
5361.965   8.500      69.998     0.003      0.082      0.001      1.286      0.002      0.025      0.001      0.001      0.286      0.003      26.485     26.591     9.053      0.034      0.055      0.529      2.984      1.363      0.083      0.052      0.083      0.146      2.534      10.227     2.497      10.892     5337.620  
5362.118   8.500      63.685     0.004      0.086      0.001      1.245      0.003      0.030      0.001      0.001      0.268      0.003      29.038     29.154     9.069      0.035      0.060      0.641      3.199      1.774      0.082      0.054      0.082      0.160      2.682      9.397      2.533      10.015     5337.772  
5362.270   8.500      58.765     0.005      0.099      0.001      1.288      0.006      0.037      0.001      0.001      0.242      0.004      32.108     32.240     9.082      0.026      0.073      0.952      3.378      2.548      0.086      0.059      0.086      0.187      2.788      8.282      2.561      8.941      5337.925  
5362.423   8.500      56.934     0.006      0.114      0.002      1.391      0.009      0.046      0.001      0.001      0.210      0.004      35.341     35.489     9.088      0.006      0.084      1.333      3.525      5.901      0.102      0.072      0.102      0.231      2.792      6.559      2.544      7.279      5338.077  
5362.575   8.500      58.741     0.008      0.123      0.002      1.528      0.014      0.057      0.001      0.001      0.176      0.004      37.962     38.118     9.096      -0.012     0.087      1.609      3.665      17.759     0.133      0.094      0.134      0.268      2.818      4.482      2.491      5.162      5338.230  
