~Version
 VERS              .         2.0                           : CWLS LOG ASCII STANDARD - VERSION 2.0
 WRAP              .         NO                            : ONE LINE PER DEPTH STEP
 DLM               .         SPACE                         : DELIMITING CHARACTER(SPACE TAB OR COMMA)
~Well Information
#_______________________________________________________________________________
#
#PARAMETER_NAME    .UNIT     VALUE                         : DESCRIPTION
#_______________________________________________________________________________
STRT               .M        2228.000                      : First reference value
STOP               .M        5446.688                      : Last reference value
STEP               .M        0.152                         : Step increment
NULL               .         -9999                         : Missing value
COMP               .         Petrobras                     : Company
WELL               .         8-SPH-13-SPS                  : Well name
FLD                .         Sapinhoa                      : Field
LOC                .                                       : Location
CNTY               .                                       : County
STAT               .         SAO PAULO                     : State
CTRY               .         BRASIL                        : Country
SRVC               .                                       : Service Company
DATE               .                                       : Date
API                .         863160035500                  : API number
APD                .M        24                            : Above Permanent Datum
BHT                .degF     120                           : Bottom Hole Temperature
BLI                .M        5180.5                        : Bottom Log Interval
BS                 .in       12.25x14.75                   : Bit Size
DCS                .         07/04/2014                    : Date Ciculation Stopped
DFD                .lbm/gal  10.1                          : Drilling Fluid Density
DFT                .         BR-MUL                        : Drilling Fluid Type
DLAB               .         08/04/2014                    : Date Logger At Bottom
EDF                .M        24                            : Elevation of Derreck Floor
EGL                .M        -2119                         : Elevation of Ground Level
EKB                .M        -999.25                       : ELEVATION OF KELLY BUSHING
EPD                .M        0                             : Elevation Of Permanent Datum
GDAT               .         SIRGAS2000                    : Geodetic Datum
LMF                .         MR                            : Log Measured From
LUL                .         MCE                           : LOGGING UNIT LOCATION
LUN                .         -999.25                       : LOGGING UNIT NUMBER
LATI               .         -25_42_39.196                 : Latitude
LONG               .         -43_09_15.905                 : Longitude
MCST               .degF     -999.25                       : Mud Cake Sample Temperature
MFST               .degF     -999.25                       : Mud Filtrate Sample Temperature
MRT                .degF     120                           : Maximum Recorded Temperature
MST                .degF     -999.25                       : Mud Sample Temperature
ORIGINALWELLNAME   .         8SPH 0013  SPS                : 
PDAT               .         NM                            : Permanent Datum
PRODUCER-CODE      .         15                            : 
PRODUCER-NAME      .         INTEQ                         : 
RMB                .ohm.m    -999.25                       : RESISTIVITY OF MUD - BHT
RMCS               .ohm.m    -999.25                       : Resistivity Of Mud Cake Sample
RMFS               .ohm.m    -999.25                       : Mud Filtrate Sample Resistivity
RMS                .ohm.m    -999.25                       : Mud Sample Resistivity
RUN                .         1                             : Run
TCS                .h        15_00                         : Time Ciculation Stopped
TDD                .M        5184                          : Total Depht - Driller
TDL                .M        5184                          : Total Depht - Logger
TLAB               .h        11_00                         : Time Logger At Bottom
TLI                .M        3543                          : Top Log Interval
X                  .M        685128.30900000               : X COORDINATE N
Y                  .M        7155027.01100000              : Y COORDINATE E
~Parameter Information Block
#_______________________________________________________________________________
#
#PARAMETER_NAME    .UNIT     VALUE                         : DESCRIPTION
#_______________________________________________________________________________
SET                .         BASE                          : 
TLFamily_DT        .         Compressional Slowness        : 
TLFamily_GR        .         Gamma Ray                     : 
TLFamily_HCAL      .         Caliper                       : 
TLFamily_MD        .         Measured Depth                : 
TLFamily_NMRE_Final .         NMR Bound Fluid Volume Fraction: 
TLFamily_NMRFL_Final .         NMR Free Fluids               : 
TLFamily_NMRT_Final .         NMR Porosity                  : 
TLFamily_NPHI      .         Neutron Porosity              : 
TLFamily_RD        .         Resistivity - Deep            : 
TLFamily_RHOB      .         Bulk Density                  : 
TLFamily_RM        .         Resistivity - Medium          : 
TLFamily_RS        .         Resistivity - Shallow         : 
~Curve Information
#_______________________________________________________________________________
#
#LOGNAME           .UNIT     LOG_ID                        : DESCRIPTION
#_______________________________________________________________________________
DEPTH              .M                                      :  
DT                 .us/ft                                  : SONICO COMPRESSIONAL (COMPOSICAO DE CURVAS CABO E/OU LWD) 
GR                 .gAPI                                   : RAIOS GAMA (COMPOSICAO DE CURVAS CABO E/OU LWD) 
HCAL               .in                                     : CALIPER (COMPOSICAO DE CURVAS CABO E/OU LWD) 
NMRE_Final         .m3/m3                                  : 03/02 - MRIL (HALLIBURTON) - MRIL EFFECTIVE POROSITY 
NMRFL_Final        .unitless                               : 03/02 - MRIL (HALLIBURTON) - FREE FLUID INDEX T2 
NMRT_Final         .frac                                   : 03/02 - MRIL (HALLIBURTON) - MRIAN MRIL TOTAL POROSITY 
NPHI               .frac                                   : POROSIDADE NEUTRONICA (COMPOSICAO DE CURVAS CABO E/OU LWD) 
RD                 .ohm.m                                  : RESISTIVIDADE PROFUNDA (COMPOSICAO DE CURVAS CABO E/OU LWD) 
RHOB               .g/cm3                                  : DENSIDADE (COMPOSICAO DE CURVAS CABO E/OU LWD ) 
RM                 .ohm.m                                  : RESISTIVIDADE MEDIA (COMPOSICAO DE CURVAS CABO E/OU LWD) 
RS                 .ohm.m                                  : RESISTIVIDADE RASA (COMPOSICAO DE CURVAS CABO E/OU LWD) 
~Ascii
# ...
5054.106   67.719     5.527      14.426     -9999.000  -9999.000  -9999.000  -0.029     2000.000   2.053      3028.604   3028.604  
5054.258   67.784     6.117      14.425     -9999.000  -9999.000  -9999.000  -0.030     2000.000   2.048      3449.979   3449.979  
5054.410   67.999     6.612      14.433     -9999.000  -9999.000  -9999.000  -0.029     1951.089   2.047      2358.929   2358.929  
5054.563   68.337     6.409      14.429     -9999.000  -9999.000  -9999.000  -0.027     1805.264   2.049      1147.811   1147.811  
5054.715   68.652     6.364      14.423     -9999.000  -9999.000  -9999.000  -0.022     1598.498   2.054      1086.974   1086.974  
5054.868   68.820     8.045      14.420     -9999.000  -9999.000  -9999.000  -0.019     1155.991   2.064      909.284    909.284   
5055.020   68.832     9.748      14.422     -9999.000  -9999.000  -9999.000  -0.016     900.550    2.072      1130.237   1130.237  
5055.172   68.706     10.179     14.424     -9999.000  -9999.000  -9999.000  -0.011     737.721    2.072      1842.086   1842.086  
5055.325   68.468     9.464      14.421     -9999.000  -9999.000  -9999.000  -0.007     785.407    2.078      1375.620   1375.620  
5055.477   68.217     8.516      14.413     -9999.000  -9999.000  -9999.000  -0.010     951.862    2.087      1317.115   1317.115  
5055.630   68.023     8.201      14.412     -9999.000  -9999.000  -9999.000  -0.017     1075.722   2.080      1145.862   1145.862  
5055.782   67.933     7.735      14.431     -9999.000  -9999.000  -9999.000  -0.023     1262.305   2.061      1205.937   1205.937  
5055.934   67.999     6.931      14.460     -9999.000  -9999.000  -9999.000  -0.027     1427.659   2.048      1205.937   1205.937  
5056.087   67.928     6.536      14.470     -9999.000  -9999.000  -9999.000  -0.029     1624.185   2.043      1370.734   1370.734  
5056.239   67.895     6.787      14.476     -9999.000  -9999.000  -9999.000  -0.030     1696.156   2.041      1544.886   1544.886  
5056.392   68.103     6.754      14.478     -9999.000  -9999.000  -9999.000  -0.030     1712.313   2.042      1452.647   1452.647  
5056.544   68.625     6.510      14.476     -9999.000  -9999.000  -9999.000  -0.030     1677.265   2.043      1445.857   1445.857  
5056.696   69.082     6.383      14.474     -9999.000  -9999.000  -9999.000  -0.030     1598.460   2.042      1544.886   1544.886  
5056.849   69.355     6.221      14.476     -9999.000  -9999.000  -9999.000  -0.030     1557.269   2.037      1454.327   1454.327  
5057.001   69.504     5.625      14.477     -9999.000  -9999.000  -9999.000  -0.031     1520.619   2.036      1354.229   1354.229  
5057.154   69.550     5.616      14.474     -9999.000  -9999.000  -9999.000  -0.031     1491.190   2.040      1284.624   1284.624  
5057.306   69.465     5.270      14.472     -9999.000  -9999.000  -9999.000  -0.031     1444.843   2.046      1275.186   1275.186  
5057.458   69.206     5.134      14.470     -9999.000  -9999.000  -9999.000  -0.030     1428.829   2.052      1285.456   1285.456  
5057.611   68.697     5.969      14.470     -9999.000  -9999.000  -9999.000  -0.030     1415.208   2.057      1205.937   1205.937  
5057.763   68.360     6.094      14.466     -9999.000  -9999.000  -9999.000  -0.029     1400.775   2.063      1274.354   1274.354  
5057.916   68.232     5.850      14.461     -9999.000  -9999.000  -9999.000  -0.029     1385.492   2.061      1557.532   1557.532  
5058.068   68.301     5.679      14.459     -9999.000  -9999.000  -9999.000  -0.028     1382.584   2.056      1529.614   1529.614  
5058.220   68.231     5.979      14.463     -9999.000  -9999.000  -9999.000  -0.028     1389.927   2.050      1272.573   1272.573  
5058.373   68.193     6.517      14.467     -9999.000  -9999.000  -9999.000  -0.029     1407.338   2.045      1354.229   1354.229  
5058.525   67.970     6.498      14.467     -9999.000  -9999.000  -9999.000  -0.029     1409.025   2.040      1191.141   1191.141  
5058.678   67.690     6.658      14.477     -9999.000  -9999.000  -9999.000  -0.030     1395.132   2.037      1236.306   1236.306  
5058.830   67.497     6.997      14.491     -9999.000  -9999.000  -9999.000  -0.031     1361.838   2.035      1460.741   1460.741  
5058.982   67.433     6.512      14.492     -9999.000  -9999.000  -9999.000  -0.031     1320.637   2.036      1437.916   1437.916  
5059.135   67.429     6.025      14.493     -9999.000  -9999.000  -9999.000  -0.031     1344.033   2.040      1461.810   1461.810  
5059.287   67.493     5.807      14.493     -9999.000  -9999.000  -9999.000  -0.031     1405.135   2.040      1289.494   1289.494  
5059.440   67.688     5.910      14.493     -9999.000  -9999.000  -9999.000  -0.031     1431.579   2.038      1352.815   1352.815  
5059.592   67.964     5.716      14.493     -9999.000  -9999.000  -9999.000  -0.031     1438.564   2.038      1462.726   1462.726  
5059.744   67.973     5.287      14.491     -9999.000  -9999.000  -9999.000  -0.031     1429.459   2.040      1354.229   1354.229  
5059.897   67.944     5.000      14.491     -9999.000  -9999.000  -9999.000  -0.031     1411.518   2.040      1354.229   1354.229  
5060.049   68.119     5.011      14.490     -9999.000  -9999.000  -9999.000  -0.031     1404.659   2.037      1434.709   1434.709  
5060.202   68.148     5.725      14.491     -9999.000  -9999.000  -9999.000  -0.031     1402.076   2.036      1544.886   1544.886  
5060.354   68.225     6.292      14.492     -9999.000  -9999.000  -9999.000  -0.031     1402.254   2.037      1403.709   1403.709  
5060.506   68.612     6.109      14.493     -9999.000  -9999.000  -9999.000  -0.031     1407.003   2.042      1205.937   1205.937  
5060.659   68.847     5.613      14.497     -9999.000  -9999.000  -9999.000  -0.031     1410.969   2.046      1345.213   1345.213  
5060.811   68.795     5.713      14.498     -9999.000  -9999.000  -9999.000  -0.031     1412.175   2.042      1467.155   1467.155  
5060.964   68.580     6.065      14.500     -9999.000  -9999.000  -9999.000  -0.031     1404.518   2.039      1431.502   1431.502  
5061.116   68.470     6.104      14.501     -9999.000  -9999.000  -9999.000  -0.031     1393.722   2.041      1468.224   1468.224  
5061.268   68.234     5.575      14.500     -9999.000  -9999.000  -9999.000  -0.031     1356.684   2.044      1354.229   1354.229  
5061.421   68.058     5.701      14.499     -9999.000  -9999.000  -9999.000  -0.031     1320.946   2.047      1429.822   1429.822  
5061.573   68.128     5.634      14.498     -9999.000  -9999.000  -9999.000  -0.031     1330.608   2.047      1469.140   1469.140  
5061.726   68.032     5.378      14.497     -9999.000  -9999.000  -9999.000  -0.030     1415.951   2.049      1295.789   1295.789  
5061.878   67.891     5.287      14.497     -9999.000  -9999.000  -9999.000  -0.030     1570.471   2.053      1263.902   1263.902  
5062.030   67.900     5.471      14.498     -9999.000  -9999.000  -9999.000  -0.031     1614.141   2.054      1354.229   1354.229  
5062.183   68.035     6.207      14.496     -9999.000  -9999.000  -9999.000  -0.031     1566.293   2.051      1354.229   1354.229  
5062.335   67.892     6.472      14.491     -9999.000  -9999.000  -9999.000  -0.031     1485.738   2.049      1354.229   1354.229  
5062.488   67.682     6.336      14.491     -9999.000  -9999.000  -9999.000  -0.031     1385.725   2.047      1297.928   1297.928  
5062.640   67.562     6.154      14.492     -9999.000  -9999.000  -9999.000  -0.031     1335.761   2.043      1333.810   1333.810  
5062.792   67.500     6.042      14.491     -9999.000  -9999.000  -9999.000  -0.031     1296.385   2.039      1544.886   1544.886  
5062.945   67.492     5.975      14.488     -9999.000  -9999.000  -9999.000  -0.031     1295.050   2.039      1473.416   1473.416  
5063.097   67.529     6.466      14.486     -9999.000  -9999.000  -9999.000  -0.031     1320.725   2.042      1299.115   1299.115  
5063.250   67.617     6.879      14.484     -9999.000  -9999.000  -9999.000  -0.031     1338.772   2.044      1331.095   1331.095  
