~Version
 VERS              .         2.0                           : CWLS LOG ASCII STANDARD - VERSION 2.0
 WRAP              .         NO                            : ONE LINE PER DEPTH STEP
 DLM               .         SPACE                         : DELIMITING CHARACTER(SPACE TAB OR COMMA)
~Well Information
#_______________________________________________________________________________
#
#PARAMETER_NAME    .UNIT     VALUE                         : DESCRIPTION
#_______________________________________________________________________________
STRT               .M        5159.045                      : First reference value
STOP               .M        5591.861                      : Last reference value
STEP               .M        0.152                         : Step increment
NULL               .         -9999                         : Missing value
COMP               .         PETROBRAS                     : Company
WELL               .         8-SPH-19D-SPS                 : Well name
FLD                .         SAPINHOA                      : Field
LOC                .                                       : Location
PROV               .                                       : Province
SRVC               .                                       : Service Company
DATE               .         2020-11-17 00_10_26           : Date
UWI                .         8SPH0019DSPS                  : Unique Well ID
APD                .M        26                            : Above Permanent Datum
API                .                                       : API NUMBER
BHT                .degF     150                           : Bottom Hole Temperature
BLI                .M        5581.8                        : Bottom Log Interval
BS                 .in       12.25                         : Bit Size
CNTY               .                                       : County
CTRY               .         BRASIL                        : Nation
DCS                .         04/08/2015                    : Date Ciculation Stopped
DFD                .lbm/gal  9.5                           : Drilling Fluid Density
DFT                .         NAO AQUOSO (BASE OLEFINA)     : Drilling Fluid Type
DLAB               .         05/08/2015                    : Date Logger At Bottom
EDF                .M        26                            : Elevation of Derreck Floor
EGL                .M        -2132                         : Elevation of Ground Level
EKB                .M        -999.25                       : Elevation of Kelly Bushing
EPD                .M        0                             : Elevation Of Permanent Datum
GDAT               .         SIRGAS2000                    : Geodetic Datum
LMF                .         MR                            : Log Measured From
LATI               .         -25_46_45.710                 : Latitude
LONG               .         -43_12_21,306                 : Longitude
MCST               .degF     -999.25                       : Mud Cake Sample Temperature
MFST               .degF     -999.25                       : Mud Filtrate Sample Temperature
MRT                .degF     150                           : Maximum Recorded Temperature
MST                .degF     -999.25                       : Mud Sample Temperature
ORIGINALWELLNAME   .         8-sph-19d-sps_petrobras       : 
PDAT               .         NM                            : Permanent Datum
PRODUCER-CODE      .         150                           : 
PRODUCER-NAME      .         ATLAS                         : 
RMB                .ohm.m    -999.25                       : Resistivity Of Mud - BHT
RMCS               .ohm.m    -999.25                       : Resistivity Of Mud Cake Sample
RMFS               .ohm.m    -999.25                       : Mud Filtrate Sample Resistivity
RMS                .ohm.m    -999.25                       : Mud Sample Resistivity
RUN                .         2                             : Run Number
STAT               .         SAO PAULO                     : State
TCS                .h        02_00                         : Time Ciculation Stopped
TDD                .M        5583                          : Total Depht - Driller
TDL                .M        5585.4                        : Total Depht - Logger
TLAB               .h        18_45                         : Time Logger At Bottom
TLI                .M        5200                          : Top Log Interval
X                  .M        679908.00000000               : Surface X
Y                  .M        7148113.00000000              : Surface Y
~Parameter Information Block
#_______________________________________________________________________________
#
#PARAMETER_NAME    .UNIT     VALUE                         : DESCRIPTION
#_______________________________________________________________________________
SET                .         BASE                          : 
TLFamily_BS        .         Bit Size                      : 
TLFamily_DT        .         Compressional Slowness        : 
TLFamily_DWAL      .         Aluminum Weight Fraction      : 
TLFamily_DWCA      .         Calcium Weight Fraction       : 
TLFamily_DWFE      .         Iron Weight Fraction          : 
TLFamily_DWGD      .         Gadolinium Weight Fraction    : 
TLFamily_DWK       .         Potassium Weight Fraction     : 
TLFamily_DWMG      .         Magnesium Weight Fraction     : 
TLFamily_DWMN      .         Manganese Weight Fraction     : 
TLFamily_DWS       .         Sulfur Weight Fraction        : 
TLFamily_DWSI      .         Silicon Weight Fraction       : 
TLFamily_DWTI      .         Titanium Weight Fraction      : 
TLFamily_GR        .         Gamma Ray                     : 
TLFamily_GRt       .         Gamma Ray                     : 
TLFamily_HCAL      .         Caliper                       : 
TLFamily_HDRA      .         Bulk Density Correction       : 
TLFamily_HFK       .         Potassium Concentration       : 
TLFamily_HTHO      .         Thorium Concentration         : 
TLFamily_HURA      .         Uranium Concentration         : 
TLFamily_MD        .         Measured Depth                : 
TLFamily_MPERM     .         NMR Permeability              : 
TLFamily_NMRE_Final .         NMR Bound Fluid Volume Fraction: 
TLFamily_NMRFL_Final .         NMR Free Fluids               : 
TLFamily_NMRT_Final .         NMR Porosity                  : 
TLFamily_NPHI      .         Neutron Porosity              : 
TLFamily_PE        .         Photoelectric Factor          : 
TLFamily_RD        .         Resistivity - Deep            : 
TLFamily_RHOB      .         Bulk Density                  : 
TLFamily_RM        .         Resistivity - Medium          : 
TLFamily_RS        .         Resistivity - Shallow         : 
TLFamily_TVDSS     .         True Vertical Depth Sub Sea   : 
~Curve Information
#_______________________________________________________________________________
#
#LOGNAME           .UNIT     LOG_ID                        : DESCRIPTION
#_______________________________________________________________________________
DEPTH              .M                                      :  
BS                 .in                                     :  
DT                 .us/ft                                  : SONICO COMPRESSIONAL (COMPOSICAO DE CURVAS CABO E/OU LWD) 
DWAL               .kg/kg                                  :  
DWCA               .kg/kg                                  :  
DWFE               .kg/kg                                  :  
DWGD               .ppm                                    :  
DWK                .kg/kg                                  :  
DWMG               .kg/kg                                  :  
DWMN               .kg/kg                                  :  
DWS                .kg/kg                                  :  
DWSI               .kg/kg                                  :  
DWTI               .kg/kg                                  :  
GR                 .gAPI                                   :  
GRt                .gAPI                                   :  
HCAL               .in                                     : CALIPER (COMPOSICAO DE CURVAS CABO E/OU LWD) 
HDRA               .g/cm3                                  : Density Delta Rho Filtered 
HFK                .%                                      :  
HTHO               .ppm                                    :  
HURA               .ppm                                    :  
MPERM              .mD                                     :  
NMRE_Final         .m3/m3                                  :  
NMRFL_Final        .unitless                               :  
NMRT_Final         .frac                                   :  
NPHI               .frac                                   : Neutron Porosity Limestone Filtered 
PE                 .b/e                                    : Density PE Filtered 
RD                 .ohm.m                                  : Vertical 2-foot resolution matched resistivity, 90-inch DOI 
RHOB               .g/cm3                                  : Bulk Density Filtered 
RM                 .ohm.m                                  : Vertical 2-foot resolution matched resistivity, 30-inch DOI 
RS                 .ohm.m                                  : Vertical 2-foot resolution matched resistivity, 10-inch DOI 
TVDSS              .M                                      :  
~Ascii
# ...
5477.256   12.250     84.846     0.013      0.245      0.008      3.007      0.020      0.071      0.001      0.001      0.122      0.000      75.832     76.321     12.649     0.147      0.634      2.297      6.767      0.000      0.017      0.003      0.110      0.303      5.903      3.498      2.502      3.608      4.026      5300.917  
5477.408   12.250     85.855     0.012      0.234      0.007      3.240      0.016      0.088      0.001      0.001      0.121      0.000      74.045     74.513     12.658     0.148      0.608      2.199      6.848      0.000      0.020      0.004      0.115      0.323      5.813      3.224      2.512      3.313      3.690      5301.059  
5477.561   12.250     87.221     0.010      0.224      0.007      3.450      0.012      0.097      0.001      0.001      0.131      0.000      65.565     65.960     12.600     0.146      0.516      1.839      6.790      0.000      0.022      0.006      0.123      0.353      5.782      2.959      2.513      3.027      3.374      5301.201  
5477.713   12.250     88.376     0.009      0.213      0.007      3.595      0.009      0.099      0.001      0.001      0.150      0.000      53.464     53.760     12.570     0.136      0.418      1.475      5.957      0.000      0.022      0.005      0.139      0.371      5.557      3.054      2.497      3.119      3.516      5301.344  
5477.866   12.250     90.414     0.008      0.203      0.008      3.650      0.006      0.097      0.001      0.001      0.171      0.000      42.233     42.451     12.540     0.128      0.387      1.373      4.495      0.000      0.023      0.003      0.148      0.368      5.307      3.611      2.482      3.688      4.246      5301.486  
5478.018   12.250     92.396     0.008      0.194      0.008      3.595      0.004      0.095      0.001      0.001      0.187      0.000      35.729     35.927     12.537     0.125      0.384      1.378      3.495      0.000      0.017      0.001      0.136      0.345      5.116      4.285      2.482      4.375      5.103      5301.628  
5478.170   12.250     95.011     0.008      0.185      0.008      3.495      0.003      0.098      0.001      0.001      0.193      0.000      33.926     34.136     12.527     0.127      0.389      1.394      3.158      0.000      0.011      -0.000     0.125      0.319      5.082      4.287      2.492      4.360      4.983      5301.771  
5478.323   12.250     97.873     0.008      0.173      0.007      3.516      0.004      0.106      0.001      0.001      0.192      0.000      33.943     34.166     12.526     0.127      0.396      1.404      3.058      0.000      0.010      0.002      0.132      0.296      5.240      3.719      2.503      3.765      4.166      5301.913  
5478.475   12.250     99.112     0.008      0.159      0.007      3.751      0.004      0.115      0.001      0.001      0.191      0.000      33.858     34.092     12.537     0.123      0.407      1.429      2.990      0.000      0.006      0.003      0.138      0.272      5.856      3.378      2.515      3.413      3.714      5302.055  
5478.628   12.250     98.397     0.009      0.144      0.006      4.052      0.004      0.123      0.001      0.001      0.192      0.000      33.932     34.181     12.518     0.117      0.423      1.480      2.974      0.000      0.003      0.002      0.137      0.264      6.410      3.421      2.515      3.457      3.741      5302.197  
5478.780   12.250     96.234     0.010      0.133      0.006      4.133      0.006      0.131      0.001      0.001      0.191      0.000      35.699     35.969     12.498     0.115      0.463      1.631      3.020      0.000      0.006      0.003      0.146      0.273      6.570      3.530      2.508      3.571      3.858      5302.340  
5478.932   12.250     93.474     0.011      0.136      0.006      3.929      0.009      0.133      0.001      0.001      0.183      0.000      39.422     39.709     12.455     0.112      0.529      1.897      3.137      0.000      0.013      0.004      0.161      0.283      6.532      3.309      2.504      3.348      3.607      5302.482  
5479.085   12.250     90.580     0.011      0.158      0.006      3.679      0.013      0.124      0.001      0.001      0.164      0.000      42.769     43.044     12.428     0.105      0.577      2.086      3.322      0.000      0.012      0.005      0.155      0.287      6.491      2.985      2.498      3.019      3.249      5302.624  
5479.237   12.250     87.490     0.012      0.193      0.007      3.585      0.015      0.106      0.001      0.001      0.143      0.000      43.996     44.255     12.498     0.101      0.593      2.101      3.516      0.000      0.008      0.004      0.135      0.291      6.433      2.963      2.483      2.998      3.240      5302.767  
5479.390   12.250     85.043     0.011      0.226      0.009      3.617      0.014      0.084      0.001      0.001      0.126      0.000      44.257     44.530     12.566     0.102      0.608      2.041      3.705      0.000      0.014      0.007      0.116      0.293      6.338      3.215      2.470      3.255      3.540      5302.909  
5479.542   12.250     83.643     0.011      0.246      0.011      3.689      0.012      0.072      0.001      0.001      0.119      0.000      45.683     45.990     12.620     0.114      0.639      1.916      3.955      0.001      0.024      0.009      0.104      0.292      6.343      3.309      2.463      3.350      3.647      5303.051  
5479.694   12.250     83.251     0.011      0.248      0.014      3.764      0.009      0.072      0.001      0.001      0.121      0.000      48.672     49.006     12.599     0.137      0.724      1.789      4.232      0.001      0.024      0.007      0.107      0.290      6.487      3.095      2.467      3.128      3.396      5303.194  
5479.847   12.250     83.883     0.011      0.238      0.016      3.823      0.007      0.082      0.001      0.001      0.124      0.000      52.340     52.705     12.421     0.150      0.868      1.833      4.346      0.000      0.028      0.005      0.125      0.293      6.609      2.923      2.480      2.949      3.210      5303.336  
5479.999   12.250     84.594     0.011      0.226      0.017      3.890      0.007      0.091      0.001      0.001      0.125      0.000      55.546     55.946     12.407     0.143      0.984      2.001      4.283      0.000      0.021      0.006      0.130      0.299      6.529      2.931      2.485      2.953      3.238      5303.478  
5480.152   12.250     85.402     0.012      0.223      0.017      3.962      0.007      0.092      0.001      0.001      0.122      0.000      56.707     57.117     12.396     0.120      1.040      2.154      4.157      0.004      0.016      0.011      0.133      0.302      6.282      2.970      2.478      2.988      3.293      5303.621  
5480.304   12.250     85.833     0.014      0.230      0.017      3.956      0.007      0.084      0.001      0.001      0.120      0.000      53.878     54.260     12.396     0.100      1.099      2.414      3.853      0.001      0.019      0.008      0.128      0.302      6.070      2.934      2.471      2.947      3.251      5303.763  
5480.456   12.250     86.236     0.015      0.242      0.016      3.840      0.008      0.069      0.001      0.001      0.124      0.000      48.573     48.916     12.404     0.093      1.145      2.702      3.484      0.000      0.033      0.005      0.116      0.302      5.989      2.948      2.466      2.956      3.263      5303.905  
5480.609   12.250     86.489     0.016      0.245      0.015      3.730      0.010      0.051      0.001      0.001      0.132      0.000      47.469     47.790     12.422     0.089      1.194      2.854      3.311      0.001      0.039      0.007      0.109      0.303      5.941      3.158      2.459      3.163      3.507      5304.047  
5480.761   12.250     86.876     0.018      0.237      0.015      3.767      0.014      0.039      0.001      0.001      0.140      0.000      54.817     55.161     12.454     0.086      1.465      3.132      3.285      0.001      0.035      0.006      0.112      0.305      5.923      3.598      2.445      3.598      4.017      5304.190  
