~Version
 VERS              .         2.0                           : CWLS LOG ASCII STANDARD - VERSION 2.0
 WRAP              .         NO                            : ONE LINE PER DEPTH STEP
 DLM               .         SPACE                         : DELIMITING CHARACTER(SPACE TAB OR COMMA)
~Well Information
#_______________________________________________________________________________
#
#PARAMETER_NAME    .UNIT     VALUE                         : DESCRIPTION
#_______________________________________________________________________________
STRT               .M        2228.000                      : First reference value
STOP               .M        5446.688                      : Last reference value
STEP               .M        0.152                         : Step increment
NULL               .         -9999                         : Missing value
COMP               .         Petrobras                     : Company
WELL               .         8-SPH-13-SPS                  : Well name
FLD                .         Sapinhoa                      : Field
LOC                .                                       : Location
CNTY               .                                       : County
STAT               .         SAO PAULO                     : State
CTRY               .         BRASIL                        : Country
SRVC               .                                       : Service Company
DATE               .                                       : Date
API                .         863160035500                  : API number
APD                .M        24                            : Above Permanent Datum
BHT                .degF     120                           : Bottom Hole Temperature
BLI                .M        5180.5                        : Bottom Log Interval
BS                 .in       12.25x14.75                   : Bit Size
DCS                .         07/04/2014                    : Date Ciculation Stopped
DFD                .lbm/gal  10.1                          : Drilling Fluid Density
DFT                .         BR-MUL                        : Drilling Fluid Type
DLAB               .         08/04/2014                    : Date Logger At Bottom
EDF                .M        24                            : Elevation of Derreck Floor
EGL                .M        -2119                         : Elevation of Ground Level
EKB                .M        -999.25                       : ELEVATION OF KELLY BUSHING
EPD                .M        0                             : Elevation Of Permanent Datum
GDAT               .         SIRGAS2000                    : Geodetic Datum
LMF                .         MR                            : Log Measured From
LUL                .         MCE                           : LOGGING UNIT LOCATION
LUN                .         -999.25                       : LOGGING UNIT NUMBER
LATI               .         -25_42_39.196                 : Latitude
LONG               .         -43_09_15.905                 : Longitude
MCST               .degF     -999.25                       : Mud Cake Sample Temperature
MFST               .degF     -999.25                       : Mud Filtrate Sample Temperature
MRT                .degF     120                           : Maximum Recorded Temperature
MST                .degF     -999.25                       : Mud Sample Temperature
ORIGINALWELLNAME   .         8SPH 0013  SPS                : 
PDAT               .         NM                            : Permanent Datum
PRODUCER-CODE      .         15                            : 
PRODUCER-NAME      .         INTEQ                         : 
RMB                .ohm.m    -999.25                       : RESISTIVITY OF MUD - BHT
RMCS               .ohm.m    -999.25                       : Resistivity Of Mud Cake Sample
RMFS               .ohm.m    -999.25                       : Mud Filtrate Sample Resistivity
RMS                .ohm.m    -999.25                       : Mud Sample Resistivity
RUN                .         1                             : Run
TCS                .h        15_00                         : Time Ciculation Stopped
TDD                .M        5184                          : Total Depht - Driller
TDL                .M        5184                          : Total Depht - Logger
TLAB               .h        11_00                         : Time Logger At Bottom
TLI                .M        3543                          : Top Log Interval
X                  .M        685128.30900000               : X COORDINATE N
Y                  .M        7155027.01100000              : Y COORDINATE E
~Parameter Information Block
#_______________________________________________________________________________
#
#PARAMETER_NAME    .UNIT     VALUE                         : DESCRIPTION
#_______________________________________________________________________________
SET                .         BASE                          : 
TLFamily_DT        .         Compressional Slowness        : 
TLFamily_GR        .         Gamma Ray                     : 
TLFamily_HCAL      .         Caliper                       : 
TLFamily_MD        .         Measured Depth                : 
TLFamily_NMRE_Final .         NMR Bound Fluid Volume Fraction: 
TLFamily_NMRFL_Final .         NMR Free Fluids               : 
TLFamily_NMRT_Final .         NMR Porosity                  : 
TLFamily_NPHI      .         Neutron Porosity              : 
TLFamily_RD        .         Resistivity - Deep            : 
TLFamily_RHOB      .         Bulk Density                  : 
TLFamily_RM        .         Resistivity - Medium          : 
TLFamily_RS        .         Resistivity - Shallow         : 
~Curve Information
#_______________________________________________________________________________
#
#LOGNAME           .UNIT     LOG_ID                        : DESCRIPTION
#_______________________________________________________________________________
DEPTH              .M                                      :  
DT                 .us/ft                                  : SONICO COMPRESSIONAL (COMPOSICAO DE CURVAS CABO E/OU LWD) 
GR                 .gAPI                                   : RAIOS GAMA (COMPOSICAO DE CURVAS CABO E/OU LWD) 
HCAL               .in                                     : CALIPER (COMPOSICAO DE CURVAS CABO E/OU LWD) 
NMRE_Final         .m3/m3                                  : 03/02 - MRIL (HALLIBURTON) - MRIL EFFECTIVE POROSITY 
NMRFL_Final        .unitless                               : 03/02 - MRIL (HALLIBURTON) - FREE FLUID INDEX T2 
NMRT_Final         .frac                                   : 03/02 - MRIL (HALLIBURTON) - MRIAN MRIL TOTAL POROSITY 
NPHI               .frac                                   : POROSIDADE NEUTRONICA (COMPOSICAO DE CURVAS CABO E/OU LWD) 
RD                 .ohm.m                                  : RESISTIVIDADE PROFUNDA (COMPOSICAO DE CURVAS CABO E/OU LWD) 
RHOB               .g/cm3                                  : DENSIDADE (COMPOSICAO DE CURVAS CABO E/OU LWD ) 
RM                 .ohm.m                                  : RESISTIVIDADE MEDIA (COMPOSICAO DE CURVAS CABO E/OU LWD) 
RS                 .ohm.m                                  : RESISTIVIDADE RASA (COMPOSICAO DE CURVAS CABO E/OU LWD) 
~Ascii
# ...
4180.244   68.965     4.899      14.701     -9999.000  -9999.000  -9999.000  -0.031     1467.096   2.035      1687.732   1687.732  
4180.396   68.584     4.385      14.698     -9999.000  -9999.000  -9999.000  -0.032     1500.295   2.041      1354.229   1354.229  
4180.549   68.080     4.179      14.694     -9999.000  -9999.000  -9999.000  -0.032     1534.357   2.042      1401.494   1401.494  
4180.701   67.725     4.370      14.694     -9999.000  -9999.000  -9999.000  -0.032     1565.867   2.040      1497.621   1497.621  
4180.854   67.577     4.842      14.702     -9999.000  -9999.000  -9999.000  -0.031     1566.226   2.037      1550.170   1550.170  
4181.006   67.557     5.675      14.704     -9999.000  -9999.000  -9999.000  -0.031     1543.814   2.033      1992.585   1992.585  
4181.158   67.610     6.200      14.701     -9999.000  -9999.000  -9999.000  -0.032     1530.658   2.029      1608.545   1608.545  
4181.311   67.799     6.699      14.699     -9999.000  -9999.000  -9999.000  -0.032     1517.303   2.030      1734.237   1734.237  
4181.463   68.040     6.815      14.697     -9999.000  -9999.000  -9999.000  -0.032     1505.934   2.033      1544.886   1544.886  
4181.616   67.933     6.785      14.698     -9999.000  -9999.000  -9999.000  -0.032     1482.160   2.034      1608.039   1608.039  
4181.768   67.751     6.103      14.699     -9999.000  -9999.000  -9999.000  -0.031     1419.732   2.036      1733.126   1733.126  
4181.920   67.701     5.685      14.698     -9999.000  -9999.000  -9999.000  -0.031     1394.525   2.038      1544.886   1544.886  
4182.073   67.769     5.882      14.699     -9999.000  -9999.000  -9999.000  -0.031     1408.765   2.037      1544.886   1544.886  
4182.225   67.954     5.929      14.704     -9999.000  -9999.000  -9999.000  -0.031     1441.016   2.038      1496.247   1496.247  
4182.378   68.346     5.887      14.704     -9999.000  -9999.000  -9999.000  -0.031     1474.420   2.041      1354.229   1354.229  
4182.530   68.597     5.516      14.704     -9999.000  -9999.000  -9999.000  -0.031     1460.887   2.040      1556.175   1556.175  
4182.682   68.461     5.140      14.705     -9999.000  -9999.000  -9999.000  -0.031     1401.727   2.035      1903.446   1903.446  
4182.835   68.423     5.656      14.706     -9999.000  -9999.000  -9999.000  -0.031     1406.218   2.034      1243.947   1243.947  
4182.987   68.678     6.207      14.707     -9999.000  -9999.000  -9999.000  -0.032     1504.870   2.038      1403.174   1403.174  
4183.140   68.776     5.955      14.708     -9999.000  -9999.000  -9999.000  -0.032     1579.651   2.041      1700.676   1700.676  
4183.292   68.555     5.490      14.708     -9999.000  -9999.000  -9999.000  -0.032     1625.002   2.042      2143.342   2143.342  
4183.444   68.433     5.132      14.709     -9999.000  -9999.000  -9999.000  -0.032     1622.461   2.043      1987.072   1987.072  
4183.597   68.168     4.588      14.709     -9999.000  -9999.000  -9999.000  -0.031     1595.586   2.042      1544.886   1544.886  
4183.749   67.845     4.684      14.708     -9999.000  -9999.000  -9999.000  -0.031     1574.494   2.039      1544.886   1544.886  
4183.902   67.676     5.126      14.709     -9999.000  -9999.000  -9999.000  -0.031     1541.084   2.037      1494.872   1494.872  
4184.054   67.634     5.166      14.710     -9999.000  -9999.000  -9999.000  -0.032     1516.655   2.036      1404.319   1404.319  
4184.206   67.660     5.239      14.709     -9999.000  -9999.000  -9999.000  -0.032     1482.254   2.036      1611.273   1611.273  
4184.359   67.784     5.222      14.708     -9999.000  -9999.000  -9999.000  -0.032     1461.760   2.037      1730.701   1730.701  
4184.511   68.070     5.223      14.706     -9999.000  -9999.000  -9999.000  -0.032     1437.138   2.042      1493.956   1493.956  
4184.664   68.266     5.621      14.705     -9999.000  -9999.000  -9999.000  -0.032     1432.120   2.048      1405.159   1405.159  
4184.816   68.294     5.809      14.707     -9999.000  -9999.000  -9999.000  -0.032     1436.439   2.051      1544.886   1544.886  
4184.968   68.215     5.653      14.705     -9999.000  -9999.000  -9999.000  -0.032     1468.256   2.050      1493.803   1493.803  
4185.121   67.969     5.787      14.704     -9999.000  -9999.000  -9999.000  -0.032     1502.216   2.048      1354.229   1354.229  
4185.273   67.753     5.939      14.705     -9999.000  -9999.000  -9999.000  -0.032     1549.316   2.045      1473.266   1473.266  
4185.426   67.696     6.102      14.707     -9999.000  -9999.000  -9999.000  -0.031     1560.739   2.042      1797.189   1797.189  
4185.578   67.779     5.895      14.707     -9999.000  -9999.000  -9999.000  -0.032     1553.371   2.039      1677.797   1677.797  
4185.730   68.014     5.629      14.708     -9999.000  -9999.000  -9999.000  -0.032     1541.317   2.039      1473.798   1473.798  
4185.883   68.390     5.460      14.708     -9999.000  -9999.000  -9999.000  -0.032     1525.506   2.040      1635.460   1635.460  
4186.035   68.559     4.716      14.707     -9999.000  -9999.000  -9999.000  -0.032     1513.276   2.039      1298.788   1298.788  
4186.188   68.261     4.537      14.705     -9999.000  -9999.000  -9999.000  -0.032     1489.290   2.037      1492.582   1492.582  
4186.340   67.905     5.250      14.707     -9999.000  -9999.000  -9999.000  -0.032     1468.715   2.036      1406.610   1406.610  
4186.492   67.683     5.542      14.708     -9999.000  -9999.000  -9999.000  -0.032     1459.920   2.034      1544.886   1544.886  
4186.645   67.547     5.384      14.708     -9999.000  -9999.000  -9999.000  -0.032     1474.867   2.031      1544.886   1544.886  
4186.797   67.520     5.576      14.708     -9999.000  -9999.000  -9999.000  -0.032     1504.133   2.030      1614.405   1614.405  
4186.950   67.574     5.782      14.711     -9999.000  -9999.000  -9999.000  -0.032     1493.454   2.032      1727.569   1727.569  
4187.102   67.707     5.940      14.713     -9999.000  -9999.000  -9999.000  -0.032     1457.151   2.037      1544.886   1544.886  
4187.254   68.007     6.159      14.717     -9999.000  -9999.000  -9999.000  -0.032     1471.825   2.041      1544.886   1544.886  
4187.407   68.210     5.496      14.718     -9999.000  -9999.000  -9999.000  -0.032     1518.444   2.038      1544.886   1544.886  
4187.559   68.130     4.751      14.719     -9999.000  -9999.000  -9999.000  -0.032     1527.760   2.034      1491.360   1491.360  
4187.712   68.060     4.660      14.722     -9999.000  -9999.000  -9999.000  -0.031     1532.400   2.033      1354.229   1354.229  
4187.864   68.172     5.009      14.724     -9999.000  -9999.000  -9999.000  -0.032     1536.415   2.034      1477.524   1477.524  
4188.016   68.026     5.148      14.725     -9999.000  -9999.000  -9999.000  -0.032     1536.854   2.032      1632.381   1632.381  
4188.169   67.764     4.827      14.726     -9999.000  -9999.000  -9999.000  -0.032     1524.325   2.027      1247.807   1247.807  
4188.321   67.612     4.888      14.730     -9999.000  -9999.000  -9999.000  -0.033     1510.732   2.024      1408.137   1408.137  
4188.474   67.546     4.946      14.730     -9999.000  -9999.000  -9999.000  -0.033     1497.673   2.027      1544.886   1544.886  
4188.626   67.522     5.323      14.728     -9999.000  -9999.000  -9999.000  -0.032     1500.180   2.028      1544.886   1544.886  
4188.778   67.556     6.546      14.728     -9999.000  -9999.000  -9999.000  -0.032     1512.576   2.023      1490.215   1490.215  
4188.931   67.670     6.712      14.730     -9999.000  -9999.000  -9999.000  -0.032     1520.416   2.021      1354.229   1354.229  
4189.083   67.847     5.915      14.730     -9999.000  -9999.000  -9999.000  -0.032     1523.592   2.024      1409.053   1409.053  
4189.236   68.173     4.875      14.731     -9999.000  -9999.000  -9999.000  -0.032     1523.326   2.028      1490.596   1490.596  
4189.388   68.538     4.416      14.733     -9999.000  -9999.000  -9999.000  -0.032     1538.345   2.034      1311.944   1311.944  
