~Version
 VERS              .         2.0                           : CWLS LOG ASCII STANDARD - VERSION 2.0
 WRAP              .         NO                            : ONE LINE PER DEPTH STEP
 DLM               .         SPACE                         : DELIMITING CHARACTER(SPACE TAB OR COMMA)
~Well Information
#_______________________________________________________________________________
#
#PARAMETER_NAME    .UNIT     VALUE                         : DESCRIPTION
#_______________________________________________________________________________
STRT               .M        5027.447                      : First reference value
STOP               .M        5499.430                      : Last reference value
STEP               .M        0.152                         : Step increment
NULL               .         -9999                         : Missing value
COMP               .         PETROBRAS                     : Company
WELL               .         8-SPH-10-SPS                  : Well name
FLD                .         SAPINHOA                      : Field
LOC                .                                       : Location
PROV               .                                       : Province
SRVC               .                                       : Service Company
DATE               .         2021-09-13 11_18_58           : Date
UWI                .         8-SPH-10-SPS                  : Unique Well ID
APD                .M        24                            : Above Permanent Datum
API                .                                       : API NUMBER
BHT                .degF     153                           : Bottom Hole Temperature
BLI                .M        5494.8                        : Bottom Log Interval
BS                 .in       8.5                           : Bit Size
CTRY               .         BRASIL                        : Nation
DCS                .         15/06/2015                    : Date Ciculation Stopped
DFD                .lb/gal   9.7                           : Drilling Fluid Density
DFT                .         CATIONICO FLEX DRILL (BASE AGUA): Drilling Fluid Type
DLAB               .         18/06/2015                    : Date Logger At Bottom
EDF                .M        24                            : Elevation of Derreck Floor
EGL                .M        -2125                         : Elevation of Ground Level
EKB                .M        -999.25                       : Elevation of Kelly Bushing
EPD                .M        0                             : Elevation Of Permanent Datum
LMF                .         MR                            : Log Measured From
LONG               .         -43_10_14,760                 : Longitude
MCST               .degF     67                            : Mud Cake Sample Temperature
MFST               .degF     67                            : Mud Filtrate Sample Temperature
MRT                .degF     153                           : Maximum Recorded Temperature
MST                .degF     67                            : Mud Sample Temperature
ORIGINALWELLNAME   .         P08                           : 
PDAT               .         NM                            : Permanent Datum
PRODUCER-CODE      .         150                           : 
PRODUCER-NAME      .         ATLAS                         : 
RMB                .ohm.m    -999.25                       : Resistivity Of Mud - BHT
RMCS               .ohm.m    0.078                         : Resistivity Of Mud Cake Sample
RMFS               .ohm.m    0.064                         : Mud Filtrate Sample Resistivity
RMS                .ohm.m    0.071                         : Mud Sample Resistivity
RUN                .         3                             : Run Number
STAT               .         SAO PAULO                     : State
TCS                .h        22_00                         : Time Ciculation Stopped
TDD                .M        5496                          : Total Depht - Driller
TDL                .M        5495.5                        : Total Depht - Logger
TLAB               .h        10_45                         : Time Logger At Bottom
TLI                .M        5114                          : Top Log Interval
X                  .M        683623.00000000               : 
Y                  .M        7161727.00000000              : 
~Parameter Information Block
#_______________________________________________________________________________
#
#PARAMETER_NAME    .UNIT     VALUE                         : DESCRIPTION
#_______________________________________________________________________________
SET                .         BASE                          : 
TLFamily_BS        .         Bit Size                      : 
TLFamily_DT        .         Compressional Slowness        : 
TLFamily_DWAL      .         Aluminum Weight Fraction      : 
TLFamily_DWCA      .         Calcium Weight Fraction       : 
TLFamily_DWFE      .         Iron Weight Fraction          : 
TLFamily_DWGD      .         Gadolinium Weight Fraction    : 
TLFamily_DWK       .         Potassium Weight Fraction     : 
TLFamily_DWMG      .         Magnesium Weight Fraction     : 
TLFamily_DWMN      .         Manganese Weight Fraction     : 
TLFamily_DWS       .         Sulfur Weight Fraction        : 
TLFamily_DWSI      .         Silicon Weight Fraction       : 
TLFamily_DWTI      .         Titanium Weight Fraction      : 
TLFamily_GR        .         Gamma Ray                     : 
TLFamily_GRt       .         Gamma Ray                     : 
TLFamily_HCAL      .         Caliper                       : 
TLFamily_HDRA      .         Bulk Density Correction       : 
TLFamily_HFK       .         Potassium Concentration       : 
TLFamily_HTHO      .         Thorium Concentration         : 
TLFamily_HURA      .         Uranium Concentration         : 
TLFamily_MD        .         Measured Depth                : 
TLFamily_MPERM     .         NMR Permeability              : 
TLFamily_NMRE_Final .         NMR Bound Fluid Volume Fraction: 
TLFamily_NMRFL_Final .         NMR Free Fluids               : 
TLFamily_NMRT_Final .         NMR Porosity                  : 
TLFamily_NPHI      .         Neutron Porosity              : 
TLFamily_PE        .         Photoelectric Factor          : 
TLFamily_RD        .         Resistivity - Deep            : 
TLFamily_RHOB      .         Bulk Density                  : 
TLFamily_RS        .         Resistivity - Shallow         : 
TLFamily_TVDSS     .         True Vertical Depth Sub Sea   : 
~Curve Information
#_______________________________________________________________________________
#
#LOGNAME           .UNIT     LOG_ID                        : DESCRIPTION
#_______________________________________________________________________________
DEPTH              .M                                      :  
BS                 .in                                     : Bit size 
DT                 .us/ft                                  : Slowness over 24-inch interval 
DWAL               .kg/kg                                  : Weight fraction of aluminum derived from thorium in dry rock 
DWCA               .kg/kg                                  : Weight fraction of calcium in dry rock 
DWFE               .kg/kg                                  : Weight fraction of iron in dry rock 
DWGD               .ppm                                    : Weight fraction of gadolinium in dry rock 
DWK                .kg/kg                                  : Weight fraction of potassium in dry rock 
DWMG               .kg/kg                                  : Weight fraction of magnesium in dry rock 
DWMN               .kg/kg                                  : Weight fraction of manganese in dry rock 
DWS                .kg/kg                                  : Weight fraction of sulfur in dry rock 
DWSI               .kg/kg                                  : Weight fraction of silicon in dry rock 
DWTI               .kg/kg                                  : Weight fraction of titanium in dry rock 
GR                 .gAPI                                   : Gamma ray 
GRt                .gAPI                                   : Gamma ray from 1329 spectrum 
HCAL               .in                                     : Caliper 
HDRA               .g/cm3                                  : Density correction 
HFK                .%                                      : Potassium content 
HTHO               .ppm                                    : Thorium concentration 
HURA               .ppm                                    : Uranium content 
MPERM              .mD                                     : MR permeability 
NMRE_Final         .m3/m3                                  : MR effective porosity 
NMRFL_Final        .unitless                               : MR moveable fluids 
NMRT_Final         .frac                                   : MR total porosity 
NPHI               .frac                                   : Borehole size corrected compensated neutron porosity 
PE                 .b/e                                    : Photo electric cross-section 
RD                 .ohm.m                                  : Deep resistivity 
RHOB               .g/cm3                                  : Formation bulk density 
RS                 .ohm.m                                  : Shallow resistivity 
TVDSS              .M                                      :  
~Ascii
# ...
5408.447   8.500      62.391     0.007      0.210      0.004      1.873      0.002      0.038      0.001      0.001      0.111      0.002      45.524     45.706     9.039      -0.017     0.159      1.436      4.449      1.469      0.124      0.055      0.125      0.136      4.537      5.035      2.527      6.216      5384.093  
5408.600   8.500      60.028     0.007      0.218      0.004      1.941      0.001      0.030      0.001      0.001      0.107      0.002      46.919     47.106     9.039      -0.015     0.145      1.348      4.715      1.566      0.120      0.056      0.121      0.114      4.471      5.948      2.555      6.964      5384.246  
5408.752   8.500      57.340     0.006      0.234      0.004      1.789      0.001      0.025      0.001      0.001      0.098      0.002      47.447     47.637     9.039      -0.009     0.131      1.266      4.934      1.820      0.110      0.058      0.112      0.096      4.350      9.280      2.605      10.370     5384.398  
5408.905   8.500      55.930     0.006      0.256      0.003      1.496      0.000      0.024      0.001      0.001      0.084      0.003      47.434     47.626     9.038      -0.006     0.121      1.203      5.123      1.736      0.095      0.056      0.101      0.082      4.269      17.061     2.644      18.751     5384.550  
5409.057   8.500      54.492     0.006      0.276      0.003      1.169      0.000      0.026      0.001      0.001      0.070      0.003      48.438     48.635     9.037      -0.009     0.121      1.194      5.323      1.587      0.073      0.051      0.077      0.074      4.175      27.656     2.648      30.662     5384.703  
5409.209   8.500      54.696     0.008      0.286      0.002      0.879      0.000      0.027      0.001      0.001      0.064      0.003      52.425     52.638     9.039      -0.013     0.175      1.429      5.540      1.447      0.061      0.047      0.063      0.075      4.020      33.835     2.625      38.287     5384.855  
5409.362   8.500      56.421     0.010      0.281      0.002      0.736      0.001      0.026      0.001      0.001      0.073      0.003      58.711     58.950     9.049      -0.015     0.349      2.072      5.561      0.618      0.055      0.040      0.055      0.089      3.916      31.636     2.591      36.889     5385.008  
5409.514   8.500      58.843     0.012      0.261      0.002      0.838      0.002      0.024      0.001      0.001      0.096      0.003      64.091     64.352     9.069      -0.016     0.552      2.733      5.340      0.132      0.051      0.030      0.052      0.120      3.937      25.473     2.551      30.903     5385.160  
5409.667   8.500      61.094     0.014      0.228      0.003      1.121      0.005      0.024      0.001      0.001      0.126      0.003      66.437     66.707     9.094      -0.015     0.649      3.019      5.167      0.022      0.047      0.019      0.055      0.161      3.962      19.973     2.515      24.788     5385.312  
5409.819   8.500      62.744     0.014      0.192      0.003      1.383      0.010      0.026      0.001      0.001      0.156      0.002      65.435     65.698     9.116      -0.012     0.693      3.112      5.022      0.008      0.046      0.014      0.060      0.181      3.809      15.060     2.494      18.381     5385.465  
5409.971   8.500      63.833     0.013      0.163      0.003      1.490      0.015      0.027      0.001      0.001      0.188      0.002      59.257     59.494     9.130      -0.008     0.697      2.941      4.638      0.022      0.056      0.018      0.074      0.171      3.453      10.588     2.486      12.437     5385.617  
5410.124   8.500      64.563     0.010      0.146      0.003      1.464      0.016      0.023      0.001      0.001      0.221      0.002      47.957     48.148     9.135      -0.005     0.542      2.176      4.091      0.101      0.070      0.028      0.090      0.155      3.091      7.532      2.479      8.624      5385.769  
5410.276   8.500      65.032     0.007      0.141      0.002      1.416      0.014      0.014      0.001      0.001      0.246      0.002      37.292     37.442     9.135      -0.003     0.303      1.248      3.668      0.391      0.085      0.039      0.103      0.145      2.926      5.649      2.469      6.458      5385.922  
5410.429   8.500      65.211     0.005      0.144      0.002      1.430      0.010      0.006      0.001      0.001      0.257      0.002      32.146     32.279     9.136      -0.003     0.163      0.780      3.489      1.417      0.096      0.054      0.106      0.147      2.952      4.352      2.458      4.985      5386.074  
5410.581   8.500      65.131     0.004      0.152      0.002      1.488      0.008      0.004      0.001      0.001      0.252      0.002      31.244     31.373     9.136      -0.004     0.120      0.664      3.475      5.303      0.101      0.070      0.109      0.159      3.019      3.463      2.448      3.980      5386.226  
5410.733   8.500      65.036     0.003      0.158      0.001      1.507      0.008      0.006      0.001      0.001      0.239      0.003      31.508     31.630     9.136      -0.006     0.100      0.616      3.506      16.055     0.107      0.083      0.119      0.169      3.126      2.882      2.438      3.334      5386.379  
5410.886   8.500      65.246     0.003      0.164      0.001      1.473      0.010      0.008      0.001      0.001      0.223      0.003      32.455     32.578     9.136      -0.007     0.079      0.590      3.573      25.483     0.116      0.092      0.135      0.176      3.390      2.496      2.431      2.902      5386.531  
5411.038   8.500      65.792     0.003      0.170      0.001      1.453      0.012      0.009      0.001      0.001      0.208      0.003      34.487     34.623     9.135      -0.008     0.063      0.638      3.661      22.173     0.128      0.095      0.148      0.181      3.687      2.230      2.425      2.588      5386.684  
5411.191   8.500      66.237     0.004      0.178      0.001      1.485      0.011      0.010      0.001      0.001      0.195      0.002      36.814     36.964     9.128      -0.007     0.057      0.719      3.720      17.963     0.138      0.095      0.155      0.187      3.742      2.059      2.423      2.369      5386.836  
5411.343   8.500      65.975     0.004      0.187      0.001      1.528      0.008      0.012      0.001      0.001      0.186      0.001      37.450     37.605     9.085      -0.006     0.054      0.769      3.720      26.353     0.146      0.103      0.157      0.185      3.529      2.019      2.428      2.284      5386.988  
5411.495   8.500      64.877     0.004      0.193      0.001      1.502      0.004      0.015      0.001      0.001      0.188      0.001      35.610     35.759     9.003      -0.005     0.051      0.825      3.611      31.391     0.145      0.105      0.149      0.170      3.182      2.205      2.438      2.445      5387.141  
5411.648   8.500      63.669     0.004      0.189      0.001      1.394      0.002      0.017      0.001      0.001      0.200      0.000      32.747     32.882     8.929      -0.004     0.057      0.891      3.340      19.997     0.136      0.096      0.136      0.153      2.851      2.614      2.450      2.866      5387.293  
5411.800   8.500      63.497     0.005      0.174      0.001      1.305      0.003      0.018      0.001      0.001      0.219      0.000      30.511     30.629     8.899      -0.004     0.080      0.941      2.986      6.809      0.125      0.078      0.125      0.155      2.684      3.025      2.450      3.330      5387.445  
5411.953   8.500      64.924     0.005      0.153      0.001      1.333      0.005      0.019      0.001      0.001      0.236      0.001      29.044     29.154     8.896      -0.005     0.116      0.985      2.662      3.935      0.119      0.069      0.121      0.183      2.675      3.124      2.431      3.486      5387.598  
5412.105   8.500      67.329     0.005      0.134      0.002      1.478      0.008      0.017      0.001      0.001      0.248      0.001      27.794     27.903     8.895      -0.006     0.148      1.013      2.443      4.824      0.126      0.073      0.133      0.227      2.671      2.828      2.400      3.201      5387.750  
