~Version
 VERS              .         2.0                           : CWLS LOG ASCII STANDARD - VERSION 2.0
 WRAP              .         NO                            : ONE LINE PER DEPTH STEP
 DLM               .         SPACE                         : DELIMITING CHARACTER(SPACE TAB OR COMMA)
~Well Information
#_______________________________________________________________________________
#
#PARAMETER_NAME    .UNIT     VALUE                         : DESCRIPTION
#_______________________________________________________________________________
STRT               .M        2228.000                      : First reference value
STOP               .M        5446.688                      : Last reference value
STEP               .M        0.152                         : Step increment
NULL               .         -9999                         : Missing value
COMP               .         Petrobras                     : Company
WELL               .         8-SPH-13-SPS                  : Well name
FLD                .         Sapinhoa                      : Field
LOC                .                                       : Location
CNTY               .                                       : County
STAT               .         SAO PAULO                     : State
CTRY               .         BRASIL                        : Country
SRVC               .                                       : Service Company
DATE               .                                       : Date
API                .         863160035500                  : API number
APD                .M        24                            : Above Permanent Datum
BHT                .degF     120                           : Bottom Hole Temperature
BLI                .M        5180.5                        : Bottom Log Interval
BS                 .in       12.25x14.75                   : Bit Size
DCS                .         07/04/2014                    : Date Ciculation Stopped
DFD                .lbm/gal  10.1                          : Drilling Fluid Density
DFT                .         BR-MUL                        : Drilling Fluid Type
DLAB               .         08/04/2014                    : Date Logger At Bottom
EDF                .M        24                            : Elevation of Derreck Floor
EGL                .M        -2119                         : Elevation of Ground Level
EKB                .M        -999.25                       : ELEVATION OF KELLY BUSHING
EPD                .M        0                             : Elevation Of Permanent Datum
GDAT               .         SIRGAS2000                    : Geodetic Datum
LMF                .         MR                            : Log Measured From
LUL                .         MCE                           : LOGGING UNIT LOCATION
LUN                .         -999.25                       : LOGGING UNIT NUMBER
LATI               .         -25_42_39.196                 : Latitude
LONG               .         -43_09_15.905                 : Longitude
MCST               .degF     -999.25                       : Mud Cake Sample Temperature
MFST               .degF     -999.25                       : Mud Filtrate Sample Temperature
MRT                .degF     120                           : Maximum Recorded Temperature
MST                .degF     -999.25                       : Mud Sample Temperature
ORIGINALWELLNAME   .         8SPH 0013  SPS                : 
PDAT               .         NM                            : Permanent Datum
PRODUCER-CODE      .         15                            : 
PRODUCER-NAME      .         INTEQ                         : 
RMB                .ohm.m    -999.25                       : RESISTIVITY OF MUD - BHT
RMCS               .ohm.m    -999.25                       : Resistivity Of Mud Cake Sample
RMFS               .ohm.m    -999.25                       : Mud Filtrate Sample Resistivity
RMS                .ohm.m    -999.25                       : Mud Sample Resistivity
RUN                .         1                             : Run
TCS                .h        15_00                         : Time Ciculation Stopped
TDD                .M        5184                          : Total Depht - Driller
TDL                .M        5184                          : Total Depht - Logger
TLAB               .h        11_00                         : Time Logger At Bottom
TLI                .M        3543                          : Top Log Interval
X                  .M        685128.30900000               : X COORDINATE N
Y                  .M        7155027.01100000              : Y COORDINATE E
~Parameter Information Block
#_______________________________________________________________________________
#
#PARAMETER_NAME    .UNIT     VALUE                         : DESCRIPTION
#_______________________________________________________________________________
SET                .         BASE                          : 
TLFamily_DT        .         Compressional Slowness        : 
TLFamily_GR        .         Gamma Ray                     : 
TLFamily_HCAL      .         Caliper                       : 
TLFamily_MD        .         Measured Depth                : 
TLFamily_NMRE_Final .         NMR Bound Fluid Volume Fraction: 
TLFamily_NMRFL_Final .         NMR Free Fluids               : 
TLFamily_NMRT_Final .         NMR Porosity                  : 
TLFamily_NPHI      .         Neutron Porosity              : 
TLFamily_RD        .         Resistivity - Deep            : 
TLFamily_RHOB      .         Bulk Density                  : 
TLFamily_RM        .         Resistivity - Medium          : 
TLFamily_RS        .         Resistivity - Shallow         : 
~Curve Information
#_______________________________________________________________________________
#
#LOGNAME           .UNIT     LOG_ID                        : DESCRIPTION
#_______________________________________________________________________________
DEPTH              .M                                      :  
DT                 .us/ft                                  : SONICO COMPRESSIONAL (COMPOSICAO DE CURVAS CABO E/OU LWD) 
GR                 .gAPI                                   : RAIOS GAMA (COMPOSICAO DE CURVAS CABO E/OU LWD) 
HCAL               .in                                     : CALIPER (COMPOSICAO DE CURVAS CABO E/OU LWD) 
NMRE_Final         .m3/m3                                  : 03/02 - MRIL (HALLIBURTON) - MRIL EFFECTIVE POROSITY 
NMRFL_Final        .unitless                               : 03/02 - MRIL (HALLIBURTON) - FREE FLUID INDEX T2 
NMRT_Final         .frac                                   : 03/02 - MRIL (HALLIBURTON) - MRIAN MRIL TOTAL POROSITY 
NPHI               .frac                                   : POROSIDADE NEUTRONICA (COMPOSICAO DE CURVAS CABO E/OU LWD) 
RD                 .ohm.m                                  : RESISTIVIDADE PROFUNDA (COMPOSICAO DE CURVAS CABO E/OU LWD) 
RHOB               .g/cm3                                  : DENSIDADE (COMPOSICAO DE CURVAS CABO E/OU LWD ) 
RM                 .ohm.m                                  : RESISTIVIDADE MEDIA (COMPOSICAO DE CURVAS CABO E/OU LWD) 
RS                 .ohm.m                                  : RESISTIVIDADE RASA (COMPOSICAO DE CURVAS CABO E/OU LWD) 
~Ascii
# ...
4803.103   67.994     5.829      14.650     -9999.000  -9999.000  -9999.000  -0.029     1420.841   2.023      1162.326   1162.326  
4803.255   68.221     5.581      14.650     -9999.000  -9999.000  -9999.000  -0.029     1414.273   2.023      1354.229   1354.229  
4803.408   68.215     5.900      14.654     -9999.000  -9999.000  -9999.000  -0.029     1398.151   2.028      1311.587   1311.587  
4803.560   68.294     6.027      14.654     -9999.000  -9999.000  -9999.000  -0.029     1389.706   2.035      1249.054   1249.054  
4803.712   68.529     5.688      14.651     -9999.000  -9999.000  -9999.000  -0.029     1380.060   2.038      1310.756   1310.756  
4803.865   68.396     4.938      14.655     -9999.000  -9999.000  -9999.000  -0.029     1356.304   2.039      1171.062   1171.062  
4804.017   68.143     5.043      14.657     -9999.000  -9999.000  -9999.000  -0.028     1343.631   2.045      1086.974   1086.974  
4804.170   68.055     5.139      14.658     -9999.000  -9999.000  -9999.000  -0.028     1346.376   2.053      1057.491   1057.491  
4804.322   68.113     4.913      14.660     -9999.000  -9999.000  -9999.000  -0.028     1365.514   2.055      1055.439   1055.439  
4804.474   68.250     5.229      14.661     -9999.000  -9999.000  -9999.000  -0.027     1401.851   2.050      1251.548   1251.548  
4804.627   68.089     5.720      14.661     -9999.000  -9999.000  -9999.000  -0.028     1419.550   2.042      1308.618   1308.618  
4804.779   67.884     5.555      14.660     -9999.000  -9999.000  -9999.000  -0.028     1432.978   2.032      1251.905   1251.905  
4804.932   67.796     5.068      14.658     -9999.000  -9999.000  -9999.000  -0.028     1437.245   2.023      1354.229   1354.229  
4805.084   67.817     5.286      14.659     -9999.000  -9999.000  -9999.000  -0.029     1440.409   2.015      1307.430   1307.430  
4805.236   67.961     5.402      14.660     -9999.000  -9999.000  -9999.000  -0.029     1440.383   2.011      1205.937   1205.937  
4805.389   68.242     5.076      14.658     -9999.000  -9999.000  -9999.000  -0.028     1434.745   2.014      1313.720   1313.720  
4805.541   68.243     5.510      14.658     -9999.000  -9999.000  -9999.000  -0.028     1425.843   2.019      1397.807   1397.807  
4805.694   68.077     5.788      14.660     -9999.000  -9999.000  -9999.000  -0.028     1409.052   2.023      1125.470   1125.470  
4805.846   68.003     5.110      14.658     -9999.000  -9999.000  -9999.000  -0.028     1401.087   2.032      1205.937   1205.937  
4805.998   68.106     5.321      14.657     -9999.000  -9999.000  -9999.000  -0.028     1405.856   2.042      1255.350   1255.350  
4806.151   68.377     6.354      14.655     -9999.000  -9999.000  -9999.000  -0.028     1411.355   2.047      1265.391   1265.391  
4806.303   68.401     6.555      14.654     -9999.000  -9999.000  -9999.000  -0.028     1402.322   2.050      1086.974   1086.974  
4806.456   68.320     5.899      14.657     -9999.000  -9999.000  -9999.000  -0.028     1389.022   2.054      1086.974   1086.974  
4806.608   68.459     5.551      14.657     -9999.000  -9999.000  -9999.000  -0.027     1390.799   2.060      1127.566   1127.566  
4806.760   68.557     5.310      14.655     -9999.000  -9999.000  -9999.000  -0.026     1416.111   2.067      1205.937   1205.937  
4806.913   68.273     5.107      14.656     -9999.000  -9999.000  -9999.000  -0.025     1448.174   2.068      1164.677   1164.677  
4807.065   67.989     5.921      14.661     -9999.000  -9999.000  -9999.000  -0.025     1480.796   2.063      1128.519   1128.519  
4807.218   67.820     5.979      14.666     -9999.000  -9999.000  -9999.000  -0.026     1480.984   2.054      1258.200   1258.200  
4807.370   67.679     5.455      14.664     -9999.000  -9999.000  -9999.000  -0.027     1458.349   2.047      1301.610   1301.610  
4807.522   67.589     5.298      14.663     -9999.000  -9999.000  -9999.000  -0.028     1439.914   2.043      1205.937   1205.937  
4807.675   67.569     5.128      14.664     -9999.000  -9999.000  -9999.000  -0.028     1424.547   2.042      1258.913   1258.913  
4807.827   67.579     5.194      14.664     -9999.000  -9999.000  -9999.000  -0.028     1431.478   2.041      1422.950   1422.950  
4807.980   67.613     5.119      14.664     -9999.000  -9999.000  -9999.000  -0.028     1464.171   2.040      1475.554   1475.554  
4808.132   67.668     5.288      14.664     -9999.000  -9999.000  -9999.000  -0.028     1496.304   2.042      1256.400   1256.400  
4808.284   67.765     5.705      14.664     -9999.000  -9999.000  -9999.000  -0.028     1529.934   2.049      1256.060   1256.060  
4808.437   67.923     5.306      14.662     -9999.000  -9999.000  -9999.000  -0.027     1535.882   2.055      1374.699   1374.699  
4808.589   68.141     5.004      14.665     -9999.000  -9999.000  -9999.000  -0.027     1525.312   2.056      1131.569   1131.569  
4808.742   68.056     4.898      14.665     -9999.000  -9999.000  -9999.000  -0.027     1513.755   2.053      1261.882   1261.882  
4808.894   67.855     4.489      14.659     -9999.000  -9999.000  -9999.000  -0.028     1497.301   2.048      1354.229   1354.229  
4809.046   67.715     4.723      14.656     -9999.000  -9999.000  -9999.000  -0.028     1481.542   2.044      1354.229   1354.229  
4809.199   67.648     5.846      14.658     -9999.000  -9999.000  -9999.000  -0.028     1452.893   2.043      1354.229   1354.229  
4809.351   67.609     6.291      14.658     -9999.000  -9999.000  -9999.000  -0.028     1431.773   2.044      1296.621   1296.621  
4809.504   67.606     5.713      14.659     -9999.000  -9999.000  -9999.000  -0.029     1401.624   2.048      1205.937   1205.937  
4809.656   67.625     5.541      14.660     -9999.000  -9999.000  -9999.000  -0.029     1386.316   2.050      1159.055   1159.055  
4809.808   67.619     5.300      14.660     -9999.000  -9999.000  -9999.000  -0.029     1377.408   2.049      1133.855   1133.855  
4809.961   67.615     5.100      14.663     -9999.000  -9999.000  -9999.000  -0.029     1376.525   2.050      1205.937   1205.937  
4810.113   67.659     4.881      14.663     -9999.000  -9999.000  -9999.000  -0.029     1370.556   2.050      1158.388   1158.388  
4810.266   67.740     4.700      14.663     -9999.000  -9999.000  -9999.000  -0.028     1340.038   2.045      1134.904   1134.904  
4810.418   67.874     5.508      14.662     -9999.000  -9999.000  -9999.000  -0.028     1315.712   2.041      1118.150   1118.150  
4810.570   68.172     7.108      14.661     -9999.000  -9999.000  -9999.000  -0.028     1274.499   2.048      1077.126   1077.126  
4810.723   68.398     6.368      14.659     -9999.000  -9999.000  -9999.000  -0.027     1241.387   2.056      1266.396   1266.396  
4810.875   68.389     5.237      14.657     -9999.000  -9999.000  -9999.000  -0.027     1205.003   2.058      1293.295   1293.295  
4811.028   68.426     5.851      14.658     -9999.000  -9999.000  -9999.000  -0.026     1222.426   2.062      1205.937   1205.937  
4811.180   68.713     6.326      14.659     -9999.000  -9999.000  -9999.000  -0.026     1314.003   2.071      1268.178   1268.178  
4811.332   68.846     5.884      14.659     -9999.000  -9999.000  -9999.000  -0.026     1415.056   2.074      1354.229   1354.229  
4811.485   68.564     5.115      14.664     -9999.000  -9999.000  -9999.000  -0.027     1543.932   2.066      1291.632   1291.632  
4811.637   68.217     5.156      14.663     -9999.000  -9999.000  -9999.000  -0.028     1595.168   2.059      1205.937   1205.937  
4811.790   68.082     5.377      14.661     -9999.000  -9999.000  -9999.000  -0.028     1618.184   2.057      1269.366   1269.366  
4811.942   68.239     5.275      14.666     -9999.000  -9999.000  -9999.000  -0.028     1617.828   2.055      1239.061   1239.061  
4812.094   68.685     5.283      14.664     -9999.000  -9999.000  -9999.000  -0.028     1609.180   2.051      1202.784   1202.784  
4812.247   69.030     5.407      14.664     -9999.000  -9999.000  -9999.000  -0.028     1600.574   2.044      1289.494   1289.494  
