~Version
 VERS              .         2.0                           : CWLS LOG ASCII STANDARD - VERSION 2.0
 WRAP              .         NO                            : ONE LINE PER DEPTH STEP
 DLM               .         SPACE                         : DELIMITING CHARACTER(SPACE TAB OR COMMA)
~Well Information
#_______________________________________________________________________________
#
#PARAMETER_NAME    .UNIT     VALUE                         : DESCRIPTION
#_______________________________________________________________________________
STRT               .M        5038.900                      : First reference value
STOP               .M        5526.275                      : Last reference value
STEP               .M        0.152                         : Step increment
NULL               .         -9999                         : Missing value
COMP               .         PETROBRAS                     : Company
WELL               .         8-SPH-23-SPS                  : Well name
FLD                .         SAPINHOA                      : Field
LOC                .                                       : Location
PROV               .                                       : Province
SRVC               .                                       : Service Company
DATE               .         2021-09-13 11_18_58           : Date
UWI                .         8-SPH-23-SPS                  : Unique Well ID
APD                .M        24.0                          : ABOVE PERMANENT DATUM
API                .         863160047300                  : API Code
BHT                .degF     160                           : BOTTOMHOLE TEMPERATURE
BLI                .M        5511.3                        : BOTTOM LOGGED INTERVAL
BS                 .in       12.25                         : BIT SIZE
CTRY               .         BRASIL                        : Nation
DCS                .         10/04/2016                    : DATE CIRCULATION STOPPED
DFD                .lb/gal   9.4                           : DRILLING FLUID DENSITY
DFT                .         OLEDRILL (BASE OLEFINA)       : DRILLING FLUID TYPE
DLAB               .         12/04/2016                    : DATE LOGGING ON BOTTOM
EDF                .M        24.0                          : ELEVATION OF DRILLING FLOOR
EGL                .M        -2146.0                       : ELEVATION OF GROUND LEVEL
EKB                .M        24.0                          : ELEVATION OF KELLY BUSHING
EPD                .M        0.0                           : ELEVATATION OF PERMANENT DATUM
GDAT               .         SIRGAS2000                    : Geodetic Datum
LMF                .         MR                            : LOG MEASURED FROM
LUL                .         MCE                           : LOGGING UNIT LOCATION
LUN                .         12247255                      : LOGGING UNIT NUMBER
LATI               .         -25_42_01.290                 : Latitude
LONG               .         -43_11_39,303                 : LONGITUDE
MCST               .degF     -999.25                       : MUDCAKE SAMPLE TEMPERATURE
MFST               .degF     -999.25                       : MUD FILTRATE SAMPLE TEMPERATURE
MRT                .degF     160.0                         : MAXIMUM RECORDED TEMPERATURE
MST                .degF     -999.25                       : MUD SAMPLE TEMPERATURE
ORIGINALWELLNAME   .         8SPH 0023  SPS                : 
PDAT               .         NM                            : PERMANENT DATUM
PRODUCER-CODE      .         280                           : 
PRODUCER-NAME      .         Halliburton                   : 
RMB                .ohm.m    -999.25                       : RESISTIVITY OF MUD - BHT
RMCS               .ohm.m    -999.25                       : RESISTIVITY OF MUDCAKE SAMPLE
RMFS               .ohm.m    -999.25                       : RESISTIVITY OF MUD FILTRATE SAMPLE
RMS                .ohm.m    -999.25                       : RESISTIVITY OF MUD SAMPLE
RUN                .         02                            : RUN NUMBER 1
STAT               .         SAO PAULO                     : STATE
TCS                .h        03_30                         : TIME CIRCULATION STOPPED
TDD                .M        5517.0                        : DRILLERS DEPTH
TDL                .M        5520.0                        : LOGGERS DEPTH
TLAB               .h        07_30                         : TIME LOGGING ON BOTTOM
TLI                .M        5070.0                        : TOP LOGGED INTERVAL
X                  .M        681190.00000000               : X UTM Coordinate
Y                  .M        7156260.00000000              : Y UTM Coordinate
~Parameter Information Block
#_______________________________________________________________________________
#
#PARAMETER_NAME    .UNIT     VALUE                         : DESCRIPTION
#_______________________________________________________________________________
SET                .         BASE                          : 
TLFamily_BS        .         Bit Size                      : 
TLFamily_DT        .         Compressional Slowness        : 
TLFamily_DWAL      .         Aluminum Weight Fraction      : 
TLFamily_DWCA      .         Calcium Weight Fraction       : 
TLFamily_DWFE      .         Iron Weight Fraction          : 
TLFamily_DWK       .         Potassium Weight Fraction     : 
TLFamily_DWMG      .         Magnesium Weight Fraction     : 
TLFamily_DWMN      .         Manganese Weight Fraction     : 
TLFamily_DWS       .         Sulfur Weight Fraction        : 
TLFamily_DWSI      .         Silicon Weight Fraction       : 
TLFamily_DWTI      .         Titanium Weight Fraction      : 
TLFamily_GR        .         Gamma Ray                     : 
TLFamily_GRt       .         Gamma Ray                     : 
TLFamily_HCAL      .         Caliper                       : 
TLFamily_HFK       .         Potassium Concentration       : 
TLFamily_HTHO      .         Thorium Concentration         : 
TLFamily_HURA      .         Uranium Concentration         : 
TLFamily_MD        .         Measured Depth                : 
TLFamily_MPERM     .         NMR Permeability              : 
TLFamily_NMRE_Final .         NMR Bound Fluid Volume Fraction: 
TLFamily_NMRFL_Final .         NMR Free Fluids               : 
TLFamily_NMRT_Final .         NMR Porosity                  : 
TLFamily_NPHI      .         Neutron Porosity              : 
TLFamily_PE        .         Photoelectric Factor          : 
TLFamily_RD        .         Resistivity - Deep            : 
TLFamily_RHOB      .         Bulk Density                  : 
TLFamily_RM        .         Resistivity - Medium          : 
TLFamily_RS        .         Resistivity - Shallow         : 
TLFamily_T2LM      .         NMR T2 Logarithmic Mean       : 
TLFamily_TVDSS     .         True Vertical Depth Sub Sea   : 
~Curve Information
#_______________________________________________________________________________
#
#LOGNAME           .UNIT     LOG_ID                        : DESCRIPTION
#_______________________________________________________________________________
DEPTH              .M                                      :  
BS                 .in                                     : BS/Bit Size 
DT                 .us/ft                                  : DTC/MonoDeltaT 
DWAL               .kg/kg                                  : DAL/DryrockAlWF 
DWCA               .kg/kg                                  : DCA/DryrockCaWF 
DWFE               .kg/kg                                  : DFE/DryrockFeWF 
DWK                .kg/kg                                  : DK/DryrockKWF 
DWMG               .kg/kg                                  : DMG/DryrockMgWF 
DWMN               .kg/kg                                  : DMN/DryrockMnWF 
DWS                .kg/kg                                  : DSUL/DryrockSuWF 
DWSI               .kg/kg                                  : DSI/DryrockSiWF 
DWTI               .kg/kg                                  : DTI/DryrockTiWF 
GR                 .gAPI                                   : GR/Gamma API 
GRt                .gAPI                                   : GKUT/GammaKUT 
HCAL               .in                                     : CALI/Caliper 
HFK                .%                                      : POTA/Potassium 
HTHO               .ppm                                    : THOR/Thorium 
HURA               .ppm                                    : URAN/Uranium 
MPERM              .mD                                     : MPERMT2/MrilT2KCoat 
NMRE_Final         .m3/m3                                  : MPHIT2/TA-grp T2 Effective Por 
NMRFL_Final        .unitless                               : MFFIT2/TA-grp T2 FreeFluid Ind 
NMRT_Final         .frac                                   : MSIGT2/TA-grp T2 Total Por. 
NPHI               .frac                                   : POROSIDADE NEUTRONICA (COMPOSICAO DE CURVAS CABO E/OU LWD) 
PE                 .b/e                                    : Density PE Filtered 
RD                 .ohm.m                                  : RT90/90in Resistivity 2ft Res 
RHOB               .g/cm3                                  : DENSIDADE (COMPOSICAO DE CURVAS CABO E/OU LWD ) 
RM                 .ohm.m                                  : RT30/30in Resistivity 2ft Res 
RS                 .ohm.m                                  : RT10/10in Resistivity 2ft Res 
T2LM               .ms                                     : T2LM/T2 Log Mean 
TVDSS              .M                                      :  
~Ascii
# ...
5469.430   12.250     60.030     0.029      0.247      0.008      0.036      0.000      0.000      0.004      0.126      0.002      60.212     68.196     11.986     0.752      2.688      5.310      0.004      0.038      0.008      0.067      0.126      8.931      2000.000   2.503      1989.781   1957.780   8.279      5410.941  
5469.582   12.250     59.480     0.023      0.268      0.005      0.028      0.000      0.000      0.006      0.113      0.001      44.212     56.864     11.978     0.683      2.119      4.376      0.005      0.053      0.008      0.080      0.123      8.984      2000.000   2.505      1984.954   1954.568   12.434     5411.094  
5469.735   12.250     59.476     0.020      0.276      0.004      0.025      0.000      0.000      0.006      0.108      0.001      35.512     52.119     11.973     0.665      1.923      3.950      0.008      0.069      0.009      0.084      0.123      8.994      2000.000   2.507      1983.296   1953.377   19.934     5411.246  
5469.887   12.250     59.803     0.019      0.277      0.003      0.024      0.000      0.000      0.005      0.109      0.001      31.709     51.916     11.986     0.710      1.806      3.892      0.016      0.077      0.013      0.083      0.120      8.974      2000.000   2.506      1982.797   1953.056   27.875     5411.398  
5470.039   12.250     60.011     0.021      0.267      0.004      0.026      0.000      0.000      0.005      0.118      0.001      35.739     60.228     11.971     0.923      2.006      4.376      0.013      0.071      0.012      0.079      0.118      8.950      2000.000   2.506      1983.517   1953.766   29.309     5411.550  
5470.192   12.250     60.458     0.024      0.253      0.005      0.030      0.000      0.000      0.005      0.129      0.001      45.482     68.212     11.928     1.081      2.130      4.946      0.004      0.061      0.007      0.073      0.118      8.882      2000.000   2.508      1984.745   1954.828   27.177     5411.703  
5470.344   12.250     60.638     0.030      0.219      0.008      0.038      0.000      0.000      0.003      0.157      0.002      70.071     82.309     11.901     1.361      2.384      5.939      0.001      0.052      0.004      0.066      0.123      8.807      2000.000   2.519      1987.903   1957.535   20.466     5411.855  
5470.497   12.250     60.872     0.033      0.198      0.010      0.041      0.000      0.000      0.002      0.176      0.002      78.030     89.454     11.838     1.478      2.742      6.401      0.000      0.040      0.003      0.061      0.129      8.661      2000.000   2.528      1990.220   1959.567   11.110     5412.007  
5470.649   12.250     61.085     0.037      0.165      0.013      0.047      0.000      0.000      0.001      0.207      0.003      77.315     96.691     11.777     1.533      3.386      6.876      0.000      0.027      0.004      0.056      0.127      8.482      2000.000   2.541      1994.038   1963.214   5.261      5412.160  
5470.801   12.250     61.737     0.040      0.149      0.013      0.049      0.000      0.000      0.000      0.222      0.003      78.590     99.522     11.689     1.525      3.816      7.049      0.000      0.023      0.003      0.050      0.122      8.342      2000.000   2.554      1995.994   1965.429   4.423      5412.312  
5470.954   12.250     62.512     0.043      0.135      0.013      0.054      0.002      0.000      0.000      0.229      0.004      83.917     101.953    11.654     1.528      4.187      7.179      0.000      0.024      0.002      0.040      0.119      8.206      2000.000   2.561      1998.917   1969.876   5.841      5412.464  
5471.106   12.250     62.809     0.046      0.130      0.012      0.057      0.004      0.000      0.000      0.228      0.004      85.341     102.106    11.595     1.554      4.079      7.190      0.000      0.025      0.001      0.030      0.119      8.032      2000.000   2.563      1999.936   1976.000   7.904      5412.616  
5471.259   12.250     63.565     0.047      0.126      0.011      0.059      0.010      0.000      0.000      0.221      0.005      85.234     99.586     11.594     1.629      3.971      6.819      0.000      0.023      0.001      0.026      0.128      7.863      2000.000   2.556      2000.000   1976.458   8.266      5412.769  
5471.411   12.250     63.555     0.047      0.129      0.011      0.059      0.010      0.000      0.001      0.217      0.005      82.161     96.156     11.621     1.669      3.866      6.406      0.000      0.022      0.001      0.030      0.139      7.797      2000.000   2.546      1999.935   1976.168   5.420      5412.921  
5471.563   12.250     62.961     0.044      0.134      0.012      0.055      0.018      0.000      0.003      0.201      0.005      70.766     91.751     11.624     1.647      3.935      5.929      0.000      0.023      0.002      0.040      0.143      7.788      1948.669   2.545      1906.800   1787.120   3.653      5413.073  
5471.716   12.250     62.551     0.043      0.140      0.013      0.054      0.020      0.000      0.005      0.191      0.005      62.219     89.095     11.621     1.646      4.128      5.564      0.000      0.025      0.004      0.052      0.141      7.784      1648.909   2.549      1593.734   1512.624   2.982      5413.226  
5471.868   12.250     62.190     0.043      0.152      0.014      0.054      0.009      0.000      0.003      0.195      0.004      63.327     90.289     11.628     1.698      4.208      5.578      0.001      0.026      0.005      0.058      0.137      7.802      1145.187   2.557      1194.844   1247.516   2.886      5413.378  
5472.021   12.250     61.750     0.044      0.158      0.015      0.055      0.004      0.000      0.001      0.196      0.004      67.848     93.427     11.616     1.816      4.237      5.712      0.000      0.027      0.003      0.058      0.136      7.883      826.889    2.569      954.782    1056.225   3.314      5413.530  
5472.173   12.250     61.402     0.049      0.159      0.015      0.061      0.000      0.000      0.000      0.194      0.004      76.139     98.522     11.618     2.082      4.170      5.844      0.000      0.028      0.001      0.053      0.131      7.977      590.916    2.578      770.622    912.935    3.933      5413.682  
5472.325   12.250     60.898     0.052      0.155      0.016      0.065      0.000      0.000      0.001      0.192      0.004      83.366     101.654    11.599     2.307      4.158      5.807      0.000      0.029      0.001      0.046      0.122      8.012      489.527    2.580      687.267    885.126    5.583      5413.835  
5472.478   12.250     60.711     0.051      0.152      0.017      0.063      0.000      0.000      0.002      0.196      0.004      84.920     103.626    11.592     2.569      4.384      5.490      0.000      0.032      0.001      0.040      0.113      8.017      424.883    2.579      636.133    858.758    9.302      5413.987  
5472.630   12.250     60.984     0.049      0.155      0.019      0.061      0.000      0.000      0.002      0.195      0.004      81.624     104.618    11.571     2.765      4.457      5.235      0.000      0.033      0.001      0.038      0.109      8.061      391.692    2.581      610.227    846.866    10.676     5414.139  
5472.783   12.250     61.256     0.048      0.162      0.020      0.060      0.000      0.000      0.005      0.186      0.004      79.601     108.293    11.553     2.904      4.341      5.447      0.000      0.028      0.001      0.037      0.115      8.147      350.538    2.587      575.158    825.866    9.926      5414.291  
5472.935   12.250     63.014     0.048      0.167      0.021      0.060      0.000      0.000      0.006      0.179      0.004      83.672     112.666    11.556     2.977      4.315      5.816      0.000      0.024      0.003      0.033      0.127      8.218      322.174    2.592      549.073    807.966    11.036     5414.444  
5473.087   12.250     63.999     0.049      0.170      0.022      0.060      0.000      0.000      0.005      0.175      0.004      92.872     117.210    11.550     3.031      4.249      6.252      0.000      0.024      0.005      0.029      0.140      8.243      297.128    2.591      524.064    789.063    14.464     5414.596  
