~Version
 VERS              .         2.0                           : CWLS LOG ASCII STANDARD - VERSION 2.0
 WRAP              .         NO                            : ONE LINE PER DEPTH STEP
 DLM               .         SPACE                         : DELIMITING CHARACTER(SPACE TAB OR COMMA)
~Well Information
#_______________________________________________________________________________
#
#PARAMETER_NAME    .UNIT     VALUE                         : DESCRIPTION
#_______________________________________________________________________________
STRT               .M        5027.447                      : First reference value
STOP               .M        5499.430                      : Last reference value
STEP               .M        0.152                         : Step increment
NULL               .         -9999                         : Missing value
COMP               .         PETROBRAS                     : Company
WELL               .         8-SPH-10-SPS                  : Well name
FLD                .         SAPINHOA                      : Field
LOC                .                                       : Location
PROV               .                                       : Province
SRVC               .                                       : Service Company
DATE               .         2021-09-13 11_18_58           : Date
UWI                .         8-SPH-10-SPS                  : Unique Well ID
APD                .M        24                            : Above Permanent Datum
API                .                                       : API NUMBER
BHT                .degF     153                           : Bottom Hole Temperature
BLI                .M        5494.8                        : Bottom Log Interval
BS                 .in       8.5                           : Bit Size
CTRY               .         BRASIL                        : Nation
DCS                .         15/06/2015                    : Date Ciculation Stopped
DFD                .lb/gal   9.7                           : Drilling Fluid Density
DFT                .         CATIONICO FLEX DRILL (BASE AGUA): Drilling Fluid Type
DLAB               .         18/06/2015                    : Date Logger At Bottom
EDF                .M        24                            : Elevation of Derreck Floor
EGL                .M        -2125                         : Elevation of Ground Level
EKB                .M        -999.25                       : Elevation of Kelly Bushing
EPD                .M        0                             : Elevation Of Permanent Datum
LMF                .         MR                            : Log Measured From
LONG               .         -43_10_14,760                 : Longitude
MCST               .degF     67                            : Mud Cake Sample Temperature
MFST               .degF     67                            : Mud Filtrate Sample Temperature
MRT                .degF     153                           : Maximum Recorded Temperature
MST                .degF     67                            : Mud Sample Temperature
ORIGINALWELLNAME   .         P08                           : 
PDAT               .         NM                            : Permanent Datum
PRODUCER-CODE      .         150                           : 
PRODUCER-NAME      .         ATLAS                         : 
RMB                .ohm.m    -999.25                       : Resistivity Of Mud - BHT
RMCS               .ohm.m    0.078                         : Resistivity Of Mud Cake Sample
RMFS               .ohm.m    0.064                         : Mud Filtrate Sample Resistivity
RMS                .ohm.m    0.071                         : Mud Sample Resistivity
RUN                .         3                             : Run Number
STAT               .         SAO PAULO                     : State
TCS                .h        22_00                         : Time Ciculation Stopped
TDD                .M        5496                          : Total Depht - Driller
TDL                .M        5495.5                        : Total Depht - Logger
TLAB               .h        10_45                         : Time Logger At Bottom
TLI                .M        5114                          : Top Log Interval
X                  .M        683623.00000000               : 
Y                  .M        7161727.00000000              : 
~Parameter Information Block
#_______________________________________________________________________________
#
#PARAMETER_NAME    .UNIT     VALUE                         : DESCRIPTION
#_______________________________________________________________________________
SET                .         BASE                          : 
TLFamily_BS        .         Bit Size                      : 
TLFamily_DT        .         Compressional Slowness        : 
TLFamily_DWAL      .         Aluminum Weight Fraction      : 
TLFamily_DWCA      .         Calcium Weight Fraction       : 
TLFamily_DWFE      .         Iron Weight Fraction          : 
TLFamily_DWGD      .         Gadolinium Weight Fraction    : 
TLFamily_DWK       .         Potassium Weight Fraction     : 
TLFamily_DWMG      .         Magnesium Weight Fraction     : 
TLFamily_DWMN      .         Manganese Weight Fraction     : 
TLFamily_DWS       .         Sulfur Weight Fraction        : 
TLFamily_DWSI      .         Silicon Weight Fraction       : 
TLFamily_DWTI      .         Titanium Weight Fraction      : 
TLFamily_GR        .         Gamma Ray                     : 
TLFamily_GRt       .         Gamma Ray                     : 
TLFamily_HCAL      .         Caliper                       : 
TLFamily_HDRA      .         Bulk Density Correction       : 
TLFamily_HFK       .         Potassium Concentration       : 
TLFamily_HTHO      .         Thorium Concentration         : 
TLFamily_HURA      .         Uranium Concentration         : 
TLFamily_MD        .         Measured Depth                : 
TLFamily_MPERM     .         NMR Permeability              : 
TLFamily_NMRE_Final .         NMR Bound Fluid Volume Fraction: 
TLFamily_NMRFL_Final .         NMR Free Fluids               : 
TLFamily_NMRT_Final .         NMR Porosity                  : 
TLFamily_NPHI      .         Neutron Porosity              : 
TLFamily_PE        .         Photoelectric Factor          : 
TLFamily_RD        .         Resistivity - Deep            : 
TLFamily_RHOB      .         Bulk Density                  : 
TLFamily_RS        .         Resistivity - Shallow         : 
TLFamily_TVDSS     .         True Vertical Depth Sub Sea   : 
~Curve Information
#_______________________________________________________________________________
#
#LOGNAME           .UNIT     LOG_ID                        : DESCRIPTION
#_______________________________________________________________________________
DEPTH              .M                                      :  
BS                 .in                                     : Bit size 
DT                 .us/ft                                  : Slowness over 24-inch interval 
DWAL               .kg/kg                                  : Weight fraction of aluminum derived from thorium in dry rock 
DWCA               .kg/kg                                  : Weight fraction of calcium in dry rock 
DWFE               .kg/kg                                  : Weight fraction of iron in dry rock 
DWGD               .ppm                                    : Weight fraction of gadolinium in dry rock 
DWK                .kg/kg                                  : Weight fraction of potassium in dry rock 
DWMG               .kg/kg                                  : Weight fraction of magnesium in dry rock 
DWMN               .kg/kg                                  : Weight fraction of manganese in dry rock 
DWS                .kg/kg                                  : Weight fraction of sulfur in dry rock 
DWSI               .kg/kg                                  : Weight fraction of silicon in dry rock 
DWTI               .kg/kg                                  : Weight fraction of titanium in dry rock 
GR                 .gAPI                                   : Gamma ray 
GRt                .gAPI                                   : Gamma ray from 1329 spectrum 
HCAL               .in                                     : Caliper 
HDRA               .g/cm3                                  : Density correction 
HFK                .%                                      : Potassium content 
HTHO               .ppm                                    : Thorium concentration 
HURA               .ppm                                    : Uranium content 
MPERM              .mD                                     : MR permeability 
NMRE_Final         .m3/m3                                  : MR effective porosity 
NMRFL_Final        .unitless                               : MR moveable fluids 
NMRT_Final         .frac                                   : MR total porosity 
NPHI               .frac                                   : Borehole size corrected compensated neutron porosity 
PE                 .b/e                                    : Photo electric cross-section 
RD                 .ohm.m                                  : Deep resistivity 
RHOB               .g/cm3                                  : Formation bulk density 
RS                 .ohm.m                                  : Shallow resistivity 
TVDSS              .M                                      :  
~Ascii
# ...
5309.387   8.500      89.549     0.003      0.176      0.001      1.578      0.001      0.021      0.001      0.001      0.232      0.002      22.485     22.569     8.754      -0.008     0.100      0.608      2.381      0.417      0.078      0.040      0.092      0.100      2.970      39.195     2.530      75.294     5285.050  
5309.540   8.500      90.539     0.003      0.178      0.001      1.664      0.001      0.021      0.001      0.001      0.230      0.002      23.325     23.414     8.754      -0.006     0.094      0.597      2.438      0.482      0.078      0.042      0.089      0.099      2.829      44.355     2.538      85.351     5285.202  
5309.692   8.500      91.035     0.003      0.176      0.001      1.740      0.001      0.021      0.001      0.001      0.232      0.001      23.680     23.774     8.754      0.001      0.087      0.551      2.517      0.476      0.080      0.041      0.084      0.101      2.588      47.701     2.551      92.807     5285.355  
5309.845   8.500      89.219     0.003      0.173      0.000      1.775      0.001      0.020      0.001      0.001      0.235      0.001      23.829     23.924     8.753      0.007      0.083      0.496      2.594      0.423      0.082      0.040      0.082      0.109      2.457      47.417     2.552      92.042     5285.507  
5309.997   8.500      84.167     0.002      0.173      0.001      1.721      0.001      0.017      0.001      0.001      0.237      0.001      24.329     24.424     8.753      0.005      0.085      0.456      2.664      0.337      0.082      0.038      0.082      0.118      2.553      44.964     2.535      85.806     5285.659  
5310.149   8.500      76.761     0.002      0.175      0.001      1.563      0.003      0.011      0.001      0.001      0.235      0.001      25.155     25.253     8.753      -0.001     0.092      0.450      2.711      0.289      0.083      0.036      0.085      0.118      2.805      42.169     2.516      79.071     5285.812  
5310.302   8.500      69.421     0.002      0.179      0.002      1.367      0.004      0.005      0.001      0.001      0.231      0.002      25.748     25.850     8.753      -0.005     0.101      0.478      2.722      0.304      0.086      0.037      0.093      0.106      3.031      39.878     2.513      73.914     5285.964  
5310.454   8.500      64.417     0.003      0.184      0.003      1.238      0.004      0.002      0.001      0.001      0.227      0.003      25.698     25.802     8.753      -0.005     0.105      0.521      2.710      0.398      0.084      0.040      0.095      0.093      3.065      37.805     2.522      69.952     5286.117  
5310.607   8.500      62.427     0.003      0.186      0.004      1.211      0.002      0.001      0.001      0.001      0.230      0.003      25.132     25.236     8.753      -0.002     0.099      0.569      2.692      0.645      0.077      0.044      0.084      0.087      2.913      34.925     2.537      65.396     5286.269  
5310.759   8.500      62.941     0.003      0.182      0.004      1.247      0.001      0.001      0.001      0.001      0.240      0.004      24.412     24.514     8.752      0.002      0.084      0.612      2.661      0.926      0.073      0.047      0.076      0.091      2.762      30.572     2.550      58.398     5286.421  
5310.911   8.500      65.487     0.003      0.175      0.003      1.300      0.001      0.001      0.001      0.001      0.251      0.004      23.667     23.763     8.752      0.002      0.064      0.640      2.627      0.714      0.076      0.045      0.079      0.100      2.773      25.369     2.552      49.391     5286.574  
5311.064   8.500      70.112     0.003      0.167      0.002      1.327      0.001      0.002      0.001      0.001      0.258      0.004      23.008     23.102     8.753      0.001      0.044      0.661      2.605      0.755      0.080      0.046      0.088      0.107      2.956      20.679     2.544      40.783     5286.726  
5311.216   8.500      76.745     0.003      0.162      0.002      1.279      0.001      0.006      0.001      0.001      0.258      0.004      22.688     22.781     8.754      0.004      0.030      0.686      2.587      1.140      0.082      0.050      0.098      0.111      3.182      17.371     2.535      34.369     5286.878  
5311.369   8.500      84.258     0.004      0.161      0.002      1.134      0.001      0.011      0.001      0.001      0.253      0.003      22.916     23.009     8.754      0.011      0.026      0.711      2.552      1.494      0.083      0.053      0.099      0.111      3.290      15.364     2.529      30.230     5287.031  
5311.521   8.500      90.627     0.004      0.163      0.002      0.932      0.001      0.015      0.001      0.001      0.247      0.003      23.560     23.657     8.754      0.017      0.027      0.724      2.507      1.178      0.088      0.051      0.098      0.110      3.243      14.344     2.525      27.944     5287.183  
5311.673   8.500      94.063     0.004      0.166      0.003      0.772      0.001      0.015      0.001      0.001      0.243      0.002      24.126     24.227     8.754      0.017      0.030      0.719      2.473      0.859      0.086      0.048      0.092      0.106      3.138      14.402     2.527      27.833     5287.336  
5311.826   8.500      93.753     0.003      0.167      0.003      0.757      0.001      0.012      0.001      0.001      0.246      0.002      24.358     24.457     8.753      0.011      0.032      0.703      2.466      0.575      0.075      0.043      0.082      0.102      3.036      15.138     2.534      29.298     5287.488  
5311.978   8.500      89.930     0.003      0.163      0.002      0.903      0.001      0.009      0.001      0.001      0.254      0.002      24.499     24.601     8.754      0.001      0.033      0.679      2.487      0.359      0.060      0.037      0.068      0.100      2.883      15.744     2.538      30.761     5287.640  
5312.131   8.500      83.599     0.003      0.154      0.002      1.135      0.001      0.007      0.001      0.001      0.265      0.002      24.935     25.046     8.755      -0.008     0.033      0.651      2.545      0.176      0.055      0.032      0.064      0.101      2.726      15.716     2.537      30.972     5287.793  
5312.283   8.500      76.233     0.003      0.144      0.002      1.393      0.001      0.007      0.001      0.001      0.269      0.003      25.541     25.651     8.756      -0.012     0.032      0.633      2.648      0.087      0.056      0.027      0.065      0.104      2.692      15.281     2.533      30.289     5287.945  
5312.435   8.500      69.608     0.003      0.139      0.003      1.680      0.001      0.008      0.001      0.001      0.262      0.002      25.943     26.044     8.756      -0.011     0.033      0.633      2.769      0.121      0.058      0.029      0.065      0.110      2.700      15.040     2.535      30.040     5288.097  
5312.588   8.500      65.216     0.003      0.142      0.003      1.990      0.001      0.010      0.001      0.001      0.245      0.002      26.623     26.723     8.758      -0.006     0.037      0.647      2.893      0.473      0.063      0.040      0.066      0.118      2.615      15.400     2.543      31.099     5288.250  
5312.740   8.500      63.398     0.003      0.156      0.002      2.260      0.001      0.010      0.001      0.001      0.220      0.002      28.032     28.139     8.775      -0.003     0.042      0.671      3.019      1.702      0.080      0.054      0.082      0.124      2.599      16.384     2.544      33.515     5288.402  
5312.893   8.500      63.186     0.003      0.175      0.002      2.373      0.001      0.010      0.001      0.001      0.195      0.002      29.691     29.806     8.809      -0.005     0.045      0.703      3.107      1.913      0.103      0.058      0.105      0.115      2.792      17.772     2.527      36.919     5288.555  
5313.045   8.500      63.068     0.004      0.195      0.002      2.251      0.001      0.012      0.001      0.001      0.179      0.002      30.654     30.775     8.846      -0.008     0.045      0.719      3.133      1.535      0.108      0.056      0.109      0.090      3.003      19.507     2.512      41.183     5288.707  
