~Version
 VERS              .         2.0                           : CWLS LOG ASCII STANDARD - VERSION 2.0
 WRAP              .         NO                            : ONE LINE PER DEPTH STEP
 DLM               .         SPACE                         : DELIMITING CHARACTER(SPACE TAB OR COMMA)
~Well Information
#_______________________________________________________________________________
#
#PARAMETER_NAME    .UNIT     VALUE                         : DESCRIPTION
#_______________________________________________________________________________
STRT               .M        2228.000                      : First reference value
STOP               .M        5446.688                      : Last reference value
STEP               .M        0.152                         : Step increment
NULL               .         -9999                         : Missing value
COMP               .         Petrobras                     : Company
WELL               .         8-SPH-13-SPS                  : Well name
FLD                .         Sapinhoa                      : Field
LOC                .                                       : Location
CNTY               .                                       : County
STAT               .         SAO PAULO                     : State
CTRY               .         BRASIL                        : Country
SRVC               .                                       : Service Company
DATE               .                                       : Date
API                .         863160035500                  : API number
APD                .M        24                            : Above Permanent Datum
BHT                .degF     120                           : Bottom Hole Temperature
BLI                .M        5180.5                        : Bottom Log Interval
BS                 .in       12.25x14.75                   : Bit Size
DCS                .         07/04/2014                    : Date Ciculation Stopped
DFD                .lbm/gal  10.1                          : Drilling Fluid Density
DFT                .         BR-MUL                        : Drilling Fluid Type
DLAB               .         08/04/2014                    : Date Logger At Bottom
EDF                .M        24                            : Elevation of Derreck Floor
EGL                .M        -2119                         : Elevation of Ground Level
EKB                .M        -999.25                       : ELEVATION OF KELLY BUSHING
EPD                .M        0                             : Elevation Of Permanent Datum
GDAT               .         SIRGAS2000                    : Geodetic Datum
LMF                .         MR                            : Log Measured From
LUL                .         MCE                           : LOGGING UNIT LOCATION
LUN                .         -999.25                       : LOGGING UNIT NUMBER
LATI               .         -25_42_39.196                 : Latitude
LONG               .         -43_09_15.905                 : Longitude
MCST               .degF     -999.25                       : Mud Cake Sample Temperature
MFST               .degF     -999.25                       : Mud Filtrate Sample Temperature
MRT                .degF     120                           : Maximum Recorded Temperature
MST                .degF     -999.25                       : Mud Sample Temperature
ORIGINALWELLNAME   .         8SPH 0013  SPS                : 
PDAT               .         NM                            : Permanent Datum
PRODUCER-CODE      .         15                            : 
PRODUCER-NAME      .         INTEQ                         : 
RMB                .ohm.m    -999.25                       : RESISTIVITY OF MUD - BHT
RMCS               .ohm.m    -999.25                       : Resistivity Of Mud Cake Sample
RMFS               .ohm.m    -999.25                       : Mud Filtrate Sample Resistivity
RMS                .ohm.m    -999.25                       : Mud Sample Resistivity
RUN                .         1                             : Run
TCS                .h        15_00                         : Time Ciculation Stopped
TDD                .M        5184                          : Total Depht - Driller
TDL                .M        5184                          : Total Depht - Logger
TLAB               .h        11_00                         : Time Logger At Bottom
TLI                .M        3543                          : Top Log Interval
X                  .M        685128.30900000               : X COORDINATE N
Y                  .M        7155027.01100000              : Y COORDINATE E
~Parameter Information Block
#_______________________________________________________________________________
#
#PARAMETER_NAME    .UNIT     VALUE                         : DESCRIPTION
#_______________________________________________________________________________
SET                .         BASE                          : 
TLFamily_DT        .         Compressional Slowness        : 
TLFamily_GR        .         Gamma Ray                     : 
TLFamily_HCAL      .         Caliper                       : 
TLFamily_MD        .         Measured Depth                : 
TLFamily_NMRE_Final .         NMR Bound Fluid Volume Fraction: 
TLFamily_NMRFL_Final .         NMR Free Fluids               : 
TLFamily_NMRT_Final .         NMR Porosity                  : 
TLFamily_NPHI      .         Neutron Porosity              : 
TLFamily_RD        .         Resistivity - Deep            : 
TLFamily_RHOB      .         Bulk Density                  : 
TLFamily_RM        .         Resistivity - Medium          : 
TLFamily_RS        .         Resistivity - Shallow         : 
~Curve Information
#_______________________________________________________________________________
#
#LOGNAME           .UNIT     LOG_ID                        : DESCRIPTION
#_______________________________________________________________________________
DEPTH              .M                                      :  
DT                 .us/ft                                  : SONICO COMPRESSIONAL (COMPOSICAO DE CURVAS CABO E/OU LWD) 
GR                 .gAPI                                   : RAIOS GAMA (COMPOSICAO DE CURVAS CABO E/OU LWD) 
HCAL               .in                                     : CALIPER (COMPOSICAO DE CURVAS CABO E/OU LWD) 
NMRE_Final         .m3/m3                                  : 03/02 - MRIL (HALLIBURTON) - MRIL EFFECTIVE POROSITY 
NMRFL_Final        .unitless                               : 03/02 - MRIL (HALLIBURTON) - FREE FLUID INDEX T2 
NMRT_Final         .frac                                   : 03/02 - MRIL (HALLIBURTON) - MRIAN MRIL TOTAL POROSITY 
NPHI               .frac                                   : POROSIDADE NEUTRONICA (COMPOSICAO DE CURVAS CABO E/OU LWD) 
RD                 .ohm.m                                  : RESISTIVIDADE PROFUNDA (COMPOSICAO DE CURVAS CABO E/OU LWD) 
RHOB               .g/cm3                                  : DENSIDADE (COMPOSICAO DE CURVAS CABO E/OU LWD ) 
RM                 .ohm.m                                  : RESISTIVIDADE MEDIA (COMPOSICAO DE CURVAS CABO E/OU LWD) 
RS                 .ohm.m                                  : RESISTIVIDADE RASA (COMPOSICAO DE CURVAS CABO E/OU LWD) 
~Ascii
# ...
3799.092   68.967     4.860      14.826     -9999.000  -9999.000  -9999.000  -0.032     1522.107   2.042      1681.668   1681.668  
3799.244   68.926     5.033      14.825     -9999.000  -9999.000  -9999.000  -0.032     1564.394   2.037      1544.886   1544.886  
3799.396   68.543     4.867      14.825     -9999.000  -9999.000  -9999.000  -0.031     1607.976   2.037      1544.886   1544.886  
3799.549   68.164     4.546      14.828     -9999.000  -9999.000  -9999.000  -0.031     1617.515   2.041      1660.128   1660.128  
3799.701   67.872     4.451      14.829     -9999.000  -9999.000  -9999.000  -0.031     1596.614   2.046      1797.189   1797.189  
3799.854   67.706     4.930      14.828     -9999.000  -9999.000  -9999.000  -0.031     1567.949   2.048      1797.189   1797.189  
3800.006   67.653     5.676      14.828     -9999.000  -9999.000  -9999.000  -0.031     1512.593   2.047      1682.199   1682.199  
3800.158   67.629     5.467      14.829     -9999.000  -9999.000  -9999.000  -0.031     1477.733   2.045      1544.886   1544.886  
3800.311   67.612     5.497      14.828     -9999.000  -9999.000  -9999.000  -0.030     1439.281   2.044      1659.270   1659.270  
3800.463   67.633     5.952      14.828     -9999.000  -9999.000  -9999.000  -0.030     1437.197   2.046      1682.502   1682.502  
3800.616   67.682     6.143      14.828     -9999.000  -9999.000  -9999.000  -0.030     1454.446   2.054      1659.067   1659.067  
3800.768   67.791     5.370      14.828     -9999.000  -9999.000  -9999.000  -0.031     1514.247   2.065      1683.108   1683.108  
3800.920   68.034     5.115      14.827     -9999.000  -9999.000  -9999.000  -0.031     1546.471   2.071      1658.512   1658.512  
3801.073   68.406     5.627      14.827     -9999.000  -9999.000  -9999.000  -0.031     1546.101   2.067      1797.189   1797.189  
3801.225   68.692     5.942      14.828     -9999.000  -9999.000  -9999.000  -0.031     1510.549   2.059      1797.189   1797.189  
3801.378   68.865     5.970      14.828     -9999.000  -9999.000  -9999.000  -0.031     1440.023   2.052      1952.664   1952.664  
3801.530   69.042     5.421      14.828     -9999.000  -9999.000  -9999.000  -0.030     1395.497   2.048      1874.783   1874.783  
3801.682   68.942     5.173      14.828     -9999.000  -9999.000  -9999.000  -0.030     1357.836   2.048      1657.602   1657.602  
3801.835   68.547     5.573      14.829     -9999.000  -9999.000  -9999.000  -0.031     1362.188   2.050      1952.318   1952.318  
3801.987   68.299     5.551      14.829     -9999.000  -9999.000  -9999.000  -0.031     1403.829   2.050      1876.341   1876.341  
3802.140   68.364     5.248      14.828     -9999.000  -9999.000  -9999.000  -0.031     1455.030   2.048      1657.350   1657.350  
3802.292   68.712     5.264      14.828     -9999.000  -9999.000  -9999.000  -0.031     1550.490   2.047      1600.627   1600.627  
3802.444   69.027     5.272      14.829     -9999.000  -9999.000  -9999.000  -0.031     1613.551   2.049      1438.756   1438.756  
3802.597   69.164     4.949      14.830     -9999.000  -9999.000  -9999.000  -0.031     1651.886   2.048      1657.047   1657.047  
3802.749   69.154     5.160      14.829     -9999.000  -9999.000  -9999.000  -0.031     1642.872   2.045      1685.534   1685.534  
3802.902   68.954     5.480      14.829     -9999.000  -9999.000  -9999.000  -0.031     1584.201   2.042      1809.609   1809.609  
3803.054   68.750     5.328      14.828     -9999.000  -9999.000  -9999.000  -0.031     1531.264   2.040      2143.342   2143.342  
3803.206   68.578     5.518      14.826     -9999.000  -9999.000  -9999.000  -0.032     1459.888   2.042      1879.097   1879.097  
3803.359   68.325     6.087      14.826     -9999.000  -9999.000  -9999.000  -0.032     1438.072   2.047      1808.891   1808.891  
3803.511   68.151     5.680      14.829     -9999.000  -9999.000  -9999.000  -0.032     1448.764   2.050      1991.332   1991.332  
3803.664   68.247     4.749      14.830     -9999.000  -9999.000  -9999.000  -0.031     1474.169   2.051      1949.060   1949.060  
3803.816   68.579     4.621      14.829     -9999.000  -9999.000  -9999.000  -0.031     1501.840   2.050      1992.094   1992.094  
3803.968   68.727     5.093      14.827     -9999.000  -9999.000  -9999.000  -0.031     1533.516   2.051      1948.852   1948.852  
3804.121   68.583     4.862      14.827     -9999.000  -9999.000  -9999.000  -0.031     1542.956   2.051      1992.372   1992.372  
3804.273   68.288     5.225      14.829     -9999.000  -9999.000  -9999.000  -0.031     1546.142   2.050      1687.251   1687.251  
3804.426   68.184     5.620      14.830     -9999.000  -9999.000  -9999.000  -0.031     1544.810   2.046      1806.374   1806.374  
3804.578   68.366     6.462      14.829     -9999.000  -9999.000  -9999.000  -0.031     1539.893   2.038      1883.052   1883.052  
3804.730   68.549     6.774      14.830     -9999.000  -9999.000  -9999.000  -0.031     1529.024   2.034      1397.601   1397.601  
3804.883   68.560     5.896      14.829     -9999.000  -9999.000  -9999.000  -0.032     1504.207   2.039      1352.611   1352.611  
3805.035   68.724     5.841      14.827     -9999.000  -9999.000  -9999.000  -0.032     1481.933   2.044      1803.618   1803.618  
3805.188   68.751     5.827      14.827     -9999.000  -9999.000  -9999.000  -0.031     1457.180   2.043      1993.827   1993.827  
3805.340   68.407     5.604      14.827     -9999.000  -9999.000  -9999.000  -0.030     1450.823   2.039      1797.189   1797.189  
3805.492   68.085     5.381      14.827     -9999.000  -9999.000  -9999.000  -0.030     1462.022   2.033      1797.189   1797.189  
3805.645   67.981     4.958      14.827     -9999.000  -9999.000  -9999.000  -0.030     1479.635   2.029      1688.919   1688.919  
3805.797   68.046     5.473      14.826     -9999.000  -9999.000  -9999.000  -0.030     1498.099   2.030      1653.510   1653.510  
3805.950   68.337     5.917      14.826     -9999.000  -9999.000  -9999.000  -0.030     1506.558   2.038      1797.189   1797.189  
3806.102   68.713     5.370      14.824     -9999.000  -9999.000  -9999.000  -0.030     1532.911   2.044      1689.171   1689.171  
3806.254   68.856     5.028      14.823     -9999.000  -9999.000  -9999.000  -0.030     1555.744   2.049      1799.903   1799.903  
3806.407   68.618     5.122      14.824     -9999.000  -9999.000  -9999.000  -0.030     1568.977   2.054      1995.976   1995.976  
3806.559   68.225     4.806      14.825     -9999.000  -9999.000  -9999.000  -0.030     1560.242   2.057      1797.189   1797.189  
3806.712   67.981     4.545      14.826     -9999.000  -9999.000  -9999.000  -0.030     1553.612   2.051      1944.347   1944.347  
3806.864   67.869     4.484      14.826     -9999.000  -9999.000  -9999.000  -0.031     1571.862   2.045      2143.342   2143.342  
3807.016   67.916     4.487      14.826     -9999.000  -9999.000  -9999.000  -0.031     1598.916   2.046      1997.016   1997.016  
3807.169   68.065     5.343      14.825     -9999.000  -9999.000  -9999.000  -0.031     1622.388   2.047      1690.232   1690.232  
3807.321   68.347     5.555      14.825     -9999.000  -9999.000  -9999.000  -0.032     1608.095   2.045      1651.337   1651.337  
3807.474   68.425     4.519      14.825     -9999.000  -9999.000  -9999.000  -0.031     1545.828   2.045      1797.189   1797.189  
3807.626   68.515     4.373      14.825     -9999.000  -9999.000  -9999.000  -0.031     1488.375   2.046      1610.650   1610.650  
3807.778   68.470     4.650      14.826     -9999.000  -9999.000  -9999.000  -0.031     1411.647   2.042      1539.969   1539.969  
3807.931   68.468     4.844      14.824     -9999.000  -9999.000  -9999.000  -0.031     1382.784   2.036      1691.091   1691.091  
3808.083   68.256     5.577      14.823     -9999.000  -9999.000  -9999.000  -0.031     1387.572   2.034      1544.886   1544.886  
3808.236   68.028     6.295      14.824     -9999.000  -9999.000  -9999.000  -0.031     1423.617   2.034      1650.378   1650.378  
