~Version
 VERS              .         2.0                           : CWLS LOG ASCII STANDARD - VERSION 2.0
 WRAP              .         NO                            : ONE LINE PER DEPTH STEP
 DLM               .         SPACE                         : DELIMITING CHARACTER(SPACE TAB OR COMMA)
~Well Information
#_______________________________________________________________________________
#
#PARAMETER_NAME    .UNIT     VALUE                         : DESCRIPTION
#_______________________________________________________________________________
STRT               .M        5027.447                      : First reference value
STOP               .M        5499.430                      : Last reference value
STEP               .M        0.152                         : Step increment
NULL               .         -9999                         : Missing value
COMP               .         PETROBRAS                     : Company
WELL               .         8-SPH-10-SPS                  : Well name
FLD                .         SAPINHOA                      : Field
LOC                .                                       : Location
PROV               .                                       : Province
SRVC               .                                       : Service Company
DATE               .         2021-09-13 11_18_58           : Date
UWI                .         8-SPH-10-SPS                  : Unique Well ID
APD                .M        24                            : Above Permanent Datum
API                .                                       : API NUMBER
BHT                .degF     153                           : Bottom Hole Temperature
BLI                .M        5494.8                        : Bottom Log Interval
BS                 .in       8.5                           : Bit Size
CTRY               .         BRASIL                        : Nation
DCS                .         15/06/2015                    : Date Ciculation Stopped
DFD                .lb/gal   9.7                           : Drilling Fluid Density
DFT                .         CATIONICO FLEX DRILL (BASE AGUA): Drilling Fluid Type
DLAB               .         18/06/2015                    : Date Logger At Bottom
EDF                .M        24                            : Elevation of Derreck Floor
EGL                .M        -2125                         : Elevation of Ground Level
EKB                .M        -999.25                       : Elevation of Kelly Bushing
EPD                .M        0                             : Elevation Of Permanent Datum
LMF                .         MR                            : Log Measured From
LONG               .         -43_10_14,760                 : Longitude
MCST               .degF     67                            : Mud Cake Sample Temperature
MFST               .degF     67                            : Mud Filtrate Sample Temperature
MRT                .degF     153                           : Maximum Recorded Temperature
MST                .degF     67                            : Mud Sample Temperature
ORIGINALWELLNAME   .         P08                           : 
PDAT               .         NM                            : Permanent Datum
PRODUCER-CODE      .         150                           : 
PRODUCER-NAME      .         ATLAS                         : 
RMB                .ohm.m    -999.25                       : Resistivity Of Mud - BHT
RMCS               .ohm.m    0.078                         : Resistivity Of Mud Cake Sample
RMFS               .ohm.m    0.064                         : Mud Filtrate Sample Resistivity
RMS                .ohm.m    0.071                         : Mud Sample Resistivity
RUN                .         3                             : Run Number
STAT               .         SAO PAULO                     : State
TCS                .h        22_00                         : Time Ciculation Stopped
TDD                .M        5496                          : Total Depht - Driller
TDL                .M        5495.5                        : Total Depht - Logger
TLAB               .h        10_45                         : Time Logger At Bottom
TLI                .M        5114                          : Top Log Interval
X                  .M        683623.00000000               : 
Y                  .M        7161727.00000000              : 
~Parameter Information Block
#_______________________________________________________________________________
#
#PARAMETER_NAME    .UNIT     VALUE                         : DESCRIPTION
#_______________________________________________________________________________
SET                .         BASE                          : 
TLFamily_BS        .         Bit Size                      : 
TLFamily_DT        .         Compressional Slowness        : 
TLFamily_DWAL      .         Aluminum Weight Fraction      : 
TLFamily_DWCA      .         Calcium Weight Fraction       : 
TLFamily_DWFE      .         Iron Weight Fraction          : 
TLFamily_DWGD      .         Gadolinium Weight Fraction    : 
TLFamily_DWK       .         Potassium Weight Fraction     : 
TLFamily_DWMG      .         Magnesium Weight Fraction     : 
TLFamily_DWMN      .         Manganese Weight Fraction     : 
TLFamily_DWS       .         Sulfur Weight Fraction        : 
TLFamily_DWSI      .         Silicon Weight Fraction       : 
TLFamily_DWTI      .         Titanium Weight Fraction      : 
TLFamily_GR        .         Gamma Ray                     : 
TLFamily_GRt       .         Gamma Ray                     : 
TLFamily_HCAL      .         Caliper                       : 
TLFamily_HDRA      .         Bulk Density Correction       : 
TLFamily_HFK       .         Potassium Concentration       : 
TLFamily_HTHO      .         Thorium Concentration         : 
TLFamily_HURA      .         Uranium Concentration         : 
TLFamily_MD        .         Measured Depth                : 
TLFamily_MPERM     .         NMR Permeability              : 
TLFamily_NMRE_Final .         NMR Bound Fluid Volume Fraction: 
TLFamily_NMRFL_Final .         NMR Free Fluids               : 
TLFamily_NMRT_Final .         NMR Porosity                  : 
TLFamily_NPHI      .         Neutron Porosity              : 
TLFamily_PE        .         Photoelectric Factor          : 
TLFamily_RD        .         Resistivity - Deep            : 
TLFamily_RHOB      .         Bulk Density                  : 
TLFamily_RS        .         Resistivity - Shallow         : 
TLFamily_TVDSS     .         True Vertical Depth Sub Sea   : 
~Curve Information
#_______________________________________________________________________________
#
#LOGNAME           .UNIT     LOG_ID                        : DESCRIPTION
#_______________________________________________________________________________
DEPTH              .M                                      :  
BS                 .in                                     : Bit size 
DT                 .us/ft                                  : Slowness over 24-inch interval 
DWAL               .kg/kg                                  : Weight fraction of aluminum derived from thorium in dry rock 
DWCA               .kg/kg                                  : Weight fraction of calcium in dry rock 
DWFE               .kg/kg                                  : Weight fraction of iron in dry rock 
DWGD               .ppm                                    : Weight fraction of gadolinium in dry rock 
DWK                .kg/kg                                  : Weight fraction of potassium in dry rock 
DWMG               .kg/kg                                  : Weight fraction of magnesium in dry rock 
DWMN               .kg/kg                                  : Weight fraction of manganese in dry rock 
DWS                .kg/kg                                  : Weight fraction of sulfur in dry rock 
DWSI               .kg/kg                                  : Weight fraction of silicon in dry rock 
DWTI               .kg/kg                                  : Weight fraction of titanium in dry rock 
GR                 .gAPI                                   : Gamma ray 
GRt                .gAPI                                   : Gamma ray from 1329 spectrum 
HCAL               .in                                     : Caliper 
HDRA               .g/cm3                                  : Density correction 
HFK                .%                                      : Potassium content 
HTHO               .ppm                                    : Thorium concentration 
HURA               .ppm                                    : Uranium content 
MPERM              .mD                                     : MR permeability 
NMRE_Final         .m3/m3                                  : MR effective porosity 
NMRFL_Final        .unitless                               : MR moveable fluids 
NMRT_Final         .frac                                   : MR total porosity 
NPHI               .frac                                   : Borehole size corrected compensated neutron porosity 
PE                 .b/e                                    : Photo electric cross-section 
RD                 .ohm.m                                  : Deep resistivity 
RHOB               .g/cm3                                  : Formation bulk density 
RS                 .ohm.m                                  : Shallow resistivity 
TVDSS              .M                                      :  
~Ascii
# ...
5259.857   8.500      66.893     0.003      0.183      0.002      1.694      0.005      0.023      0.001      0.001      0.194      0.002      31.610     31.740     8.718      -0.006     0.067      0.572      3.722      149.543    0.134      0.117      0.142      0.178      3.305      2.176      2.418      2.872      5235.527  
5260.010   8.500      66.823     0.003      0.198      0.003      1.590      0.007      0.019      0.001      0.001      0.183      0.002      32.968     33.103     8.719      -0.003     0.059      0.531      3.824      232.819    0.129      0.119      0.142      0.184      3.361      2.326      2.450      3.113      5235.680  
5260.162   8.500      65.752     0.002      0.207      0.003      1.546      0.007      0.016      0.001      0.001      0.172      0.003      34.371     34.512     8.719      -0.002     0.058      0.496      3.860      254.767    0.131      0.122      0.144      0.191      3.525      2.399      2.472      3.253      5235.832  
5260.315   8.500      64.352     0.002      0.208      0.002      1.655      0.005      0.016      0.001      0.001      0.160      0.004      35.132     35.276     8.718      -0.006     0.064      0.460      3.843      242.024    0.143      0.126      0.150      0.191      3.681      2.368      2.471      3.245      5235.985  
5260.467   8.500      63.422     0.002      0.208      0.002      1.883      0.002      0.019      0.001      0.001      0.152      0.005      35.074     35.218     8.718      -0.009     0.072      0.410      3.818      165.380    0.159      0.133      0.162      0.190      3.833      2.234      2.455      3.080      5236.137  
5260.619   8.500      63.434     0.002      0.210      0.001      2.072      0.001      0.022      0.001      0.001      0.150      0.005      34.518     34.660     8.719      -0.007     0.082      0.362      3.784      424.517    0.159      0.141      0.168      0.192      4.067      2.094      2.444      2.872      5236.289  
5260.772   8.500      64.267     0.002      0.215      0.001      2.081      0.001      0.025      0.001      0.001      0.151      0.006      34.152     34.292     8.720      -0.001     0.091      0.347      3.749      479.992    0.156      0.141      0.168      0.191      4.328      2.182      2.452      2.943      5236.442  
5260.924   8.500      65.268     0.002      0.218      0.002      1.918      0.002      0.030      0.001      0.001      0.147      0.005      34.523     34.664     8.720      0.004      0.093      0.376      3.733      244.208    0.150      0.131      0.162      0.182      4.412      2.671      2.477      3.600      5236.594  
5261.077   8.500      65.628     0.002      0.218      0.002      1.765      0.003      0.034      0.001      0.001      0.142      0.004      35.137     35.282     8.719      0.001      0.090      0.448      3.725      97.044     0.139      0.116      0.150      0.169      4.277      3.331      2.497      4.601      5236.746  
5261.229   8.500      64.906     0.003      0.215      0.002      1.777      0.003      0.034      0.001      0.001      0.138      0.004      35.397     35.548     8.719      -0.005     0.088      0.540      3.726      51.014     0.125      0.102      0.139      0.156      4.088      3.714      2.506      5.272      5236.899  
5261.381   8.500      63.327     0.003      0.212      0.001      1.882      0.002      0.030      0.001      0.001      0.141      0.004      35.693     35.850     8.719      -0.010     0.086      0.598      3.753      29.633     0.122      0.096      0.136      0.142      3.910      3.734      2.511      5.377      5237.051  
5261.534   8.500      61.581     0.003      0.212      0.001      1.884      0.001      0.024      0.001      0.001      0.154      0.004      36.203     36.360     8.719      -0.011     0.087      0.624      3.784      21.294     0.117      0.090      0.128      0.125      3.718      3.747      2.519      5.384      5237.204  
5261.686   8.500      60.281     0.003      0.211      0.000      1.688      0.001      0.017      0.001      0.001      0.177      0.004      36.373     36.519     8.720      -0.008     0.095      0.646      3.795      12.223     0.106      0.080      0.114      0.109      3.506      4.299      2.535      6.096      5237.356  
5261.839   8.500      59.540     0.003      0.208      0.000      1.344      0.003      0.011      0.001      0.001      0.208      0.003      35.468     35.599     8.720      -0.004     0.107      0.665      3.815      3.566      0.096      0.065      0.104      0.100      3.255      5.888      2.553      8.427      5237.508  
5261.991   8.500      58.966     0.004      0.202      0.001      1.027      0.004      0.006      0.001      0.001      0.241      0.003      34.320     34.448     8.719      -0.003     0.114      0.675      3.857      1.138      0.092      0.051      0.095      0.101      3.046      7.863      2.561      11.641     5237.661  
5262.143   8.500      58.083     0.004      0.196      0.001      0.944      0.005      0.002      0.001      0.001      0.262      0.002      35.429     35.571     8.719      -0.004     0.113      0.741      3.969      0.535      0.085      0.043      0.086      0.105      3.028      8.936      2.563      13.632     5237.813  
5262.296   8.500      56.815     0.005      0.194      0.001      1.134      0.003      0.001      0.001      0.001      0.265      0.002      39.975     40.136     8.719      -0.003     0.088      0.960      4.313      0.238      0.076      0.035      0.077      0.102      3.141      8.953      2.568      13.873     5237.965  
5262.448   8.500      55.585     0.006      0.198      0.001      1.416      0.002      0.002      0.001      0.001      0.257      0.001      45.345     45.528     8.719      -0.003     0.054      1.212      4.721      0.070      0.066      0.025      0.068      0.099      3.121      8.516      2.572      13.246     5238.118  
5262.601   8.500      54.932     0.006      0.202      0.001      1.593      0.002      0.005      0.001      0.001      0.250      0.001      47.682     47.883     8.720      -0.003     0.037      1.315      4.884      0.017      0.055      0.017      0.061      0.102      2.985      7.858      2.570      12.169     5238.270  
5262.753   8.500      55.068     0.006      0.202      0.001      1.625      0.003      0.008      0.001      0.001      0.256      0.001      46.754     46.958     8.720      -0.004     0.032      1.325      4.881      0.008      0.054      0.013      0.059      0.105      2.995      7.359      2.564      11.282     5238.423  
5262.905   8.500      55.786     0.006      0.196      0.001      1.571      0.004      0.010      0.001      0.001      0.276      0.001      44.789     44.980     8.721      -0.003     0.030      1.311      4.787      0.019      0.066      0.016      0.070      0.104      3.123      7.504      2.558      11.433     5238.575  
5263.058   8.500      56.675     0.006      0.181      0.001      1.472      0.004      0.010      0.001      0.001      0.303      0.001      41.734     41.907     8.722      0.001      0.034      1.210      4.506      0.088      0.085      0.025      0.088      0.103      3.134      8.307      2.556      12.611     5238.727  
5263.210   8.500      57.417     0.005      0.158      0.001      1.346      0.004      0.008      0.001      0.001      0.329      0.001      36.778     36.928     8.721      0.008      0.044      1.017      4.042      0.284      0.098      0.035      0.099      0.101      3.003      9.855      2.554      14.888     5238.880  
5263.363   8.500      57.881     0.005      0.136      0.001      1.231      0.002      0.007      0.001      0.001      0.346      0.000      32.075     32.206     8.720      0.012      0.051      0.867      3.690      0.332      0.098      0.037      0.099      0.100      2.876      11.775     2.547      17.696     5239.032  
5263.515   8.500      58.017     0.004      0.128      0.001      1.168      0.001      0.006      0.001      0.001      0.346      0.000      30.494     30.619     8.719      0.013      0.051      0.807      3.615      0.354      0.088      0.038      0.093      0.101      2.840      12.997     2.543      19.328     5239.184  
