~Version
 VERS              .         2.0                           : CWLS LOG ASCII STANDARD - VERSION 2.0
 WRAP              .         NO                            : ONE LINE PER DEPTH STEP
 DLM               .         SPACE                         : DELIMITING CHARACTER(SPACE TAB OR COMMA)
~Well Information
#_______________________________________________________________________________
#
#PARAMETER_NAME    .UNIT     VALUE                         : DESCRIPTION
#_______________________________________________________________________________
STRT               .M        5060.036                      : First reference value
STOP               .M        5304.790                      : Last reference value
STEP               .M        0.152                         : Step increment
NULL               .         -9999                         : Missing value
COMP               .         PETROBRAS                     : Company
WELL               .         8-SPH-11-SPS                  : Well name
FLD                .         SAPINHOA                      : Field
LOC                .                                       : Location
PROV               .                                       : Province
SRVC               .                                       : Service Company
DATE               .         23/09/2015                    : Date
UWI                .         8-SPH-11-SPS                  : Unique Well ID
APD                .M        24                            : Elevation of Depth Reference (LMF) Above Permanent Datum
API                .                                       : API NUMBER
BHS                .         OPEN                          : Borehole Status (Open or Cased Hole)
BHT                .degF     135                           : Bottom Hole Temperature
BLI                .M        5299.5                        : Bottom Log Interval
BS                 .in       12.25                         : Bit Size
CBDR               .M        5086                          : Casing Bottom (Driller)
CBLO               .M        5084                          : Casing Bottom (Logger)
CSIZ               .in       14                            : Casing Outer Diameter
CWEI               .lbm/ft   115                           : Casing Weight
CTRY               .         BRASIL                        : Nation
DCS                .         22/09/2015                    : Date Circulation Stopped
DFD                .lb/gal   9.7                           : Drilling Fluid Density
DFT                .         Cationico Flex Drill(Base Agua): Drilling Fluid Type
DLAB               .         23/09/2015                    : Date Logging on Bottom
EDF                .M        24                            : Elevation of Drill Floor
EGL                .M        -2165                         : Elevation of Ground Level
EKB                .M        24                            : Elevation of Kelly Bushing
EPD                .M        0                             : Elevation of Permanent Datum (PDAT) above Mean Sea Level
LMF                .         MR                            : Logging Measured From (Name of Logging Elevation Reference)
LUL                .          BRMA                         : Logging Unit Location
LUN                .         OSU-PA 7032                   : Logging Unit Number
LONG               .         -43_13_56,159                 : Longitude
MCST               .degF     77.1                          : Mudcake Sample Temperature
MFST               .degF     78.3                          : Mud Filtrate Sample Temperature
MRT                .degF     135                           : Maximum Recorded Temperature
MST                .degF     77.9                          : Mud Sample Temperature
ORIGINALWELLNAME   .         P09                           : 
PDAT               .         NM                            : Permanent Datum
PRODUCER-CODE      .         440                           : 
PRODUCER-NAME      .         Schlumberger                  : 
RMB                .ohm.m    0.0430009                     : Resistivity of Mud at Bottom Hole Temperature
RMCS               .ohm.m    0.08                          : Resistivity of Mud Cake Sample
RMFS               .ohm.m    0.062                         : Resistivity of Mud Filtrate Sample
RMS                .ohm.m    0.072                         : Resistivity of Mud Sample
RUN                .         3                             : Run Number
STAT               .         SAO PAULO                     : State or Province
TCS                .h        10_30                         : Time Circulation Stopped
TDD                .M        5301                          : Total Depth (Driller)
TDL                .M        5301.5                        : Logger Total Depth
TLAB               .h        23_45                         : Time Logging on Bottom
TLI                .M        5084                          : Top Log Interval
X                  .M        677112.00000000               : 
Y                  .M        7136745.00000000              : 
~Parameter Information Block
#_______________________________________________________________________________
#
#PARAMETER_NAME    .UNIT     VALUE                         : DESCRIPTION
#_______________________________________________________________________________
SET                .         BASE                          : 
TLFamily_BS        .         Bit Size                      : 
TLFamily_DT        .         Compressional Slowness        : 
TLFamily_DWAL      .         Aluminum Weight Fraction      : 
TLFamily_DWCA      .         Calcium Weight Fraction       : 
TLFamily_DWFE      .         Iron Weight Fraction          : 
TLFamily_DWGD      .         Gadolinium Weight Fraction    : 
TLFamily_DWS       .         Sulfur Weight Fraction        : 
TLFamily_DWSI      .         Silicon Weight Fraction       : 
TLFamily_DWTI      .         Titanium Weight Fraction      : 
TLFamily_GR        .         Gamma Ray                     : 
TLFamily_GRt       .         Gamma Ray                     : 
TLFamily_HCAL      .         Caliper                       : 
TLFamily_HDRA      .         Bulk Density Correction       : 
TLFamily_HFK       .         Potassium Concentration       : 
TLFamily_HTHO      .         Thorium Concentration         : 
TLFamily_HURA      .         Uranium Concentration         : 
TLFamily_KSDR      .         NMR Permeability              : 
TLFamily_KTIM      .         NMR Permeability              : 
TLFamily_MD        .         Measured Depth                : 
TLFamily_NMRE_Final .         NMR Bound Fluid Volume Fraction: 
TLFamily_NMRFL_Final .         NMR Free Fluids               : 
TLFamily_NMRT_Final .         NMR Porosity                  : 
TLFamily_NPHI      .         Neutron Porosity              : 
TLFamily_PE        .         Photoelectric Factor          : 
TLFamily_RD        .         Resistivity - Deep            : 
TLFamily_RHOB      .         Bulk Density                  : 
TLFamily_RM        .         Resistivity - Medium          : 
TLFamily_RS        .         Resistivity - Shallow         : 
TLFamily_T2LM      .         NMR T2 Logarithmic Mean       : 
TLFamily_TVDSS     .         True Vertical Depth Sub Sea   : 
~Curve Information
#_______________________________________________________________________________
#
#LOGNAME           .UNIT     LOG_ID                        : DESCRIPTION
#_______________________________________________________________________________
DEPTH              .M                                      :  
BS                 .in                                     : Bit Size 
DT                 .us/ft                                  : Delta-T Compressional 
DWAL               .kg/kg                                  : Dry Weight Fraction Pseudo Aluminum (SpectroLith WALK2 Model) 
DWCA               .kg/kg                                  : Dry Weight Fraction Calcium (SpectroLith WALK2 Model) 
DWFE               .kg/kg                                  : Dry Weight Fraction Iron + 0.14 Aluminum (SpectroLith WALK2 Model) 
DWGD               .ppm                                    : Dry Weight Fraction Gadolinium (SpectroLith WALK2 Model) 
DWS                .kg/kg                                  : Dry Weight Fraction Sulfur (SpectroLith WALK2 Model) 
DWSI               .kg/kg                                  : Dry Weight Fraction Silicon (SpectroLith WALK2 Model) 
DWTI               .kg/kg                                  : Dry Weight Fraction Titanium (SpectroLith WALK2 Model) 
GR                 .gAPI                                   : Gamma Ray 
GRt                .gAPI                                   : HNGS Standard Gamma-Ray 
HCAL               .in                                     : HRCC Caliper Calibrated 
HDRA               .g/cm3                                  : Density Standoff Correction 
HFK                .%                                      : HNGS Formation Potassium Concentration 
HTHO               .ppm                                    : HNGS Formation Thorium Concentration 
HURA               .ppm                                    : HNGS Formation Uranium Concentration 
KSDR               .mD                                     : SDR Permeability 
KTIM               .mD                                     : Timur/Coates Permeability 
NMRE_Final         .m3/m3                                  :  
NMRFL_Final        .unitless                               :  
NMRT_Final         .frac                                   :  
NPHI               .frac                                   : Enhanced Thermal Neutron Porosity in Selected Lithology 
PE                 .b/e                                    : Standard Resolution Formation Photoelectric Factor 
RD                 .ohm.m                                  : Apparent Resistivity from Computed Focusing Mode 5 
RHOB               .g/cm3                                  : Standard Resolution Formation Density 
RM                 .ohm.m                                  : Apparent Resistivity from Computed Focusing Mode 4 
RS                 .ohm.m                                  : Apparent Resistivity from Computed Focusing Mode 3 
T2LM               .ms                                     : T2 Logarithmic Mean 
TVDSS              .M                                      :  
~Ascii
# ...
5277.206   12.250     -9999.000  0.004      0.321      0.003      0.233      0.014      0.078      0.000      42.757     36.934     12.592     0.033      0.362      2.385      3.114      0.015      0.000      0.060      0.001      0.118      0.230      4.134      4.395      2.448      4.283      4.538      4.402      5251.322  
5277.358   12.250     -9999.000  0.004      0.314      0.003      1.930      0.016      0.085      0.000      40.755     35.067     12.416     0.009      0.320      2.236      3.035      0.011      0.000      0.053      0.001      0.109      0.233      4.080      4.794      2.433      4.609      4.882      4.441      5251.474  
5277.510   12.250     -9999.000  0.003      0.300      0.003      4.570      0.014      0.104      0.000      39.878     34.779     12.470     0.001      0.313      2.195      3.030      0.011      0.001      0.051      0.004      0.102      0.248      4.074      5.035      2.443      4.824      5.103      5.007      5251.626  
5277.663   12.250     -9999.000  0.004      0.283      0.003      4.515      0.016      0.120      0.000      40.223     35.334     12.532     -0.004     0.303      2.148      3.172      0.012      0.004      0.051      0.007      0.093      0.247      4.170      5.663      2.459      5.386      5.686      6.406      5251.777  
5277.815   12.250     -9999.000  0.006      0.274      0.005      2.922      0.016      0.127      0.000      41.203     35.362     12.350     -0.000     0.272      2.043      3.316      0.015      0.008      0.054      0.010      0.082      0.208      4.383      7.796      2.488      7.303      7.703      9.141      5251.929  
5277.968   12.250     -9999.000  0.006      0.271      0.005      1.081      0.018      0.130      0.000      40.908     34.387     12.353     -0.001     0.234      1.909      3.320      0.017      0.011      0.063      0.011      0.087      0.175      4.574      7.797      2.515      7.304      7.750      8.583      5252.081  
5278.120   12.250     -9999.000  0.003      0.280      0.003      0.263      0.017      0.126      0.000      41.013     33.481     12.350     0.003      0.212      1.729      3.318      0.019      0.007      0.072      0.008      0.101      0.148      4.567      6.027      2.543      5.653      6.031      6.783      5252.233  
5278.272   12.250     -9999.000  0.001      0.289      0.001      0.107      0.012      0.122      0.000      42.076     34.562     12.370     -0.002     0.204      1.752      3.458      0.020      0.004      0.077      0.005      0.116      0.147      4.443      5.519      2.542      5.176      5.540      5.282      5252.384  
5278.425   12.250     -9999.000  0.000      0.300      0.000      0.585      0.005      0.114      0.000      42.913     37.817     12.372     -0.002     0.193      1.897      3.852      0.021      0.003      0.078      0.004      0.127      0.188      4.335      6.101      2.528      5.703      6.104      4.541      5252.536  
5278.577   12.250     -9999.000  0.000      0.306      0.000      0.741      0.002      0.110      0.000      45.256     43.396     12.375     -0.005     0.190      2.145      4.511      0.023      0.004      0.077      0.005      0.127      0.211      4.352      6.817      2.505      6.347      6.793      4.717      5252.688  
5278.730   12.250     -9999.000  0.000      0.311      0.000      0.000      0.005      0.102      0.000      50.852     51.012     12.370     -0.006     0.180      2.409      5.447      0.030      0.007      0.075      0.007      0.119      0.198      4.512      8.468      2.493      7.857      8.373      6.080      5252.840  
5278.882   12.250     -9999.000  0.000      0.315      0.000      0.000      0.009      0.094      0.000      58.120     56.631     12.366     -0.004     0.159      2.514      6.161      0.035      0.005      0.074      0.006      0.116      0.206      4.844      6.915      2.487      6.480      6.955      6.918      5252.991  
5279.034   12.250     -9999.000  0.003      0.314      0.002      0.138      0.008      0.091      0.000      64.029     64.106     12.373     -0.004     0.148      2.861      7.005      0.033      0.004      0.073      0.005      0.117      0.206      5.307      14.897     2.484      13.724     14.371     6.726      5253.143  
5279.187   12.250     -9999.000  0.006      0.309      0.004      0.837      0.006      0.092      0.000      74.130     75.163     12.375     -0.004     0.176      3.437      8.165      0.026      0.004      0.069      0.006      0.118      0.187      5.630      13.826     2.490      12.895     13.550     5.767      5253.295  
5279.339   12.250     -9999.000  0.005      0.307      0.004      2.435      0.003      0.097      0.000      87.005     88.392     12.371     -0.004     0.206      4.063      9.557      0.019      0.012      0.065      0.008      0.121      0.191      5.544      8.528      2.502      8.163      8.723      4.760      5253.447  
5279.492   12.250     -9999.000  0.002      0.312      0.002      4.020      0.003      0.097      0.000      96.209     96.595     12.371     -0.005     0.231      4.307      10.456     0.019      0.021      0.066      0.011      0.116      0.206      5.156      7.084      2.502      6.898      7.392      5.192      5253.598  
5279.644   12.250     -9999.000  0.000      0.329      0.000      3.734      0.000      0.083      0.000      90.416     92.684     12.375     -0.005     0.220      4.104      10.038     0.026      0.032      0.071      0.014      0.109      0.213      4.775      8.433      2.495      8.244      8.778      6.711      5253.750  
5279.796   12.250     -9999.000  0.000      0.347      0.000      1.867      0.000      0.062      0.000      75.416     80.205     12.365     -0.006     0.183      3.540      8.705      0.026      0.035      0.071      0.015      0.107      0.204      4.679      11.691     2.490      11.390     12.028     7.145      5253.902  
5279.949   12.250     -9999.000  0.000      0.357      0.000      0.000      0.000      0.051      0.000      67.305     73.458     12.344     -0.005     0.187      3.083      7.985      0.020      0.027      0.066      0.013      0.108      0.180      4.781      11.830     2.497      11.709     12.354     6.041      5254.054  
5280.101   12.250     -9999.000  0.000      0.353      0.000      0.000      0.000      0.055      0.000      73.919     79.426     12.340     -0.004     0.223      3.307      8.592      0.013      0.018      0.060      0.011      0.113      0.169      4.805      7.358      2.517      7.469      8.021      4.524      5254.205  
5280.254   12.250     -9999.000  0.000      0.340      0.000      0.000      0.000      0.070      0.000      89.708     92.453     12.343     -0.003     0.314      3.931      9.813      0.023      0.032      0.069      0.012      0.139      0.183      4.645      7.805      2.522      7.976      8.563      3.966      5254.357  
5280.406   12.250     -9999.000  0.001      0.327      0.000      0.000      0.000      0.085      0.001      98.191     99.067     12.367     -0.002     0.406      4.258      10.306     0.033      0.029      0.077      0.011      0.149      0.190      4.382      6.929      2.496      7.182      7.742      4.071      5254.509  
5280.558   12.250     -9999.000  0.001      0.306      0.000      0.000      0.000      0.109      0.000      93.041     91.565     12.363     0.000      0.433      4.024      9.395      0.034      0.018      0.078      0.009      0.148      0.210      4.141      4.264      2.458      4.494      4.890      4.190      5254.661  
5280.711   12.250     -9999.000  0.001      0.285      0.000      0.000      0.001      0.133      0.000      78.875     76.752     12.705     0.005      0.409      3.333      7.831      0.049      0.023      0.083      0.010      0.153      0.241      3.999      5.716      2.434      6.047      6.535      4.790      5254.812  
5280.863   12.250     -9999.000  0.000      0.267      0.000      0.897      0.001      0.156      0.000      64.282     58.394     12.729     0.023      0.317      2.455      5.995      0.210      0.141      0.106      0.019      0.182      0.226      3.889      7.904      2.464      8.353      8.948      6.954      5254.964  
