~Version
 VERS              .         2.0                           : CWLS LOG ASCII STANDARD - VERSION 2.0
 WRAP              .         NO                            : ONE LINE PER DEPTH STEP
 DLM               .         SPACE                         : DELIMITING CHARACTER(SPACE TAB OR COMMA)
~Well Information
#_______________________________________________________________________________
#
#PARAMETER_NAME    .UNIT     VALUE                         : DESCRIPTION
#_______________________________________________________________________________
STRT               .M        2228.000                      : First reference value
STOP               .M        5446.688                      : Last reference value
STEP               .M        0.152                         : Step increment
NULL               .         -9999                         : Missing value
COMP               .         Petrobras                     : Company
WELL               .         8-SPH-13-SPS                  : Well name
FLD                .         Sapinhoa                      : Field
LOC                .                                       : Location
CNTY               .                                       : County
STAT               .         SAO PAULO                     : State
CTRY               .         BRASIL                        : Country
SRVC               .                                       : Service Company
DATE               .                                       : Date
API                .         863160035500                  : API number
APD                .M        24                            : Above Permanent Datum
BHT                .degF     120                           : Bottom Hole Temperature
BLI                .M        5180.5                        : Bottom Log Interval
BS                 .in       12.25x14.75                   : Bit Size
DCS                .         07/04/2014                    : Date Ciculation Stopped
DFD                .lbm/gal  10.1                          : Drilling Fluid Density
DFT                .         BR-MUL                        : Drilling Fluid Type
DLAB               .         08/04/2014                    : Date Logger At Bottom
EDF                .M        24                            : Elevation of Derreck Floor
EGL                .M        -2119                         : Elevation of Ground Level
EKB                .M        -999.25                       : ELEVATION OF KELLY BUSHING
EPD                .M        0                             : Elevation Of Permanent Datum
GDAT               .         SIRGAS2000                    : Geodetic Datum
LMF                .         MR                            : Log Measured From
LUL                .         MCE                           : LOGGING UNIT LOCATION
LUN                .         -999.25                       : LOGGING UNIT NUMBER
LATI               .         -25_42_39.196                 : Latitude
LONG               .         -43_09_15.905                 : Longitude
MCST               .degF     -999.25                       : Mud Cake Sample Temperature
MFST               .degF     -999.25                       : Mud Filtrate Sample Temperature
MRT                .degF     120                           : Maximum Recorded Temperature
MST                .degF     -999.25                       : Mud Sample Temperature
ORIGINALWELLNAME   .         8SPH 0013  SPS                : 
PDAT               .         NM                            : Permanent Datum
PRODUCER-CODE      .         15                            : 
PRODUCER-NAME      .         INTEQ                         : 
RMB                .ohm.m    -999.25                       : RESISTIVITY OF MUD - BHT
RMCS               .ohm.m    -999.25                       : Resistivity Of Mud Cake Sample
RMFS               .ohm.m    -999.25                       : Mud Filtrate Sample Resistivity
RMS                .ohm.m    -999.25                       : Mud Sample Resistivity
RUN                .         1                             : Run
TCS                .h        15_00                         : Time Ciculation Stopped
TDD                .M        5184                          : Total Depht - Driller
TDL                .M        5184                          : Total Depht - Logger
TLAB               .h        11_00                         : Time Logger At Bottom
TLI                .M        3543                          : Top Log Interval
X                  .M        685128.30900000               : X COORDINATE N
Y                  .M        7155027.01100000              : Y COORDINATE E
~Parameter Information Block
#_______________________________________________________________________________
#
#PARAMETER_NAME    .UNIT     VALUE                         : DESCRIPTION
#_______________________________________________________________________________
SET                .         BASE                          : 
TLFamily_DT        .         Compressional Slowness        : 
TLFamily_GR        .         Gamma Ray                     : 
TLFamily_HCAL      .         Caliper                       : 
TLFamily_MD        .         Measured Depth                : 
TLFamily_NMRE_Final .         NMR Bound Fluid Volume Fraction: 
TLFamily_NMRFL_Final .         NMR Free Fluids               : 
TLFamily_NMRT_Final .         NMR Porosity                  : 
TLFamily_NPHI      .         Neutron Porosity              : 
TLFamily_RD        .         Resistivity - Deep            : 
TLFamily_RHOB      .         Bulk Density                  : 
TLFamily_RM        .         Resistivity - Medium          : 
TLFamily_RS        .         Resistivity - Shallow         : 
~Curve Information
#_______________________________________________________________________________
#
#LOGNAME           .UNIT     LOG_ID                        : DESCRIPTION
#_______________________________________________________________________________
DEPTH              .M                                      :  
DT                 .us/ft                                  : SONICO COMPRESSIONAL (COMPOSICAO DE CURVAS CABO E/OU LWD) 
GR                 .gAPI                                   : RAIOS GAMA (COMPOSICAO DE CURVAS CABO E/OU LWD) 
HCAL               .in                                     : CALIPER (COMPOSICAO DE CURVAS CABO E/OU LWD) 
NMRE_Final         .m3/m3                                  : 03/02 - MRIL (HALLIBURTON) - MRIL EFFECTIVE POROSITY 
NMRFL_Final        .unitless                               : 03/02 - MRIL (HALLIBURTON) - FREE FLUID INDEX T2 
NMRT_Final         .frac                                   : 03/02 - MRIL (HALLIBURTON) - MRIAN MRIL TOTAL POROSITY 
NPHI               .frac                                   : POROSIDADE NEUTRONICA (COMPOSICAO DE CURVAS CABO E/OU LWD) 
RD                 .ohm.m                                  : RESISTIVIDADE PROFUNDA (COMPOSICAO DE CURVAS CABO E/OU LWD) 
RHOB               .g/cm3                                  : DENSIDADE (COMPOSICAO DE CURVAS CABO E/OU LWD ) 
RM                 .ohm.m                                  : RESISTIVIDADE MEDIA (COMPOSICAO DE CURVAS CABO E/OU LWD) 
RS                 .ohm.m                                  : RESISTIVIDADE RASA (COMPOSICAO DE CURVAS CABO E/OU LWD) 
~Ascii
# ...
4552.100   67.869     5.782      14.675     -9999.000  -9999.000  -9999.000  -0.024     1312.315   2.058      1219.240   1219.240  
4552.252   67.905     5.944      14.681     -9999.000  -9999.000  -9999.000  -0.023     1293.030   2.073      1321.641   1321.641  
4552.405   67.901     6.448      14.696     -9999.000  -9999.000  -9999.000  -0.025     1306.300   2.076      1008.596   1008.596  
4552.557   67.846     5.711      14.702     -9999.000  -9999.000  -9999.000  -0.027     1337.280   2.062      1205.937   1205.937  
4552.710   67.741     5.068      14.691     -9999.000  -9999.000  -9999.000  -0.028     1400.965   2.043      1218.587   1218.587  
4552.862   67.658     5.479      14.685     -9999.000  -9999.000  -9999.000  -0.029     1436.167   2.036      1341.163   1341.163  
4553.014   67.644     5.953      14.684     -9999.000  -9999.000  -9999.000  -0.030     1468.611   2.037      1218.943   1218.943  
4553.167   67.693     6.016      14.682     -9999.000  -9999.000  -9999.000  -0.030     1532.843   2.037      1354.229   1354.229  
4553.319   67.845     5.698      14.681     -9999.000  -9999.000  -9999.000  -0.030     1579.942   2.039      1331.859   1331.859  
4553.472   68.198     5.756      14.682     -9999.000  -9999.000  -9999.000  -0.029     1629.214   2.043      1086.974   1086.974  
4553.624   68.432     5.569      14.684     -9999.000  -9999.000  -9999.000  -0.029     1630.627   2.046      1086.974   1086.974  
4553.776   68.350     4.381      14.684     -9999.000  -9999.000  -9999.000  -0.029     1605.536   2.047      1109.023   1109.023  
4553.929   68.302     4.682      14.685     -9999.000  -9999.000  -9999.000  -0.028     1592.236   2.049      1354.229   1354.229  
4554.081   68.455     5.508      14.692     -9999.000  -9999.000  -9999.000  -0.028     1593.626   2.052      1369.195   1369.195  
4554.234   68.281     5.530      14.699     -9999.000  -9999.000  -9999.000  -0.028     1602.101   2.055      1529.996   1529.996  
4554.386   67.931     5.167      14.701     -9999.000  -9999.000  -9999.000  -0.028     1603.125   2.059      1342.173   1342.173  
4554.538   67.708     4.606      14.699     -9999.000  -9999.000  -9999.000  -0.028     1590.147   2.060      1217.934   1217.934  
4554.691   67.585     4.597      14.698     -9999.000  -9999.000  -9999.000  -0.029     1556.027   2.053      1354.229   1354.229  
4554.843   67.506     4.805      14.694     -9999.000  -9999.000  -9999.000  -0.029     1525.608   2.046      1342.826   1342.826  
4554.996   67.546     4.754      14.692     -9999.000  -9999.000  -9999.000  -0.029     1470.936   2.044      1217.280   1217.280  
4555.148   67.676     4.836      14.692     -9999.000  -9999.000  -9999.000  -0.029     1417.083   2.040      1342.945   1342.945  
4555.300   67.908     5.165      14.692     -9999.000  -9999.000  -9999.000  -0.028     1320.324   2.040      1217.162   1217.162  
4555.453   68.238     5.412      14.693     -9999.000  -9999.000  -9999.000  -0.027     1267.576   2.057      1334.107   1334.107  
4555.605   68.377     6.011      14.688     -9999.000  -9999.000  -9999.000  -0.026     1249.456   2.093      1106.989   1106.989  
4555.758   68.230     5.742      14.682     -9999.000  -9999.000  -9999.000  -0.026     1267.017   2.123      1343.183   1343.183  
4555.910   68.037     5.259      14.678     -9999.000  -9999.000  -9999.000  -0.027     1299.708   2.118      1205.937   1205.937  
4556.062   67.851     5.806      14.677     -9999.000  -9999.000  -9999.000  -0.028     1306.779   2.091      1216.865   1216.865  
4556.215   67.633     5.886      14.679     -9999.000  -9999.000  -9999.000  -0.029     1301.474   2.060      1367.592   1367.592  
4556.367   67.467     4.887      14.678     -9999.000  -9999.000  -9999.000  -0.030     1284.062   2.042      1544.886   1544.886  
4556.520   67.418     4.947      14.679     -9999.000  -9999.000  -9999.000  -0.030     1294.290   2.040      1521.266   1521.266  
4556.672   67.487     5.716      14.680     -9999.000  -9999.000  -9999.000  -0.029     1370.732   2.040      1205.937   1205.937  
4556.824   67.641     5.983      14.680     -9999.000  -9999.000  -9999.000  -0.029     1457.559   2.035      1215.677   1215.677  
4556.977   67.843     5.862      14.679     -9999.000  -9999.000  -9999.000  -0.030     1592.702   2.029      1367.286   1367.286  
4557.129   68.130     5.717      14.676     -9999.000  -9999.000  -9999.000  -0.030     1656.926   2.026      1521.809   1521.809  
4557.282   68.590     5.654      14.676     -9999.000  -9999.000  -9999.000  -0.030     1675.421   2.029      1197.885   1197.885  
4557.434   68.862     5.665      14.676     -9999.000  -9999.000  -9999.000  -0.030     1609.707   2.033      1104.956   1104.956  
4557.586   68.805     4.987      14.676     -9999.000  -9999.000  -9999.000  -0.028     1449.953   2.029      1337.211   1337.211  
4557.739   68.642     4.581      14.679     -9999.000  -9999.000  -9999.000  -0.024     1333.514   2.025      1094.502   1094.502  
4557.891   68.681     5.437      14.679     -9999.000  -9999.000  -9999.000  -0.021     1220.070   2.041      1192.318   1192.318  
4558.044   68.928     5.953      14.678     -9999.000  -9999.000  -9999.000  -0.021     1179.847   2.064      1012.136   1012.136  
4558.196   69.276     5.674      14.679     -9999.000  -9999.000  -9999.000  -0.023     1187.020   2.059      1354.229   1354.229  
4558.348   69.345     5.615      14.678     -9999.000  -9999.000  -9999.000  -0.027     1227.629   2.041      1345.024   1345.024  
4558.501   69.103     5.785      14.677     -9999.000  -9999.000  -9999.000  -0.028     1320.340   2.039      1192.578   1192.578  
4558.653   69.025     5.877      14.675     -9999.000  -9999.000  -9999.000  -0.028     1383.303   2.045      989.339    989.339   
4558.806   68.883     6.065      14.673     -9999.000  -9999.000  -9999.000  -0.028     1469.155   2.046      995.282    995.282   
4558.958   68.714     6.173      14.671     -9999.000  -9999.000  -9999.000  -0.028     1517.682   2.045      1103.136   1103.136  
4559.110   68.889     5.383      14.670     -9999.000  -9999.000  -9999.000  -0.028     1572.773   2.046      1339.030   1339.030  
4559.263   69.259     5.155      14.670     -9999.000  -9999.000  -9999.000  -0.029     1589.223   2.048      1102.066   1102.066  
4559.415   69.448     5.216      14.669     -9999.000  -9999.000  -9999.000  -0.029     1596.216   2.050      1345.915   1345.915  
4559.568   69.304     4.901      14.670     -9999.000  -9999.000  -9999.000  -0.029     1591.196   2.051      1205.937   1205.937  
4559.720   68.912     4.306      14.673     -9999.000  -9999.000  -9999.000  -0.029     1577.410   2.053      1199.362   1199.362  
4559.872   68.407     4.122      14.674     -9999.000  -9999.000  -9999.000  -0.029     1539.191   2.054      1101.638   1101.638  
4560.025   68.153     4.830      14.675     -9999.000  -9999.000  -9999.000  -0.030     1511.933   2.051      1346.152   1346.152  
4560.177   68.183     5.725      14.677     -9999.000  -9999.000  -9999.000  -0.030     1500.726   2.044      1213.955   1213.955  
4560.330   68.385     5.460      14.678     -9999.000  -9999.000  -9999.000  -0.030     1528.364   2.041      1339.779   1339.779  
4560.482   68.281     5.467      14.678     -9999.000  -9999.000  -9999.000  -0.030     1591.700   2.043      1086.974   1086.974  
4560.634   68.085     6.269      14.678     -9999.000  -9999.000  -9999.000  -0.030     1634.119   2.041      1092.929   1092.929  
4560.787   68.043     6.809      14.677     -9999.000  -9999.000  -9999.000  -0.030     1669.914   2.037      1223.856   1223.856  
4560.939   68.142     6.309      14.676     -9999.000  -9999.000  -9999.000  -0.030     1676.406   2.037      1527.103   1527.103  
4561.092   68.427     5.373      14.676     -9999.000  -9999.000  -9999.000  -0.030     1656.164   2.040      1200.125   1200.125  
4561.244   68.789     5.525      14.675     -9999.000  -9999.000  -9999.000  -0.030     1618.025   2.040      1092.739   1092.739  
