~Version
 VERS              .         2.0                           : CWLS LOG ASCII STANDARD - VERSION 2.0
 WRAP              .         NO                            : ONE LINE PER DEPTH STEP
 DLM               .         SPACE                         : DELIMITING CHARACTER(SPACE TAB OR COMMA)
~Well Information
#_______________________________________________________________________________
#
#PARAMETER_NAME    .UNIT     VALUE                         : DESCRIPTION
#_______________________________________________________________________________
STRT               .M        5038.900                      : First reference value
STOP               .M        5526.275                      : Last reference value
STEP               .M        0.152                         : Step increment
NULL               .         -9999                         : Missing value
COMP               .         PETROBRAS                     : Company
WELL               .         8-SPH-23-SPS                  : Well name
FLD                .         SAPINHOA                      : Field
LOC                .                                       : Location
PROV               .                                       : Province
SRVC               .                                       : Service Company
DATE               .         2021-09-13 11_18_58           : Date
UWI                .         8-SPH-23-SPS                  : Unique Well ID
APD                .M        24.0                          : ABOVE PERMANENT DATUM
API                .         863160047300                  : API Code
BHT                .degF     160                           : BOTTOMHOLE TEMPERATURE
BLI                .M        5511.3                        : BOTTOM LOGGED INTERVAL
BS                 .in       12.25                         : BIT SIZE
CTRY               .         BRASIL                        : Nation
DCS                .         10/04/2016                    : DATE CIRCULATION STOPPED
DFD                .lb/gal   9.4                           : DRILLING FLUID DENSITY
DFT                .         OLEDRILL (BASE OLEFINA)       : DRILLING FLUID TYPE
DLAB               .         12/04/2016                    : DATE LOGGING ON BOTTOM
EDF                .M        24.0                          : ELEVATION OF DRILLING FLOOR
EGL                .M        -2146.0                       : ELEVATION OF GROUND LEVEL
EKB                .M        24.0                          : ELEVATION OF KELLY BUSHING
EPD                .M        0.0                           : ELEVATATION OF PERMANENT DATUM
GDAT               .         SIRGAS2000                    : Geodetic Datum
LMF                .         MR                            : LOG MEASURED FROM
LUL                .         MCE                           : LOGGING UNIT LOCATION
LUN                .         12247255                      : LOGGING UNIT NUMBER
LATI               .         -25_42_01.290                 : Latitude
LONG               .         -43_11_39,303                 : LONGITUDE
MCST               .degF     -999.25                       : MUDCAKE SAMPLE TEMPERATURE
MFST               .degF     -999.25                       : MUD FILTRATE SAMPLE TEMPERATURE
MRT                .degF     160.0                         : MAXIMUM RECORDED TEMPERATURE
MST                .degF     -999.25                       : MUD SAMPLE TEMPERATURE
ORIGINALWELLNAME   .         8SPH 0023  SPS                : 
PDAT               .         NM                            : PERMANENT DATUM
PRODUCER-CODE      .         280                           : 
PRODUCER-NAME      .         Halliburton                   : 
RMB                .ohm.m    -999.25                       : RESISTIVITY OF MUD - BHT
RMCS               .ohm.m    -999.25                       : RESISTIVITY OF MUDCAKE SAMPLE
RMFS               .ohm.m    -999.25                       : RESISTIVITY OF MUD FILTRATE SAMPLE
RMS                .ohm.m    -999.25                       : RESISTIVITY OF MUD SAMPLE
RUN                .         02                            : RUN NUMBER 1
STAT               .         SAO PAULO                     : STATE
TCS                .h        03_30                         : TIME CIRCULATION STOPPED
TDD                .M        5517.0                        : DRILLERS DEPTH
TDL                .M        5520.0                        : LOGGERS DEPTH
TLAB               .h        07_30                         : TIME LOGGING ON BOTTOM
TLI                .M        5070.0                        : TOP LOGGED INTERVAL
X                  .M        681190.00000000               : X UTM Coordinate
Y                  .M        7156260.00000000              : Y UTM Coordinate
~Parameter Information Block
#_______________________________________________________________________________
#
#PARAMETER_NAME    .UNIT     VALUE                         : DESCRIPTION
#_______________________________________________________________________________
SET                .         BASE                          : 
TLFamily_BS        .         Bit Size                      : 
TLFamily_DT        .         Compressional Slowness        : 
TLFamily_DWAL      .         Aluminum Weight Fraction      : 
TLFamily_DWCA      .         Calcium Weight Fraction       : 
TLFamily_DWFE      .         Iron Weight Fraction          : 
TLFamily_DWK       .         Potassium Weight Fraction     : 
TLFamily_DWMG      .         Magnesium Weight Fraction     : 
TLFamily_DWMN      .         Manganese Weight Fraction     : 
TLFamily_DWS       .         Sulfur Weight Fraction        : 
TLFamily_DWSI      .         Silicon Weight Fraction       : 
TLFamily_DWTI      .         Titanium Weight Fraction      : 
TLFamily_GR        .         Gamma Ray                     : 
TLFamily_GRt       .         Gamma Ray                     : 
TLFamily_HCAL      .         Caliper                       : 
TLFamily_HFK       .         Potassium Concentration       : 
TLFamily_HTHO      .         Thorium Concentration         : 
TLFamily_HURA      .         Uranium Concentration         : 
TLFamily_MD        .         Measured Depth                : 
TLFamily_MPERM     .         NMR Permeability              : 
TLFamily_NMRE_Final .         NMR Bound Fluid Volume Fraction: 
TLFamily_NMRFL_Final .         NMR Free Fluids               : 
TLFamily_NMRT_Final .         NMR Porosity                  : 
TLFamily_NPHI      .         Neutron Porosity              : 
TLFamily_PE        .         Photoelectric Factor          : 
TLFamily_RD        .         Resistivity - Deep            : 
TLFamily_RHOB      .         Bulk Density                  : 
TLFamily_RM        .         Resistivity - Medium          : 
TLFamily_RS        .         Resistivity - Shallow         : 
TLFamily_T2LM      .         NMR T2 Logarithmic Mean       : 
TLFamily_TVDSS     .         True Vertical Depth Sub Sea   : 
~Curve Information
#_______________________________________________________________________________
#
#LOGNAME           .UNIT     LOG_ID                        : DESCRIPTION
#_______________________________________________________________________________
DEPTH              .M                                      :  
BS                 .in                                     : BS/Bit Size 
DT                 .us/ft                                  : DTC/MonoDeltaT 
DWAL               .kg/kg                                  : DAL/DryrockAlWF 
DWCA               .kg/kg                                  : DCA/DryrockCaWF 
DWFE               .kg/kg                                  : DFE/DryrockFeWF 
DWK                .kg/kg                                  : DK/DryrockKWF 
DWMG               .kg/kg                                  : DMG/DryrockMgWF 
DWMN               .kg/kg                                  : DMN/DryrockMnWF 
DWS                .kg/kg                                  : DSUL/DryrockSuWF 
DWSI               .kg/kg                                  : DSI/DryrockSiWF 
DWTI               .kg/kg                                  : DTI/DryrockTiWF 
GR                 .gAPI                                   : GR/Gamma API 
GRt                .gAPI                                   : GKUT/GammaKUT 
HCAL               .in                                     : CALI/Caliper 
HFK                .%                                      : POTA/Potassium 
HTHO               .ppm                                    : THOR/Thorium 
HURA               .ppm                                    : URAN/Uranium 
MPERM              .mD                                     : MPERMT2/MrilT2KCoat 
NMRE_Final         .m3/m3                                  : MPHIT2/TA-grp T2 Effective Por 
NMRFL_Final        .unitless                               : MFFIT2/TA-grp T2 FreeFluid Ind 
NMRT_Final         .frac                                   : MSIGT2/TA-grp T2 Total Por. 
NPHI               .frac                                   : POROSIDADE NEUTRONICA (COMPOSICAO DE CURVAS CABO E/OU LWD) 
PE                 .b/e                                    : Density PE Filtered 
RD                 .ohm.m                                  : RT90/90in Resistivity 2ft Res 
RHOB               .g/cm3                                  : DENSIDADE (COMPOSICAO DE CURVAS CABO E/OU LWD ) 
RM                 .ohm.m                                  : RT30/30in Resistivity 2ft Res 
RS                 .ohm.m                                  : RT10/10in Resistivity 2ft Res 
T2LM               .ms                                     : T2LM/T2 Log Mean 
TVDSS              .M                                      :  
~Ascii
# ...
5077.000   12.250     66.571     0.058      0.047      0.342      0.072      0.029      0.000      0.009      0.021      0.001      9.627      12.450     -9999.000  0.322      0.643      0.595      -9999.000  -9999.000  -9999.000  -9999.000  -9999.000  -9999.000  186.941    -9999.000  292.113    599.922    -9999.000  5018.612  
5077.152   12.250     66.674     0.063      0.051      0.336      0.078      0.031      0.000      0.004      0.011      0.002      9.884      13.189     -9999.000  0.313      0.519      0.737      -9999.000  -9999.000  -9999.000  -9999.000  -9999.000  -9999.000  186.637    -9999.000  291.687    599.631    -9999.000  5018.764  
5077.305   12.250     66.772     0.060      0.052      0.339      0.075      0.032      0.000      0.006      0.009      0.003      9.258      13.415     -9999.000  0.294      0.545      0.785      -9999.000  -9999.000  -9999.000  -9999.000  -9999.000  -9999.000  186.500    -9999.000  291.462    599.458    -9999.000  5018.916  
5077.457   12.250     66.864     0.058      0.048      0.342      0.072      0.029      0.000      0.005      0.021      0.002      8.509      13.176     -9999.000  0.254      0.566      0.821      -9999.000  -9999.000  -9999.000  -9999.000  -9999.000  -9999.000  186.416    -9999.000  291.233    599.247    -9999.000  5019.069  
5077.609   12.250     66.958     0.060      0.046      0.339      0.075      0.028      0.000      0.003      0.023      0.002      8.600      12.797     -9999.000  0.237      0.579      0.804      -9999.000  -9999.000  -9999.000  -9999.000  -9999.000  -9999.000  186.450    -9999.000  291.177    599.165    -9999.000  5019.221  
5077.762   12.250     66.971     0.066      0.048      0.332      0.077      0.029      0.000      0.000      0.018      0.003      8.810      12.354     -9999.000  0.230      0.585      0.764      -9999.000  -9999.000  -9999.000  -9999.000  -9999.000  -9999.000  186.614    -9999.000  291.218    599.134    -9999.000  5019.374  
5077.914   12.250     66.810     0.068      0.049      0.331      0.075      0.030      0.000      0.000      0.015      0.003      9.470      12.035     -9999.000  0.221      0.548      0.756      -9999.000  -9999.000  -9999.000  -9999.000  -9999.000  -9999.000  186.815    -9999.000  291.317    599.156    -9999.000  5019.526  
5078.067   12.250     66.676     0.064      0.045      0.335      0.070      0.027      0.000      0.000      0.028      0.004      10.974     11.774     -9999.000  0.221      0.507      0.744      -9999.000  -9999.000  -9999.000  -9999.000  -9999.000  -9999.000  187.077    -9999.000  291.469    599.234    -9999.000  5019.678  
5078.219   12.250     66.597     0.057      0.040      0.342      0.070      0.024      0.000      0.000      0.039      0.004      11.618     11.618     -9999.000  0.210      0.504      0.746      -9999.000  -9999.000  -9999.000  -9999.000  -9999.000  -9999.000  187.269    -9999.000  291.572    599.301    -9999.000  5019.831  
5078.371   12.250     66.520     0.056      0.035      0.343      0.070      0.020      0.000      0.000      0.051      0.005      10.377     11.509     -9999.000  0.187      0.476      0.784      -9999.000  -9999.000  -9999.000  -9999.000  -9999.000  -9999.000  187.382    -9999.000  291.573    599.327    -9999.000  5019.983  
5078.524   12.250     66.492     0.058      0.031      0.341      0.072      0.017      0.000      0.000      0.059      0.006      9.366      11.516     -9999.000  0.174      0.442      0.819      -9999.000  -9999.000  -9999.000  -9999.000  -9999.000  -9999.000  187.373    -9999.000  291.464    599.284    -9999.000  5020.136  
5078.676   12.250     66.433     0.061      0.030      0.338      0.076      0.012      0.000      0.000      0.066      0.006      9.353      11.706     -9999.000  0.177      0.441      0.836      -9999.000  -9999.000  -9999.000  -9999.000  -9999.000  -9999.000  187.165    -9999.000  291.104    599.080    -9999.000  5020.288  
5078.829   12.250     66.425     0.064      0.034      0.333      0.080      0.011      0.000      0.000      0.063      0.006      9.266      11.945     -9999.000  0.187      0.460      0.839      -9999.000  -9999.000  -9999.000  -9999.000  -9999.000  -9999.000  186.897    -9999.000  290.695    598.824    -9999.000  5020.440  
5078.981   12.250     66.516     0.068      0.039      0.328      0.084      0.009      0.000      0.000      0.058      0.005      9.206      12.351     -9999.000  0.196      0.490      0.857      -9999.000  -9999.000  -9999.000  -9999.000  -9999.000  -9999.000  186.583    -9999.000  290.238    598.518    -9999.000  5020.593  
5079.133   12.250     66.585     0.071      0.042      0.325      0.089      0.009      0.000      0.000      0.053      0.005      9.824      13.115     -9999.000  0.199      0.532      0.921      -9999.000  -9999.000  -9999.000  -9999.000  -9999.000  -9999.000  185.952    -9999.000  289.326    597.867    -9999.000  5020.745  
5079.286   12.250     66.669     0.071      0.040      0.326      0.089      0.011      0.000      0.000      0.051      0.004      10.066     13.696     -9999.000  0.184      0.505      1.022      -9999.000  -9999.000  -9999.000  -9999.000  -9999.000  -9999.000  185.532    -9999.000  288.716    597.412    -9999.000  5020.898  
5079.438   12.250     66.785     0.066      0.042      0.332      0.083      0.020      0.000      0.000      0.039      0.002      9.358      14.814     -9999.000  0.133      0.326      1.300      -9999.000  -9999.000  -9999.000  -9999.000  -9999.000  -9999.000  184.814    -9999.000  287.657    596.597    -9999.000  5021.050  
5079.591   12.250     66.835     0.064      0.043      0.335      0.080      0.022      0.000      0.000      0.037      0.001      9.043      15.507     -9999.000  0.117      0.259      1.430      -9999.000  -9999.000  -9999.000  -9999.000  -9999.000  -9999.000  184.385    -9999.000  287.015    596.093    -9999.000  5021.202  
5079.743   12.250     66.791     0.065      0.038      0.334      0.080      0.020      0.000      0.000      0.045      0.002      10.323     17.089     -9999.000  0.096      0.422      1.582      -9999.000  -9999.000  -9999.000  -9999.000  -9999.000  -9999.000  183.707    -9999.000  285.981    595.273    -9999.000  5021.355  
5079.895   12.250     66.777     0.065      0.038      0.334      0.081      0.015      0.000      0.000      0.052      0.002      11.694     18.097     -9999.000  0.108      0.689      1.576      -9999.000  -9999.000  -9999.000  -9999.000  -9999.000  -9999.000  183.323    -9999.000  285.386    594.797    -9999.000  5021.507  
5080.048   12.250     66.713     0.062      0.042      0.337      0.077      0.012      0.000      0.000      0.055      0.002      15.120     19.362     -9999.000  0.163      1.359      1.377      -9999.000  -9999.000  -9999.000  -9999.000  -9999.000  -9999.000  182.737    -9999.000  284.464    594.063    -9999.000  5021.660  
5080.200   12.250     66.632     0.061      0.039      0.338      0.076      0.013      0.000      0.000      0.058      0.002      17.684     19.710     -9999.000  0.182      1.647      1.278      -9999.000  -9999.000  -9999.000  -9999.000  -9999.000  -9999.000  182.412    -9999.000  283.946    593.654    -9999.000  5021.812  
5080.353   12.250     66.576     0.062      0.032      0.337      0.077      0.019      0.000      0.000      0.054      0.002      18.829     18.762     -9999.000  0.205      1.836      1.065      -9999.000  -9999.000  -9999.000  -9999.000  -9999.000  -9999.000  181.925    -9999.000  283.164    593.042    -9999.000  5021.964  
5080.505   12.250     66.532     0.063      0.035      0.336      0.078      0.021      0.000      0.000      0.047      0.003      16.206     17.569     -9999.000  0.204      1.770      0.958      -9999.000  -9999.000  -9999.000  -9999.000  -9999.000  -9999.000  181.654    -9999.000  282.727    592.702    -9999.000  5022.117  
5080.657   12.250     66.570     0.061      0.042      0.338      0.076      0.026      0.000      0.001      0.031      0.004      12.167     15.594     -9999.000  0.164      1.501      0.905      -9999.000  -9999.000  -9999.000  -9999.000  -9999.000  -9999.000  181.306    -9999.000  282.169    592.270    -9999.000  5022.269  
