~Version
 VERS              .         2.0                           : CWLS LOG ASCII STANDARD - VERSION 2.0
 WRAP              .         NO                            : ONE LINE PER DEPTH STEP
 DLM               .         SPACE                         : DELIMITING CHARACTER(SPACE TAB OR COMMA)
~Well Information
#_______________________________________________________________________________
#
#PARAMETER_NAME    .UNIT     VALUE                         : DESCRIPTION
#_______________________________________________________________________________
STRT               .M        5027.447                      : First reference value
STOP               .M        5499.430                      : Last reference value
STEP               .M        0.152                         : Step increment
NULL               .         -9999                         : Missing value
COMP               .         PETROBRAS                     : Company
WELL               .         8-SPH-10-SPS                  : Well name
FLD                .         SAPINHOA                      : Field
LOC                .                                       : Location
PROV               .                                       : Province
SRVC               .                                       : Service Company
DATE               .         2021-09-13 11_18_58           : Date
UWI                .         8-SPH-10-SPS                  : Unique Well ID
APD                .M        24                            : Above Permanent Datum
API                .                                       : API NUMBER
BHT                .degF     153                           : Bottom Hole Temperature
BLI                .M        5494.8                        : Bottom Log Interval
BS                 .in       8.5                           : Bit Size
CTRY               .         BRASIL                        : Nation
DCS                .         15/06/2015                    : Date Ciculation Stopped
DFD                .lb/gal   9.7                           : Drilling Fluid Density
DFT                .         CATIONICO FLEX DRILL (BASE AGUA): Drilling Fluid Type
DLAB               .         18/06/2015                    : Date Logger At Bottom
EDF                .M        24                            : Elevation of Derreck Floor
EGL                .M        -2125                         : Elevation of Ground Level
EKB                .M        -999.25                       : Elevation of Kelly Bushing
EPD                .M        0                             : Elevation Of Permanent Datum
LMF                .         MR                            : Log Measured From
LONG               .         -43_10_14,760                 : Longitude
MCST               .degF     67                            : Mud Cake Sample Temperature
MFST               .degF     67                            : Mud Filtrate Sample Temperature
MRT                .degF     153                           : Maximum Recorded Temperature
MST                .degF     67                            : Mud Sample Temperature
ORIGINALWELLNAME   .         P08                           : 
PDAT               .         NM                            : Permanent Datum
PRODUCER-CODE      .         150                           : 
PRODUCER-NAME      .         ATLAS                         : 
RMB                .ohm.m    -999.25                       : Resistivity Of Mud - BHT
RMCS               .ohm.m    0.078                         : Resistivity Of Mud Cake Sample
RMFS               .ohm.m    0.064                         : Mud Filtrate Sample Resistivity
RMS                .ohm.m    0.071                         : Mud Sample Resistivity
RUN                .         3                             : Run Number
STAT               .         SAO PAULO                     : State
TCS                .h        22_00                         : Time Ciculation Stopped
TDD                .M        5496                          : Total Depht - Driller
TDL                .M        5495.5                        : Total Depht - Logger
TLAB               .h        10_45                         : Time Logger At Bottom
TLI                .M        5114                          : Top Log Interval
X                  .M        683623.00000000               : 
Y                  .M        7161727.00000000              : 
~Parameter Information Block
#_______________________________________________________________________________
#
#PARAMETER_NAME    .UNIT     VALUE                         : DESCRIPTION
#_______________________________________________________________________________
SET                .         BASE                          : 
TLFamily_BS        .         Bit Size                      : 
TLFamily_DT        .         Compressional Slowness        : 
TLFamily_DWAL      .         Aluminum Weight Fraction      : 
TLFamily_DWCA      .         Calcium Weight Fraction       : 
TLFamily_DWFE      .         Iron Weight Fraction          : 
TLFamily_DWGD      .         Gadolinium Weight Fraction    : 
TLFamily_DWK       .         Potassium Weight Fraction     : 
TLFamily_DWMG      .         Magnesium Weight Fraction     : 
TLFamily_DWMN      .         Manganese Weight Fraction     : 
TLFamily_DWS       .         Sulfur Weight Fraction        : 
TLFamily_DWSI      .         Silicon Weight Fraction       : 
TLFamily_DWTI      .         Titanium Weight Fraction      : 
TLFamily_GR        .         Gamma Ray                     : 
TLFamily_GRt       .         Gamma Ray                     : 
TLFamily_HCAL      .         Caliper                       : 
TLFamily_HDRA      .         Bulk Density Correction       : 
TLFamily_HFK       .         Potassium Concentration       : 
TLFamily_HTHO      .         Thorium Concentration         : 
TLFamily_HURA      .         Uranium Concentration         : 
TLFamily_MD        .         Measured Depth                : 
TLFamily_MPERM     .         NMR Permeability              : 
TLFamily_NMRE_Final .         NMR Bound Fluid Volume Fraction: 
TLFamily_NMRFL_Final .         NMR Free Fluids               : 
TLFamily_NMRT_Final .         NMR Porosity                  : 
TLFamily_NPHI      .         Neutron Porosity              : 
TLFamily_PE        .         Photoelectric Factor          : 
TLFamily_RD        .         Resistivity - Deep            : 
TLFamily_RHOB      .         Bulk Density                  : 
TLFamily_RS        .         Resistivity - Shallow         : 
TLFamily_TVDSS     .         True Vertical Depth Sub Sea   : 
~Curve Information
#_______________________________________________________________________________
#
#LOGNAME           .UNIT     LOG_ID                        : DESCRIPTION
#_______________________________________________________________________________
DEPTH              .M                                      :  
BS                 .in                                     : Bit size 
DT                 .us/ft                                  : Slowness over 24-inch interval 
DWAL               .kg/kg                                  : Weight fraction of aluminum derived from thorium in dry rock 
DWCA               .kg/kg                                  : Weight fraction of calcium in dry rock 
DWFE               .kg/kg                                  : Weight fraction of iron in dry rock 
DWGD               .ppm                                    : Weight fraction of gadolinium in dry rock 
DWK                .kg/kg                                  : Weight fraction of potassium in dry rock 
DWMG               .kg/kg                                  : Weight fraction of magnesium in dry rock 
DWMN               .kg/kg                                  : Weight fraction of manganese in dry rock 
DWS                .kg/kg                                  : Weight fraction of sulfur in dry rock 
DWSI               .kg/kg                                  : Weight fraction of silicon in dry rock 
DWTI               .kg/kg                                  : Weight fraction of titanium in dry rock 
GR                 .gAPI                                   : Gamma ray 
GRt                .gAPI                                   : Gamma ray from 1329 spectrum 
HCAL               .in                                     : Caliper 
HDRA               .g/cm3                                  : Density correction 
HFK                .%                                      : Potassium content 
HTHO               .ppm                                    : Thorium concentration 
HURA               .ppm                                    : Uranium content 
MPERM              .mD                                     : MR permeability 
NMRE_Final         .m3/m3                                  : MR effective porosity 
NMRFL_Final        .unitless                               : MR moveable fluids 
NMRT_Final         .frac                                   : MR total porosity 
NPHI               .frac                                   : Borehole size corrected compensated neutron porosity 
PE                 .b/e                                    : Photo electric cross-section 
RD                 .ohm.m                                  : Deep resistivity 
RHOB               .g/cm3                                  : Formation bulk density 
RS                 .ohm.m                                  : Shallow resistivity 
TVDSS              .M                                      :  
~Ascii
# ...
5286.527   8.500      75.484     0.002      0.120      0.004      2.023      0.005      0.034      0.001      0.001      0.222      0.002      23.234     23.329     8.871      -0.009     0.066      0.323      2.557      23.939     0.142      0.100      0.152      0.205      2.804      10.750     2.460      15.433     5262.193  
5286.680   8.500      75.422     0.002      0.122      0.004      1.802      0.007      0.037      0.001      0.001      0.214      0.002      23.613     23.710     8.867      -0.004     0.056      0.319      2.681      19.290     0.156      0.100      0.166      0.203      2.702      9.171      2.492      12.977     5262.346  
5286.832   8.500      75.587     0.002      0.121      0.004      1.655      0.007      0.042      0.001      0.001      0.210      0.002      24.022     24.120     8.864      -0.001     0.046      0.306      2.786      17.798     0.174      0.101      0.184      0.186      2.549      7.963      2.503      11.153     5262.498  
5286.985   8.500      76.549     0.001      0.116      0.003      1.602      0.006      0.050      0.001      0.001      0.211      0.002      24.158     24.257     8.863      0.002      0.035      0.275      2.868      22.274     0.176      0.106      0.184      0.174      2.425      6.825      2.498      9.418      5262.650  
5287.137   8.500      77.802     0.001      0.110      0.002      1.573      0.004      0.057      0.001      0.001      0.215      0.002      23.436     23.533     8.864      0.005      0.025      0.237      2.918      31.442     0.170      0.112      0.178      0.172      2.403      5.977      2.484      8.052      5262.803  
5287.289   8.500      78.412     0.001      0.105      0.001      1.473      0.004      0.057      0.001      0.001      0.223      0.002      21.885     21.975     8.864      0.004      0.018      0.187      2.910      40.947     0.169      0.117      0.177      0.170      2.472      5.802      2.471      7.623      5262.955  
5287.442   8.500      77.996     0.001      0.102      0.001      1.301      0.006      0.050      0.001      0.001      0.235      0.002      20.172     20.256     8.864      -0.002     0.016      0.134      2.814      40.380     0.165      0.116      0.175      0.164      2.660      6.708      2.464      8.733      5263.108  
5287.594   8.500      77.108     0.001      0.099      0.001      1.185      0.007      0.041      0.001      0.001      0.251      0.002      18.570     18.648     8.864      -0.010     0.018      0.101      2.639      30.096     0.153      0.107      0.161      0.163      3.099      8.643      2.461      11.326     5263.260  
5287.747   8.500      76.638     0.001      0.091      0.001      1.227      0.007      0.033      0.001      0.001      0.269      0.002      17.183     17.255     8.863      -0.019     0.023      0.094      2.427      24.876     0.144      0.102      0.152      0.168      3.727      10.755     2.459      14.209     5263.412  
5287.899   8.500      76.847     0.001      0.084      0.001      1.328      0.006      0.025      0.001      0.001      0.283      0.003      16.303     16.372     8.862      -0.023     0.028      0.100      2.226      31.784     0.139      0.104      0.149      0.172      3.839      11.897     2.461      15.737     5263.565  
5288.051   8.500      77.077     0.001      0.082      0.001      1.288      0.006      0.019      0.001      0.001      0.291      0.003      15.671     15.741     8.863      -0.019     0.031      0.114      2.038      39.847     0.136      0.105      0.147      0.167      3.151      11.826     2.461      15.436     5263.717  
5288.204   8.500      76.415     0.001      0.085      0.001      1.050      0.007      0.016      0.001      0.001      0.294      0.002      14.748     14.813     8.864      -0.008     0.035      0.134      1.849      33.008     0.133      0.102      0.145      0.151      2.492      11.388     2.450      14.422     5263.869  
5288.356   8.500      74.739     0.001      0.087      0.001      0.759      0.010      0.019      0.001      0.001      0.295      0.001      13.772     13.830     8.865      0.010      0.039      0.165      1.672      18.477     0.134      0.094      0.147      0.137      2.241      11.319     2.433      13.869     5264.022  
5288.509   8.500      73.213     0.001      0.085      0.001      0.615      0.010      0.026      0.001      0.001      0.296      0.001      13.313     13.368     8.866      0.030      0.043      0.199      1.532      13.833     0.132      0.090      0.149      0.134      2.189      11.563     2.427      13.922     5264.174  
5288.661   8.500      73.465     0.001      0.082      0.001      0.719      0.007      0.032      0.001      0.001      0.300      0.000      13.146     13.200     8.865      0.045      0.047      0.222      1.433      10.387     0.127      0.085      0.146      0.134      2.148      11.781     2.452      14.135     5264.327  
5288.813   8.500      76.099     0.001      0.081      0.001      0.991      0.004      0.032      0.001      0.001      0.307      0.000      12.717     12.769     8.865      0.050      0.049      0.228      1.368      7.365      0.119      0.078      0.137      0.129      2.100      12.052     2.503      14.438     5264.479  
5288.966   8.500      80.067     0.001      0.081      0.001      1.234      0.002      0.026      0.001      0.001      0.316      0.000      12.245     12.296     8.865      0.041      0.049      0.224      1.336      5.246      0.108      0.072      0.121      0.126      2.083      12.610     2.539      15.061     5264.631  
5289.118   8.500      83.314     0.001      0.082      0.001      1.295      0.001      0.018      0.001      0.001      0.323      0.000      12.255     12.305     8.865      0.024      0.049      0.208      1.336      6.697      0.095      0.070      0.102      0.128      2.066      13.482     2.529      16.027     5264.784  
5289.271   8.500      84.097     0.001      0.082      0.001      1.159      0.001      0.012      0.001      0.001      0.326      0.000      12.667     12.720     8.865      0.016      0.045      0.175      1.364      8.351      0.087      0.069      0.092      0.126      2.028      14.774     2.507      17.437     5264.936  
5289.423   8.500      81.975     0.001      0.081      0.002      0.943      0.001      0.008      0.001      0.001      0.327      0.000      13.067     13.123     8.865      0.023      0.040      0.141      1.403      6.899      0.082      0.065      0.089      0.118      2.018      16.591     2.515      19.551     5265.088  
5289.575   8.500      77.763     0.001      0.078      0.003      0.829      0.001      0.005      0.001      0.001      0.328      0.001      13.137     13.192     8.866      0.029      0.037      0.126      1.435      5.363      0.076      0.061      0.089      0.106      2.057      18.070     2.551      21.523     5265.241  
5289.728   8.500      72.813     0.001      0.073      0.004      0.910      0.001      0.004      0.001      0.001      0.330      0.001      12.927     12.979     8.865      0.019      0.037      0.123      1.464      20.101     0.070      0.064      0.082      0.093      2.107      17.584     2.581      21.242     5265.393  
5289.880   8.500      68.282     0.001      0.067      0.004      1.122      0.001      0.004      0.001      0.001      0.331      0.002      12.759     12.809     8.865      -0.009     0.039      0.120      1.508      25.669     0.073      0.069      0.082      0.086      2.193      15.001     2.573      18.229     5265.546  
5290.033   8.500      64.831     0.001      0.062      0.005      1.338      0.002      0.004      0.001      0.001      0.328      0.003      13.089     13.140     8.865      -0.036     0.045      0.118      1.571      10.636     0.085      0.069      0.092      0.090      2.417      12.450     2.538      15.064     5265.698  
5290.185   8.500      62.847     0.001      0.060      0.004      1.479      0.003      0.004      0.001      0.001      0.325      0.003      14.103     14.155     8.865      -0.050     0.060      0.117      1.664      5.748      0.097      0.070      0.106      0.108      2.752      11.802     2.507      14.260     5265.850  
