~Version
 VERS              .         2.0                           : CWLS LOG ASCII STANDARD - VERSION 2.0
 WRAP              .         NO                            : ONE LINE PER DEPTH STEP
 DLM               .         SPACE                         : DELIMITING CHARACTER(SPACE TAB OR COMMA)
~Well Information
#_______________________________________________________________________________
#
#PARAMETER_NAME    .UNIT     VALUE                         : DESCRIPTION
#_______________________________________________________________________________
STRT               .M        5060.036                      : First reference value
STOP               .M        5304.790                      : Last reference value
STEP               .M        0.152                         : Step increment
NULL               .         -9999                         : Missing value
COMP               .         PETROBRAS                     : Company
WELL               .         8-SPH-11-SPS                  : Well name
FLD                .         SAPINHOA                      : Field
LOC                .                                       : Location
PROV               .                                       : Province
SRVC               .                                       : Service Company
DATE               .         23/09/2015                    : Date
UWI                .         8-SPH-11-SPS                  : Unique Well ID
APD                .M        24                            : Elevation of Depth Reference (LMF) Above Permanent Datum
API                .                                       : API NUMBER
BHS                .         OPEN                          : Borehole Status (Open or Cased Hole)
BHT                .degF     135                           : Bottom Hole Temperature
BLI                .M        5299.5                        : Bottom Log Interval
BS                 .in       12.25                         : Bit Size
CBDR               .M        5086                          : Casing Bottom (Driller)
CBLO               .M        5084                          : Casing Bottom (Logger)
CSIZ               .in       14                            : Casing Outer Diameter
CWEI               .lbm/ft   115                           : Casing Weight
CTRY               .         BRASIL                        : Nation
DCS                .         22/09/2015                    : Date Circulation Stopped
DFD                .lb/gal   9.7                           : Drilling Fluid Density
DFT                .         Cationico Flex Drill(Base Agua): Drilling Fluid Type
DLAB               .         23/09/2015                    : Date Logging on Bottom
EDF                .M        24                            : Elevation of Drill Floor
EGL                .M        -2165                         : Elevation of Ground Level
EKB                .M        24                            : Elevation of Kelly Bushing
EPD                .M        0                             : Elevation of Permanent Datum (PDAT) above Mean Sea Level
LMF                .         MR                            : Logging Measured From (Name of Logging Elevation Reference)
LUL                .          BRMA                         : Logging Unit Location
LUN                .         OSU-PA 7032                   : Logging Unit Number
LONG               .         -43_13_56,159                 : Longitude
MCST               .degF     77.1                          : Mudcake Sample Temperature
MFST               .degF     78.3                          : Mud Filtrate Sample Temperature
MRT                .degF     135                           : Maximum Recorded Temperature
MST                .degF     77.9                          : Mud Sample Temperature
ORIGINALWELLNAME   .         P09                           : 
PDAT               .         NM                            : Permanent Datum
PRODUCER-CODE      .         440                           : 
PRODUCER-NAME      .         Schlumberger                  : 
RMB                .ohm.m    0.0430009                     : Resistivity of Mud at Bottom Hole Temperature
RMCS               .ohm.m    0.08                          : Resistivity of Mud Cake Sample
RMFS               .ohm.m    0.062                         : Resistivity of Mud Filtrate Sample
RMS                .ohm.m    0.072                         : Resistivity of Mud Sample
RUN                .         3                             : Run Number
STAT               .         SAO PAULO                     : State or Province
TCS                .h        10_30                         : Time Circulation Stopped
TDD                .M        5301                          : Total Depth (Driller)
TDL                .M        5301.5                        : Logger Total Depth
TLAB               .h        23_45                         : Time Logging on Bottom
TLI                .M        5084                          : Top Log Interval
X                  .M        677112.00000000               : 
Y                  .M        7136745.00000000              : 
~Parameter Information Block
#_______________________________________________________________________________
#
#PARAMETER_NAME    .UNIT     VALUE                         : DESCRIPTION
#_______________________________________________________________________________
SET                .         BASE                          : 
TLFamily_BS        .         Bit Size                      : 
TLFamily_DT        .         Compressional Slowness        : 
TLFamily_DWAL      .         Aluminum Weight Fraction      : 
TLFamily_DWCA      .         Calcium Weight Fraction       : 
TLFamily_DWFE      .         Iron Weight Fraction          : 
TLFamily_DWGD      .         Gadolinium Weight Fraction    : 
TLFamily_DWS       .         Sulfur Weight Fraction        : 
TLFamily_DWSI      .         Silicon Weight Fraction       : 
TLFamily_DWTI      .         Titanium Weight Fraction      : 
TLFamily_GR        .         Gamma Ray                     : 
TLFamily_GRt       .         Gamma Ray                     : 
TLFamily_HCAL      .         Caliper                       : 
TLFamily_HDRA      .         Bulk Density Correction       : 
TLFamily_HFK       .         Potassium Concentration       : 
TLFamily_HTHO      .         Thorium Concentration         : 
TLFamily_HURA      .         Uranium Concentration         : 
TLFamily_KSDR      .         NMR Permeability              : 
TLFamily_KTIM      .         NMR Permeability              : 
TLFamily_MD        .         Measured Depth                : 
TLFamily_NMRE_Final .         NMR Bound Fluid Volume Fraction: 
TLFamily_NMRFL_Final .         NMR Free Fluids               : 
TLFamily_NMRT_Final .         NMR Porosity                  : 
TLFamily_NPHI      .         Neutron Porosity              : 
TLFamily_PE        .         Photoelectric Factor          : 
TLFamily_RD        .         Resistivity - Deep            : 
TLFamily_RHOB      .         Bulk Density                  : 
TLFamily_RM        .         Resistivity - Medium          : 
TLFamily_RS        .         Resistivity - Shallow         : 
TLFamily_T2LM      .         NMR T2 Logarithmic Mean       : 
TLFamily_TVDSS     .         True Vertical Depth Sub Sea   : 
~Curve Information
#_______________________________________________________________________________
#
#LOGNAME           .UNIT     LOG_ID                        : DESCRIPTION
#_______________________________________________________________________________
DEPTH              .M                                      :  
BS                 .in                                     : Bit Size 
DT                 .us/ft                                  : Delta-T Compressional 
DWAL               .kg/kg                                  : Dry Weight Fraction Pseudo Aluminum (SpectroLith WALK2 Model) 
DWCA               .kg/kg                                  : Dry Weight Fraction Calcium (SpectroLith WALK2 Model) 
DWFE               .kg/kg                                  : Dry Weight Fraction Iron + 0.14 Aluminum (SpectroLith WALK2 Model) 
DWGD               .ppm                                    : Dry Weight Fraction Gadolinium (SpectroLith WALK2 Model) 
DWS                .kg/kg                                  : Dry Weight Fraction Sulfur (SpectroLith WALK2 Model) 
DWSI               .kg/kg                                  : Dry Weight Fraction Silicon (SpectroLith WALK2 Model) 
DWTI               .kg/kg                                  : Dry Weight Fraction Titanium (SpectroLith WALK2 Model) 
GR                 .gAPI                                   : Gamma Ray 
GRt                .gAPI                                   : HNGS Standard Gamma-Ray 
HCAL               .in                                     : HRCC Caliper Calibrated 
HDRA               .g/cm3                                  : Density Standoff Correction 
HFK                .%                                      : HNGS Formation Potassium Concentration 
HTHO               .ppm                                    : HNGS Formation Thorium Concentration 
HURA               .ppm                                    : HNGS Formation Uranium Concentration 
KSDR               .mD                                     : SDR Permeability 
KTIM               .mD                                     : Timur/Coates Permeability 
NMRE_Final         .m3/m3                                  :  
NMRFL_Final        .unitless                               :  
NMRT_Final         .frac                                   :  
NPHI               .frac                                   : Enhanced Thermal Neutron Porosity in Selected Lithology 
PE                 .b/e                                    : Standard Resolution Formation Photoelectric Factor 
RD                 .ohm.m                                  : Apparent Resistivity from Computed Focusing Mode 5 
RHOB               .g/cm3                                  : Standard Resolution Formation Density 
RM                 .ohm.m                                  : Apparent Resistivity from Computed Focusing Mode 4 
RS                 .ohm.m                                  : Apparent Resistivity from Computed Focusing Mode 3 
T2LM               .ms                                     : T2 Logarithmic Mean 
TVDSS              .M                                      :  
~Ascii
# ...
5079.086   17.500     53.666     -9999.000  -9999.000  -9999.000  -9999.000  -9999.000  -9999.000  -9999.000  -9999.000  -9999.000  -9999.000  -9999.000  -9999.000  -9999.000  -9999.000  -9999.000  -9999.000  -9999.000  -9999.000  -9999.000  -9999.000  -9999.000  0.009      -9999.000  0.014      0.015      -9999.000  5054.137  
5079.238   17.500     54.621     -9999.000  -9999.000  -9999.000  -9999.000  -9999.000  -9999.000  -9999.000  -9999.000  -9999.000  -9999.000  -9999.000  -9999.000  -9999.000  -9999.000  -9999.000  -9999.000  -9999.000  -9999.000  -9999.000  -9999.000  -9999.000  0.008      -9999.000  0.012      0.013      -9999.000  5054.288  
5079.390   17.500     54.720     -9999.000  -9999.000  -9999.000  -9999.000  -9999.000  -9999.000  -9999.000  -9999.000  -9999.000  -9999.000  -9999.000  -9999.000  -9999.000  -9999.000  -9999.000  -9999.000  -9999.000  -9999.000  -9999.000  -9999.000  -9999.000  0.011      -9999.000  0.015      0.016      -9999.000  5054.440  
5079.543   17.500     54.456     -9999.000  -9999.000  -9999.000  -9999.000  -9999.000  -9999.000  -9999.000  -9999.000  -9999.000  -9999.000  -9999.000  -9999.000  -9999.000  -9999.000  -9999.000  -9999.000  -9999.000  -9999.000  -9999.000  -9999.000  -9999.000  0.010      -9999.000  0.013      0.015      -9999.000  5054.591  
5079.695   17.500     54.473     -9999.000  -9999.000  -9999.000  -9999.000  -9999.000  -9999.000  -9999.000  -9999.000  -9999.000  -9999.000  -9999.000  -9999.000  -9999.000  -9999.000  -9999.000  -9999.000  -9999.000  -9999.000  -9999.000  -9999.000  -9999.000  0.010      -9999.000  0.012      0.014      -9999.000  5054.743  
5079.848   17.500     54.160     -9999.000  -9999.000  -9999.000  -9999.000  -9999.000  -9999.000  -9999.000  -9999.000  -9999.000  -9999.000  -9999.000  -9999.000  -9999.000  -9999.000  -9999.000  -9999.000  -9999.000  -9999.000  -9999.000  -9999.000  -9999.000  0.016      -9999.000  0.013      0.014      -9999.000  5054.894  
5080.000   17.500     53.957     -9999.000  -9999.000  -9999.000  -9999.000  -9999.000  -9999.000  -9999.000  -9999.000  -9999.000  12.424     0.753      -9999.000  -9999.000  -9999.000  -9999.000  -9999.000  -9999.000  -9999.000  -9999.000  -9999.000  6.034      0.017      4.629      0.013      0.014      -9999.000  5055.045  
5080.152   17.500     54.127     0.000      0.214      0.097      30.130     0.113      0.000      0.000      11.973     8.180      12.424     0.766      0.292      0.305      0.198      0.000      0.000      -9999.000  -9999.000  -9999.000  0.081      5.959      0.018      4.629      0.014      0.015      0.652      5055.197  
5080.305   17.500     54.512     0.000      0.209      0.103      21.351     0.123      0.000      0.000      12.277     8.327      12.350     0.788      0.299      0.320      0.174      0.000      0.000      -9999.000  -9999.000  -9999.000  0.079      5.523      0.019      4.629      0.015      0.016      0.652      5055.348  
5080.457   17.500     54.703     0.000      0.204      0.111      8.588      0.141      0.000      0.000      12.402     8.346      12.304     0.814      0.310      0.296      0.148      0.000      0.000      -9999.000  -9999.000  -9999.000  0.084      5.074      0.018      4.629      0.012      0.013      0.652      5055.500  
5080.610   17.500     54.316     0.012      0.197      0.105      0.000      0.133      0.013      0.000      12.169     8.221      12.284     0.818      0.311      0.336      0.138      0.000      0.000      -9999.000  -9999.000  -9999.000  0.093      4.638      0.021      4.629      0.015      0.016      0.652      5055.651  
5080.762   17.500     53.500     0.036      0.195      0.076      0.000      0.102      0.039      0.000      11.706     8.131      12.214     0.812      0.298      0.362      0.171      0.000      0.000      -9999.000  -9999.000  -9999.000  0.102      4.558      0.018      4.629      0.013      0.014      0.652      5055.802  
5080.914   17.500     52.834     0.037      0.213      0.058      2.770      0.082      0.041      0.000      11.500     8.267      12.166     0.801      0.308      0.318      0.185      0.000      0.000      -9999.000  -9999.000  -9999.000  0.105      4.518      0.018      4.629      0.015      0.016      0.652      5055.954  
5081.067   17.500     52.343     0.033      0.222      0.055      10.635     0.093      0.036      0.001      11.179     8.508      12.159     0.831      0.336      0.299      0.160      0.000      0.000      -9999.000  -9999.000  -9999.000  0.109      4.528      0.017      4.629      0.013      0.014      0.652      5056.105  
5081.219   17.500     52.068     0.024      0.215      0.067      15.642     0.132      0.027      0.002      11.206     8.325      12.148     0.852      0.323      0.325      0.164      0.000      0.000      -9999.000  -9999.000  -9999.000  0.110      4.576      0.017      4.629      0.014      0.015      0.652      5056.257  
5081.372   17.500     52.070     0.040      0.185      0.078      13.667     0.161      0.044      0.001      11.461     8.242      12.129     0.880      0.308      0.351      0.173      0.000      0.000      -9999.000  -9999.000  -9999.000  0.117      4.655      0.014      4.629      0.013      0.014      0.652      5056.408  
5081.524   17.500     52.511     0.053      0.174      0.072      8.930      0.132      0.064      0.000      11.768     8.058      12.122     0.876      0.297      0.390      0.160      0.000      0.000      -9999.000  -9999.000  -9999.000  0.132      4.696      0.016      4.629      0.014      0.015      0.652      5056.560  
5081.676   17.500     53.053     0.068      0.159      0.067      13.029     0.068      0.086      0.000      11.911     8.377      12.129     0.885      0.306      0.425      0.180      0.000      0.000      -9999.000  -9999.000  -9999.000  0.142      4.696      0.014      4.629      0.013      0.014      0.652      5056.711  
5081.829   17.500     53.663     0.074      0.138      0.084      21.257     0.020      0.082      0.000      11.853     8.410      12.159     0.909      0.297      0.424      0.206      0.000      0.000      -9999.000  -9999.000  -9999.000  0.167      4.691      0.013      4.629      0.012      0.013      0.652      5056.862  
5081.981   17.500     53.689     0.075      0.115      0.109      31.481     0.010      0.083      0.000      12.533     8.323      12.170     0.963      0.278      0.382      0.251      0.000      0.000      -9999.000  -9999.000  -9999.000  0.208      5.220      0.014      4.629      0.013      0.014      0.652      5057.014  
5082.134   17.500     53.612     0.044      0.142      0.124      36.298     0.034      0.048      0.000      12.737     8.297      12.240     1.005      0.238      0.280      0.411      0.000      0.000      -9999.000  -9999.000  -9999.000  0.220      5.824      0.012      4.629      0.012      0.013      0.652      5057.165  
5082.286   17.500     54.100     0.018      0.186      0.098      26.452     0.044      0.020      0.000      13.057     8.421      12.299     1.012      0.185      -0.000     0.744      0.000      0.000      -9999.000  -9999.000  -9999.000  0.226      6.393      0.013      4.629      0.013      0.014      0.652      5057.317  
5082.438   17.500     54.119     0.000      0.213      0.086      17.302     0.027      0.000      0.000      12.835     8.868      12.335     1.003      0.182      -0.136     0.916      0.000      0.000      -9999.000  -9999.000  -9999.000  0.244      6.444      0.012      4.629      0.012      0.013      0.652      5057.468  
5082.591   17.500     54.179     0.000      0.226      0.071      9.040      0.016      0.000      0.000      13.304     10.378     12.346     1.004      0.212      -0.169     1.084      0.000      0.000      -9999.000  -9999.000  -9999.000  0.257      6.452      0.008      4.629      0.008      0.009      0.652      5057.620  
5082.743   17.500     54.702     0.000      0.238      0.064      3.544      0.037      0.000      0.000      27.772     25.494     12.380     0.995      0.516      -0.391     2.656      0.000      0.000      -9999.000  -9999.000  -9999.000  0.270      6.448      0.012      4.629      0.013      0.015      0.652      5057.771  
