~Version
 VERS              .         2.0                           : CWLS LOG ASCII STANDARD - VERSION 2.0
 WRAP              .         NO                            : ONE LINE PER DEPTH STEP
 DLM               .         SPACE                         : DELIMITING CHARACTER(SPACE TAB OR COMMA)
~Well Information
#_______________________________________________________________________________
#
#PARAMETER_NAME    .UNIT     VALUE                         : DESCRIPTION
#_______________________________________________________________________________
STRT               .M        5038.900                      : First reference value
STOP               .M        5526.275                      : Last reference value
STEP               .M        0.152                         : Step increment
NULL               .         -9999                         : Missing value
COMP               .         PETROBRAS                     : Company
WELL               .         8-SPH-23-SPS                  : Well name
FLD                .         SAPINHOA                      : Field
LOC                .                                       : Location
PROV               .                                       : Province
SRVC               .                                       : Service Company
DATE               .         2021-09-13 11_18_58           : Date
UWI                .         8-SPH-23-SPS                  : Unique Well ID
APD                .M        24.0                          : ABOVE PERMANENT DATUM
API                .         863160047300                  : API Code
BHT                .degF     160                           : BOTTOMHOLE TEMPERATURE
BLI                .M        5511.3                        : BOTTOM LOGGED INTERVAL
BS                 .in       12.25                         : BIT SIZE
CTRY               .         BRASIL                        : Nation
DCS                .         10/04/2016                    : DATE CIRCULATION STOPPED
DFD                .lb/gal   9.4                           : DRILLING FLUID DENSITY
DFT                .         OLEDRILL (BASE OLEFINA)       : DRILLING FLUID TYPE
DLAB               .         12/04/2016                    : DATE LOGGING ON BOTTOM
EDF                .M        24.0                          : ELEVATION OF DRILLING FLOOR
EGL                .M        -2146.0                       : ELEVATION OF GROUND LEVEL
EKB                .M        24.0                          : ELEVATION OF KELLY BUSHING
EPD                .M        0.0                           : ELEVATATION OF PERMANENT DATUM
GDAT               .         SIRGAS2000                    : Geodetic Datum
LMF                .         MR                            : LOG MEASURED FROM
LUL                .         MCE                           : LOGGING UNIT LOCATION
LUN                .         12247255                      : LOGGING UNIT NUMBER
LATI               .         -25_42_01.290                 : Latitude
LONG               .         -43_11_39,303                 : LONGITUDE
MCST               .degF     -999.25                       : MUDCAKE SAMPLE TEMPERATURE
MFST               .degF     -999.25                       : MUD FILTRATE SAMPLE TEMPERATURE
MRT                .degF     160.0                         : MAXIMUM RECORDED TEMPERATURE
MST                .degF     -999.25                       : MUD SAMPLE TEMPERATURE
ORIGINALWELLNAME   .         8SPH 0023  SPS                : 
PDAT               .         NM                            : PERMANENT DATUM
PRODUCER-CODE      .         280                           : 
PRODUCER-NAME      .         Halliburton                   : 
RMB                .ohm.m    -999.25                       : RESISTIVITY OF MUD - BHT
RMCS               .ohm.m    -999.25                       : RESISTIVITY OF MUDCAKE SAMPLE
RMFS               .ohm.m    -999.25                       : RESISTIVITY OF MUD FILTRATE SAMPLE
RMS                .ohm.m    -999.25                       : RESISTIVITY OF MUD SAMPLE
RUN                .         02                            : RUN NUMBER 1
STAT               .         SAO PAULO                     : STATE
TCS                .h        03_30                         : TIME CIRCULATION STOPPED
TDD                .M        5517.0                        : DRILLERS DEPTH
TDL                .M        5520.0                        : LOGGERS DEPTH
TLAB               .h        07_30                         : TIME LOGGING ON BOTTOM
TLI                .M        5070.0                        : TOP LOGGED INTERVAL
X                  .M        681190.00000000               : X UTM Coordinate
Y                  .M        7156260.00000000              : Y UTM Coordinate
~Parameter Information Block
#_______________________________________________________________________________
#
#PARAMETER_NAME    .UNIT     VALUE                         : DESCRIPTION
#_______________________________________________________________________________
SET                .         BASE                          : 
TLFamily_BS        .         Bit Size                      : 
TLFamily_DT        .         Compressional Slowness        : 
TLFamily_DWAL      .         Aluminum Weight Fraction      : 
TLFamily_DWCA      .         Calcium Weight Fraction       : 
TLFamily_DWFE      .         Iron Weight Fraction          : 
TLFamily_DWK       .         Potassium Weight Fraction     : 
TLFamily_DWMG      .         Magnesium Weight Fraction     : 
TLFamily_DWMN      .         Manganese Weight Fraction     : 
TLFamily_DWS       .         Sulfur Weight Fraction        : 
TLFamily_DWSI      .         Silicon Weight Fraction       : 
TLFamily_DWTI      .         Titanium Weight Fraction      : 
TLFamily_GR        .         Gamma Ray                     : 
TLFamily_GRt       .         Gamma Ray                     : 
TLFamily_HCAL      .         Caliper                       : 
TLFamily_HFK       .         Potassium Concentration       : 
TLFamily_HTHO      .         Thorium Concentration         : 
TLFamily_HURA      .         Uranium Concentration         : 
TLFamily_MD        .         Measured Depth                : 
TLFamily_MPERM     .         NMR Permeability              : 
TLFamily_NMRE_Final .         NMR Bound Fluid Volume Fraction: 
TLFamily_NMRFL_Final .         NMR Free Fluids               : 
TLFamily_NMRT_Final .         NMR Porosity                  : 
TLFamily_NPHI      .         Neutron Porosity              : 
TLFamily_PE        .         Photoelectric Factor          : 
TLFamily_RD        .         Resistivity - Deep            : 
TLFamily_RHOB      .         Bulk Density                  : 
TLFamily_RM        .         Resistivity - Medium          : 
TLFamily_RS        .         Resistivity - Shallow         : 
TLFamily_T2LM      .         NMR T2 Logarithmic Mean       : 
TLFamily_TVDSS     .         True Vertical Depth Sub Sea   : 
~Curve Information
#_______________________________________________________________________________
#
#LOGNAME           .UNIT     LOG_ID                        : DESCRIPTION
#_______________________________________________________________________________
DEPTH              .M                                      :  
BS                 .in                                     : BS/Bit Size 
DT                 .us/ft                                  : DTC/MonoDeltaT 
DWAL               .kg/kg                                  : DAL/DryrockAlWF 
DWCA               .kg/kg                                  : DCA/DryrockCaWF 
DWFE               .kg/kg                                  : DFE/DryrockFeWF 
DWK                .kg/kg                                  : DK/DryrockKWF 
DWMG               .kg/kg                                  : DMG/DryrockMgWF 
DWMN               .kg/kg                                  : DMN/DryrockMnWF 
DWS                .kg/kg                                  : DSUL/DryrockSuWF 
DWSI               .kg/kg                                  : DSI/DryrockSiWF 
DWTI               .kg/kg                                  : DTI/DryrockTiWF 
GR                 .gAPI                                   : GR/Gamma API 
GRt                .gAPI                                   : GKUT/GammaKUT 
HCAL               .in                                     : CALI/Caliper 
HFK                .%                                      : POTA/Potassium 
HTHO               .ppm                                    : THOR/Thorium 
HURA               .ppm                                    : URAN/Uranium 
MPERM              .mD                                     : MPERMT2/MrilT2KCoat 
NMRE_Final         .m3/m3                                  : MPHIT2/TA-grp T2 Effective Por 
NMRFL_Final        .unitless                               : MFFIT2/TA-grp T2 FreeFluid Ind 
NMRT_Final         .frac                                   : MSIGT2/TA-grp T2 Total Por. 
NPHI               .frac                                   : POROSIDADE NEUTRONICA (COMPOSICAO DE CURVAS CABO E/OU LWD) 
PE                 .b/e                                    : Density PE Filtered 
RD                 .ohm.m                                  : RT90/90in Resistivity 2ft Res 
RHOB               .g/cm3                                  : DENSIDADE (COMPOSICAO DE CURVAS CABO E/OU LWD ) 
RM                 .ohm.m                                  : RT30/30in Resistivity 2ft Res 
RS                 .ohm.m                                  : RT10/10in Resistivity 2ft Res 
T2LM               .ms                                     : T2LM/T2 Log Mean 
TVDSS              .M                                      :  
~Ascii
# ...
5259.880   12.250     53.858     0.017      0.312      0.004      0.021      0.002      0.000      0.009      0.068      0.000      37.536     46.613     12.056     0.175      1.468      4.350      0.150      0.058      0.031      0.069      0.065      7.335      60.393     2.634      71.337     87.017     55.313     5201.484  
5260.032   12.250     54.145     0.017      0.310      0.004      0.021      0.001      0.000      0.009      0.072      0.000      36.758     46.930     12.057     0.206      1.715      4.242      0.216      0.058      0.034      0.067      0.067      7.357      55.789     2.633      70.589     88.509     73.465     5201.637  
5260.185   12.250     54.658     0.016      0.309      0.005      0.020      0.000      0.000      0.008      0.075      0.000      36.178     47.046     12.056     0.243      1.974      4.097      0.315      0.059      0.037      0.062      0.069      7.429      51.886     2.633      69.550     88.564     105.799    5201.789  
5260.337   12.250     54.988     0.015      0.306      0.004      0.018      0.000      0.000      0.007      0.081      0.000      38.532     47.200     12.055     0.319      2.393      3.830      0.458      0.058      0.040      0.063      0.071      7.494      46.171     2.630      66.476     84.004     108.844    5201.941  
5260.489   12.250     55.624     0.014      0.305      0.004      0.018      0.000      0.000      0.009      0.082      0.000      40.327     47.032     12.047     0.361      2.615      3.658      0.902      0.058      0.045      0.063      0.075      7.556      43.521     2.624      64.857     80.367     118.782    5202.094  
5260.642   12.250     55.745     0.015      0.313      0.004      0.018      0.000      0.000      0.012      0.071      0.000      39.904     46.805     12.055     0.403      2.484      3.607      1.257      0.061      0.047      0.064      0.081      7.580      40.754     2.620      64.169     75.519     150.374    5202.246  
5260.794   12.250     55.876     0.016      0.317      0.004      0.019      0.002      0.000      0.013      0.061      0.000      38.752     46.655     12.063     0.397      2.250      3.686      1.206      0.066      0.048      0.067      0.086      7.575      39.800     2.616      64.943     73.307     153.565    5202.399  
5260.947   12.250     55.428     0.016      0.314      0.004      0.019      0.014      0.000      0.016      0.043      0.000      37.980     47.422     12.054     0.354      1.878      3.981      0.950      0.068      0.047      0.074      0.088      7.561      39.504     2.609      70.353     73.594     98.827     5202.551  
5261.099   12.250     54.493     0.016      0.311      0.003      0.019      0.021      0.000      0.018      0.035      0.000      38.460     48.168     12.072     0.318      1.682      4.198      0.577      0.067      0.043      0.075      0.084      7.414      39.760     2.604      75.681     76.231     68.268     5202.703  
5261.251   12.250     53.964     0.018      0.303      0.003      0.020      0.029      0.000      0.014      0.031      0.000      40.647     50.700     12.092     0.219      1.437      4.741      0.200      0.061      0.033      0.066      0.076      7.186      38.167     2.611      79.561     78.373     57.872     5202.856  
5261.404   12.250     52.967     0.019      0.295      0.003      0.022      0.032      0.000      0.010      0.034      0.000      41.350     52.443     12.107     0.185      1.342      5.028      0.088      0.054      0.027      0.056      0.070      6.826      35.506     2.628      76.238     75.498     55.669     5203.008  
5261.556   12.250     52.897     0.021      0.295      0.002      0.024      0.024      0.001      0.004      0.049      0.000      40.182     54.728     12.095     0.222      1.333      5.222      0.036      0.046      0.022      0.048      0.068      6.612      28.759     2.649      60.784     65.320     47.623     5203.160  
5261.709   12.250     52.917     0.021      0.292      0.003      0.026      0.014      0.001      0.002      0.068      0.000      40.772     55.958     12.085     0.272      1.367      5.261      0.017      0.039      0.018      0.044      0.071      6.554      23.549     2.661      45.952     53.745     29.111     5203.313  
5261.861   12.250     54.112     0.022      0.282      0.003      0.027      0.003      0.001      0.001      0.097      0.001      45.994     56.498     12.080     0.357      1.485      5.130      0.013      0.031      0.016      0.046      0.079      6.508      17.039     2.628      29.106     37.559     14.279     5203.465  
5262.013   12.250     54.572     0.022      0.266      0.004      0.027      0.000      0.000      0.000      0.120      0.001      48.693     55.638     12.052     0.408      1.500      4.940      0.017      0.028      0.017      0.048      0.082      6.299      13.002     2.613      20.309     28.248     12.880     5203.618  
5262.166   12.250     55.779     0.021      0.247      0.004      0.027      0.000      0.000      0.002      0.141      0.002      42.041     52.531     12.045     0.398      1.379      4.657      0.041      0.038      0.022      0.051      0.085      6.122      9.835      2.606      14.340     21.264     29.972     5203.770  
5262.318   12.250     57.350     0.021      0.230      0.005      0.026      0.000      0.000      0.003      0.161      0.002      34.776     49.007     12.048     0.359      1.233      4.385      0.245      0.057      0.035      0.062      0.087      6.293      7.783      2.605      10.785     16.571     88.746     5203.922  
5262.471   12.250     58.567     0.021      0.217      0.005      0.026      0.000      0.000      0.003      0.175      0.002      29.967     45.506     12.069     0.290      1.016      4.194      1.331      0.071      0.051      0.077      0.102      6.682      5.963      2.581      7.876      12.253     131.182    5204.075  
5262.623   12.250     60.085     0.023      0.214      0.005      0.028      0.000      0.000      0.003      0.176      0.002      28.494     44.579     12.072     0.231      0.915      4.230      7.038      0.087      0.071      0.095      0.136      6.838      4.890      2.547      6.266      9.772      183.719    5204.227  
5262.775   12.250     62.008     0.025      0.217      0.005      0.031      0.000      0.000      0.003      0.169      0.003      32.602     46.760     12.073     0.210      0.883      4.521      22.033     0.110      0.090      0.116      0.183      6.776      3.876      2.488      4.818      7.420      253.143    5204.379  
5262.928   12.250     63.387     0.027      0.221      0.005      0.033      0.000      0.000      0.003      0.163      0.003      38.504     49.243     12.052     0.227      0.855      4.778      29.375     0.130      0.100      0.132      0.203      6.695      3.237      2.428      3.938      5.922      266.186    5204.532  
5263.080   12.250     65.340     0.027      0.234      0.005      0.034      0.000      0.000      0.003      0.146      0.003      44.424     51.720     12.048     0.246      0.740      5.062      39.380     0.143      0.108      0.143      0.187      6.579      2.701      2.420      3.234      4.734      250.458    5204.684  
5263.233   12.250     67.771     0.027      0.248      0.004      0.033      0.000      0.000      0.002      0.131      0.002      44.210     51.705     12.045     0.272      0.574      5.076      46.965     0.146      0.111      0.146      0.180      6.397      2.543      2.421      3.051      4.491      253.938    5204.836  
5263.385   12.250     68.306     0.026      0.257      0.004      0.033      0.000      0.000      0.003      0.122      0.002      41.003     50.279     12.046     0.285      0.442      4.943      45.227     0.145      0.111      0.145      0.194      6.282      2.538      2.393      3.083      4.675      269.892    5204.989  
5263.537   12.250     68.587     0.024      0.253      0.003      0.030      0.000      0.000      0.002      0.132      0.001      36.429     46.490     12.065     0.252      0.385      4.599      46.245     0.143      0.110      0.143      0.209      6.252      2.528      2.359      3.137      5.117      269.777    5205.141  
