~Version
 VERS              .         2.0                           : CWLS LOG ASCII STANDARD - VERSION 2.0
 WRAP              .         NO                            : ONE LINE PER DEPTH STEP
 DLM               .         SPACE                         : DELIMITING CHARACTER(SPACE TAB OR COMMA)
~Well Information
#_______________________________________________________________________________
#
#PARAMETER_NAME    .UNIT     VALUE                         : DESCRIPTION
#_______________________________________________________________________________
STRT               .M        5027.447                      : First reference value
STOP               .M        5499.430                      : Last reference value
STEP               .M        0.152                         : Step increment
NULL               .         -9999                         : Missing value
COMP               .         PETROBRAS                     : Company
WELL               .         8-SPH-10-SPS                  : Well name
FLD                .         SAPINHOA                      : Field
LOC                .                                       : Location
PROV               .                                       : Province
SRVC               .                                       : Service Company
DATE               .         2021-09-13 11_18_58           : Date
UWI                .         8-SPH-10-SPS                  : Unique Well ID
APD                .M        24                            : Above Permanent Datum
API                .                                       : API NUMBER
BHT                .degF     153                           : Bottom Hole Temperature
BLI                .M        5494.8                        : Bottom Log Interval
BS                 .in       8.5                           : Bit Size
CTRY               .         BRASIL                        : Nation
DCS                .         15/06/2015                    : Date Ciculation Stopped
DFD                .lb/gal   9.7                           : Drilling Fluid Density
DFT                .         CATIONICO FLEX DRILL (BASE AGUA): Drilling Fluid Type
DLAB               .         18/06/2015                    : Date Logger At Bottom
EDF                .M        24                            : Elevation of Derreck Floor
EGL                .M        -2125                         : Elevation of Ground Level
EKB                .M        -999.25                       : Elevation of Kelly Bushing
EPD                .M        0                             : Elevation Of Permanent Datum
LMF                .         MR                            : Log Measured From
LONG               .         -43_10_14,760                 : Longitude
MCST               .degF     67                            : Mud Cake Sample Temperature
MFST               .degF     67                            : Mud Filtrate Sample Temperature
MRT                .degF     153                           : Maximum Recorded Temperature
MST                .degF     67                            : Mud Sample Temperature
ORIGINALWELLNAME   .         P08                           : 
PDAT               .         NM                            : Permanent Datum
PRODUCER-CODE      .         150                           : 
PRODUCER-NAME      .         ATLAS                         : 
RMB                .ohm.m    -999.25                       : Resistivity Of Mud - BHT
RMCS               .ohm.m    0.078                         : Resistivity Of Mud Cake Sample
RMFS               .ohm.m    0.064                         : Mud Filtrate Sample Resistivity
RMS                .ohm.m    0.071                         : Mud Sample Resistivity
RUN                .         3                             : Run Number
STAT               .         SAO PAULO                     : State
TCS                .h        22_00                         : Time Ciculation Stopped
TDD                .M        5496                          : Total Depht - Driller
TDL                .M        5495.5                        : Total Depht - Logger
TLAB               .h        10_45                         : Time Logger At Bottom
TLI                .M        5114                          : Top Log Interval
X                  .M        683623.00000000               : 
Y                  .M        7161727.00000000              : 
~Parameter Information Block
#_______________________________________________________________________________
#
#PARAMETER_NAME    .UNIT     VALUE                         : DESCRIPTION
#_______________________________________________________________________________
SET                .         BASE                          : 
TLFamily_BS        .         Bit Size                      : 
TLFamily_DT        .         Compressional Slowness        : 
TLFamily_DWAL      .         Aluminum Weight Fraction      : 
TLFamily_DWCA      .         Calcium Weight Fraction       : 
TLFamily_DWFE      .         Iron Weight Fraction          : 
TLFamily_DWGD      .         Gadolinium Weight Fraction    : 
TLFamily_DWK       .         Potassium Weight Fraction     : 
TLFamily_DWMG      .         Magnesium Weight Fraction     : 
TLFamily_DWMN      .         Manganese Weight Fraction     : 
TLFamily_DWS       .         Sulfur Weight Fraction        : 
TLFamily_DWSI      .         Silicon Weight Fraction       : 
TLFamily_DWTI      .         Titanium Weight Fraction      : 
TLFamily_GR        .         Gamma Ray                     : 
TLFamily_GRt       .         Gamma Ray                     : 
TLFamily_HCAL      .         Caliper                       : 
TLFamily_HDRA      .         Bulk Density Correction       : 
TLFamily_HFK       .         Potassium Concentration       : 
TLFamily_HTHO      .         Thorium Concentration         : 
TLFamily_HURA      .         Uranium Concentration         : 
TLFamily_MD        .         Measured Depth                : 
TLFamily_MPERM     .         NMR Permeability              : 
TLFamily_NMRE_Final .         NMR Bound Fluid Volume Fraction: 
TLFamily_NMRFL_Final .         NMR Free Fluids               : 
TLFamily_NMRT_Final .         NMR Porosity                  : 
TLFamily_NPHI      .         Neutron Porosity              : 
TLFamily_PE        .         Photoelectric Factor          : 
TLFamily_RD        .         Resistivity - Deep            : 
TLFamily_RHOB      .         Bulk Density                  : 
TLFamily_RS        .         Resistivity - Shallow         : 
TLFamily_TVDSS     .         True Vertical Depth Sub Sea   : 
~Curve Information
#_______________________________________________________________________________
#
#LOGNAME           .UNIT     LOG_ID                        : DESCRIPTION
#_______________________________________________________________________________
DEPTH              .M                                      :  
BS                 .in                                     : Bit size 
DT                 .us/ft                                  : Slowness over 24-inch interval 
DWAL               .kg/kg                                  : Weight fraction of aluminum derived from thorium in dry rock 
DWCA               .kg/kg                                  : Weight fraction of calcium in dry rock 
DWFE               .kg/kg                                  : Weight fraction of iron in dry rock 
DWGD               .ppm                                    : Weight fraction of gadolinium in dry rock 
DWK                .kg/kg                                  : Weight fraction of potassium in dry rock 
DWMG               .kg/kg                                  : Weight fraction of magnesium in dry rock 
DWMN               .kg/kg                                  : Weight fraction of manganese in dry rock 
DWS                .kg/kg                                  : Weight fraction of sulfur in dry rock 
DWSI               .kg/kg                                  : Weight fraction of silicon in dry rock 
DWTI               .kg/kg                                  : Weight fraction of titanium in dry rock 
GR                 .gAPI                                   : Gamma ray 
GRt                .gAPI                                   : Gamma ray from 1329 spectrum 
HCAL               .in                                     : Caliper 
HDRA               .g/cm3                                  : Density correction 
HFK                .%                                      : Potassium content 
HTHO               .ppm                                    : Thorium concentration 
HURA               .ppm                                    : Uranium content 
MPERM              .mD                                     : MR permeability 
NMRE_Final         .m3/m3                                  : MR effective porosity 
NMRFL_Final        .unitless                               : MR moveable fluids 
NMRT_Final         .frac                                   : MR total porosity 
NPHI               .frac                                   : Borehole size corrected compensated neutron porosity 
PE                 .b/e                                    : Photo electric cross-section 
RD                 .ohm.m                                  : Deep resistivity 
RHOB               .g/cm3                                  : Formation bulk density 
RS                 .ohm.m                                  : Shallow resistivity 
TVDSS              .M                                      :  
~Ascii
# ...
5210.327   8.500      50.785     0.006      0.265      0.002      1.319      0.001      0.033      0.001      0.001      0.077      0.002      20.614     20.699     8.714      -0.011     0.234      1.147      1.614      0.257      0.051      0.034      0.059      0.075      4.498      79.366     2.684      131.204    5186.007  
5210.480   8.500      51.601     0.005      0.256      0.001      1.404      0.001      0.037      0.001      0.001      0.081      0.002      23.110     23.208     8.714      -0.013     0.228      0.954      1.951      0.045      0.042      0.023      0.052      0.080      4.302      56.350     2.677      98.579     5186.159  
5210.632   8.500      53.246     0.004      0.244      0.001      1.559      0.001      0.039      0.001      0.001      0.088      0.004      25.530     25.635     8.713      -0.014     0.224      0.820      2.183      0.006      0.038      0.014      0.046      0.087      4.122      32.464     2.676      58.949     5186.311  
5210.785   8.500      55.458     0.004      0.232      0.001      1.626      0.001      0.041      0.001      0.001      0.099      0.005      26.812     26.920     8.713      -0.012     0.220      0.792      2.265      0.005      0.037      0.012      0.040      0.091      4.011      21.964     2.678      38.953     5186.464  
5210.937   8.500      57.740     0.004      0.222      0.001      1.507      0.001      0.045      0.001      0.001      0.112      0.006      26.996     27.103     8.713      -0.010     0.215      0.820      2.260      0.003      0.043      0.010      0.045      0.091      3.816      21.997     2.679      38.225     5186.616  
5211.089   8.500      59.433     0.004      0.214      0.002      1.274      0.001      0.051      0.001      0.001      0.125      0.006      26.742     26.848     8.713      -0.006     0.208      0.865      2.210      0.005      0.047      0.011      0.052      0.088      3.572      25.706     2.672      45.186     5186.769  
5211.242   8.500      59.961     0.005      0.211      0.003      1.105      0.001      0.054      0.001      0.001      0.130      0.006      26.141     26.246     8.714      -0.001     0.200      0.927      2.114      0.007      0.047      0.013      0.056      0.084      3.566      29.662     2.659      53.465     5186.921  
5211.394   8.500      59.200     0.005      0.218      0.003      1.119      0.001      0.052      0.001      0.001      0.125      0.006      24.265     24.362     8.714      0.005      0.184      0.976      1.955      0.006      0.043      0.012      0.059      0.079      3.851      31.313     2.650      57.957     5187.073  
5211.547   8.500      57.635     0.005      0.234      0.002      1.291      0.001      0.045      0.001      0.001      0.108      0.005      21.007     21.090     8.713      0.012      0.151      0.940      1.797      0.009      0.049      0.014      0.065      0.076      4.231      29.003     2.654      54.257     5187.226  
5211.699   8.500      55.996     0.004      0.258      0.001      1.495      0.001      0.036      0.001      0.001      0.085      0.005      18.157     18.229     8.713      0.016      0.116      0.831      1.757      0.029      0.057      0.020      0.072      0.073      4.521      24.293     2.665      44.434     5187.378  
5211.851   8.500      54.752     0.004      0.280      0.001      1.617      0.001      0.030      0.001      0.001      0.066      0.004      17.356     17.427     8.713      0.014      0.097      0.735      1.814      0.111      0.062      0.029      0.074      0.071      4.611      21.268     2.669      36.927     5187.530  
5212.004   8.500      53.922     0.003      0.295      0.001      1.633      0.001      0.029      0.001      0.001      0.054      0.003      17.945     18.018     8.714      0.012      0.084      0.647      1.912      0.351      0.062      0.038      0.072      0.070      4.480      22.281     2.662      37.215     5187.683  
5212.156   8.500      53.261     0.003      0.305      0.001      1.615      0.001      0.030      0.001      0.001      0.046      0.003      18.592     18.665     8.713      0.013      0.068      0.546      2.044      0.776      0.056      0.041      0.069      0.072      4.284      26.738     2.654      43.802     5187.835  
5212.309   8.500      52.582     0.002      0.311      0.001      1.629      0.001      0.031      0.001      0.001      0.041      0.003      18.766     18.833     8.712      0.017      0.056      0.465      2.156      0.621      0.052      0.039      0.069      0.074      4.213      35.449     2.647      56.798     5187.988  
5212.461   8.500      51.881     0.002      0.317      0.002      1.658      0.001      0.030      0.001      0.001      0.041      0.002      18.512     18.575     8.712      0.018      0.051      0.435      2.208      0.290      0.053      0.035      0.071      0.068      4.278      53.907     2.643      83.770     5188.140  
5212.613   8.500      51.204     0.002      0.321      0.002      1.622      0.001      0.027      0.001      0.001      0.043      0.001      18.372     18.438     8.712      0.016      0.052      0.457      2.197      0.197      0.058      0.033      0.073      0.057      4.414      99.371     2.646      151.737    5188.292  
5212.766   8.500      50.578     0.003      0.321      0.002      1.474      0.002      0.023      0.001      0.001      0.045      0.001      18.602     18.676     8.713      0.013      0.056      0.524      2.137      0.226      0.062      0.034      0.077      0.051      4.626      189.092    2.661      299.344    5188.445  
5212.918   8.500      50.176     0.003      0.320      0.002      1.248      0.003      0.021      0.001      0.001      0.044      0.001      18.924     19.003     8.713      0.013      0.062      0.617      2.049      0.174      0.046      0.031      0.062      0.053      4.898      281.227    2.672      463.587    5188.597  
5213.071   8.500      50.373     0.004      0.319      0.001      1.051      0.004      0.019      0.001      0.001      0.040      0.002      19.272     19.353     8.713      0.014      0.072      0.723      1.953      0.062      0.036      0.024      0.049      0.061      5.075      293.322    2.670      489.533    5188.749  
5213.223   8.500      51.554     0.004      0.318      0.001      1.010      0.004      0.016      0.001      0.001      0.040      0.001      19.907     19.992     8.714      0.017      0.086      0.824      1.863      0.025      0.032      0.020      0.041      0.075      5.054      209.827    2.659      341.113    5188.902  
5213.375   8.500      53.804     0.004      0.315      0.001      1.180      0.003      0.014      0.001      0.001      0.043      0.001      20.523     20.609     8.713      0.016      0.099      0.881      1.806      0.048      0.036      0.023      0.042      0.097      4.944      104.865    2.638      159.783    5189.054  
5213.528   8.500      56.711     0.004      0.307      0.001      1.492      0.002      0.015      0.001      0.001      0.048      0.001      20.657     20.740     8.713      0.008      0.106      0.885      1.789      0.195      0.046      0.031      0.055      0.122      4.862      40.380     2.600      58.112     5189.206  
5213.680   8.500      59.490     0.004      0.296      0.001      1.820      0.002      0.020      0.001      0.001      0.048      0.000      20.282     20.364     8.713      -0.003     0.110      0.873      1.784      0.504      0.063      0.040      0.069      0.142      4.787      16.592     2.553      24.443     5189.359  
5213.833   8.500      60.770     0.004      0.287      0.001      2.083      0.002      0.027      0.001      0.001      0.042      0.000      19.800     19.883     8.713      -0.009     0.111      0.874      1.773      1.327      0.084      0.052      0.086      0.154      4.649      10.575     2.516      16.311     5189.511  
5213.985   8.500      62.018     0.004      0.283      0.001      2.251      0.001      0.033      0.001      0.001      0.035      0.000      19.485     19.568     8.713      -0.009     0.107      0.887      1.766      3.584      0.103      0.066      0.106      0.157      4.458      8.726      2.502      13.961     5189.664  
