~Version
 VERS              .         2.0                           : CWLS LOG ASCII STANDARD - VERSION 2.0
 WRAP              .         NO                            : ONE LINE PER DEPTH STEP
 DLM               .         SPACE                         : DELIMITING CHARACTER(SPACE TAB OR COMMA)
~Well Information
#_______________________________________________________________________________
#
#PARAMETER_NAME    .UNIT     VALUE                         : DESCRIPTION
#_______________________________________________________________________________
STRT               .M        5027.447                      : First reference value
STOP               .M        5499.430                      : Last reference value
STEP               .M        0.152                         : Step increment
NULL               .         -9999                         : Missing value
COMP               .         PETROBRAS                     : Company
WELL               .         8-SPH-10-SPS                  : Well name
FLD                .         SAPINHOA                      : Field
LOC                .                                       : Location
PROV               .                                       : Province
SRVC               .                                       : Service Company
DATE               .         2021-09-13 11_18_58           : Date
UWI                .         8-SPH-10-SPS                  : Unique Well ID
APD                .M        24                            : Above Permanent Datum
API                .                                       : API NUMBER
BHT                .degF     153                           : Bottom Hole Temperature
BLI                .M        5494.8                        : Bottom Log Interval
BS                 .in       8.5                           : Bit Size
CTRY               .         BRASIL                        : Nation
DCS                .         15/06/2015                    : Date Ciculation Stopped
DFD                .lb/gal   9.7                           : Drilling Fluid Density
DFT                .         CATIONICO FLEX DRILL (BASE AGUA): Drilling Fluid Type
DLAB               .         18/06/2015                    : Date Logger At Bottom
EDF                .M        24                            : Elevation of Derreck Floor
EGL                .M        -2125                         : Elevation of Ground Level
EKB                .M        -999.25                       : Elevation of Kelly Bushing
EPD                .M        0                             : Elevation Of Permanent Datum
LMF                .         MR                            : Log Measured From
LONG               .         -43_10_14,760                 : Longitude
MCST               .degF     67                            : Mud Cake Sample Temperature
MFST               .degF     67                            : Mud Filtrate Sample Temperature
MRT                .degF     153                           : Maximum Recorded Temperature
MST                .degF     67                            : Mud Sample Temperature
ORIGINALWELLNAME   .         P08                           : 
PDAT               .         NM                            : Permanent Datum
PRODUCER-CODE      .         150                           : 
PRODUCER-NAME      .         ATLAS                         : 
RMB                .ohm.m    -999.25                       : Resistivity Of Mud - BHT
RMCS               .ohm.m    0.078                         : Resistivity Of Mud Cake Sample
RMFS               .ohm.m    0.064                         : Mud Filtrate Sample Resistivity
RMS                .ohm.m    0.071                         : Mud Sample Resistivity
RUN                .         3                             : Run Number
STAT               .         SAO PAULO                     : State
TCS                .h        22_00                         : Time Ciculation Stopped
TDD                .M        5496                          : Total Depht - Driller
TDL                .M        5495.5                        : Total Depht - Logger
TLAB               .h        10_45                         : Time Logger At Bottom
TLI                .M        5114                          : Top Log Interval
X                  .M        683623.00000000               : 
Y                  .M        7161727.00000000              : 
~Parameter Information Block
#_______________________________________________________________________________
#
#PARAMETER_NAME    .UNIT     VALUE                         : DESCRIPTION
#_______________________________________________________________________________
SET                .         BASE                          : 
TLFamily_BS        .         Bit Size                      : 
TLFamily_DT        .         Compressional Slowness        : 
TLFamily_DWAL      .         Aluminum Weight Fraction      : 
TLFamily_DWCA      .         Calcium Weight Fraction       : 
TLFamily_DWFE      .         Iron Weight Fraction          : 
TLFamily_DWGD      .         Gadolinium Weight Fraction    : 
TLFamily_DWK       .         Potassium Weight Fraction     : 
TLFamily_DWMG      .         Magnesium Weight Fraction     : 
TLFamily_DWMN      .         Manganese Weight Fraction     : 
TLFamily_DWS       .         Sulfur Weight Fraction        : 
TLFamily_DWSI      .         Silicon Weight Fraction       : 
TLFamily_DWTI      .         Titanium Weight Fraction      : 
TLFamily_GR        .         Gamma Ray                     : 
TLFamily_GRt       .         Gamma Ray                     : 
TLFamily_HCAL      .         Caliper                       : 
TLFamily_HDRA      .         Bulk Density Correction       : 
TLFamily_HFK       .         Potassium Concentration       : 
TLFamily_HTHO      .         Thorium Concentration         : 
TLFamily_HURA      .         Uranium Concentration         : 
TLFamily_MD        .         Measured Depth                : 
TLFamily_MPERM     .         NMR Permeability              : 
TLFamily_NMRE_Final .         NMR Bound Fluid Volume Fraction: 
TLFamily_NMRFL_Final .         NMR Free Fluids               : 
TLFamily_NMRT_Final .         NMR Porosity                  : 
TLFamily_NPHI      .         Neutron Porosity              : 
TLFamily_PE        .         Photoelectric Factor          : 
TLFamily_RD        .         Resistivity - Deep            : 
TLFamily_RHOB      .         Bulk Density                  : 
TLFamily_RS        .         Resistivity - Shallow         : 
TLFamily_TVDSS     .         True Vertical Depth Sub Sea   : 
~Curve Information
#_______________________________________________________________________________
#
#LOGNAME           .UNIT     LOG_ID                        : DESCRIPTION
#_______________________________________________________________________________
DEPTH              .M                                      :  
BS                 .in                                     : Bit size 
DT                 .us/ft                                  : Slowness over 24-inch interval 
DWAL               .kg/kg                                  : Weight fraction of aluminum derived from thorium in dry rock 
DWCA               .kg/kg                                  : Weight fraction of calcium in dry rock 
DWFE               .kg/kg                                  : Weight fraction of iron in dry rock 
DWGD               .ppm                                    : Weight fraction of gadolinium in dry rock 
DWK                .kg/kg                                  : Weight fraction of potassium in dry rock 
DWMG               .kg/kg                                  : Weight fraction of magnesium in dry rock 
DWMN               .kg/kg                                  : Weight fraction of manganese in dry rock 
DWS                .kg/kg                                  : Weight fraction of sulfur in dry rock 
DWSI               .kg/kg                                  : Weight fraction of silicon in dry rock 
DWTI               .kg/kg                                  : Weight fraction of titanium in dry rock 
GR                 .gAPI                                   : Gamma ray 
GRt                .gAPI                                   : Gamma ray from 1329 spectrum 
HCAL               .in                                     : Caliper 
HDRA               .g/cm3                                  : Density correction 
HFK                .%                                      : Potassium content 
HTHO               .ppm                                    : Thorium concentration 
HURA               .ppm                                    : Uranium content 
MPERM              .mD                                     : MR permeability 
NMRE_Final         .m3/m3                                  : MR effective porosity 
NMRFL_Final        .unitless                               : MR moveable fluids 
NMRT_Final         .frac                                   : MR total porosity 
NPHI               .frac                                   : Borehole size corrected compensated neutron porosity 
PE                 .b/e                                    : Photo electric cross-section 
RD                 .ohm.m                                  : Deep resistivity 
RHOB               .g/cm3                                  : Formation bulk density 
RS                 .ohm.m                                  : Shallow resistivity 
TVDSS              .M                                      :  
~Ascii
# ...
5111.267   8.500      62.229     0.003      -9999.000  0.016      2.478      0.016      -9999.000  0.001      0.000      -9999.000  0.000      9.173      9.203      8.894      -9999.000  0.060      0.690      0.868      -9999.000  -9999.000  -9999.000  -9999.000  0.715      -9999.000  0.112      -9999.000  0.112      5086.955  
5111.420   8.500      63.760     0.003      -9999.000  0.028      1.837      0.032      -9999.000  0.001      0.000      -9999.000  0.001      9.323      9.357      8.894      -9999.000  0.049      0.697      0.912      -9999.000  -9999.000  -9999.000  -9999.000  0.679      -9999.000  0.112      -9999.000  0.112      5087.107  
5111.572   8.500      64.319     0.003      -9999.000  0.035      0.829      0.043      -9999.000  0.001      0.000      -9999.000  0.002      9.659      9.698      8.894      -9999.000  0.043      0.690      0.944      -9999.000  -9999.000  -9999.000  -9999.000  0.582      -9999.000  0.112      -9999.000  0.112      5087.260  
5111.725   8.500      64.957     0.003      -9999.000  0.037      0.280      0.047      -9999.000  0.001      0.001      -9999.000  0.003      9.913      9.954      8.894      -9999.000  0.039      0.675      0.963      -9999.000  -9999.000  -9999.000  -9999.000  0.535      -9999.000  0.112      -9999.000  0.112      5087.412  
5111.877   8.500      67.535     0.003      0.001      0.038      0.244      0.045      0.260      0.001      0.001      0.001      0.003      9.945      9.986      8.894      -9999.000  0.037      0.662      0.961      -9999.000  -9999.000  -9999.000  -9999.000  0.559      -9999.000  0.112      -9999.000  0.112      5087.565  
5112.029   8.500      72.686     0.003      0.001      0.039      0.404      0.042      0.236      0.001      0.001      0.001      0.003      9.904      9.942      8.894      -9999.000  0.037      0.636      0.949      -9999.000  -9999.000  -9999.000  -9999.000  0.651      12.358     0.112      -9999.000  0.112      5087.717  
5112.182   8.500      78.612     0.003      0.001      0.041      0.586      0.038      0.234      0.001      0.001      0.001      0.002      9.792      9.826      8.894      -9999.000  0.038      0.587      0.952      -9999.000  -9999.000  -9999.000  -9999.000  0.695      12.317     0.112      -9999.000  0.112      5087.869  
5112.334   8.500      82.080     0.003      0.001      0.042      0.759      0.036      0.239      0.001      0.001      0.001      0.002      9.670      9.704      8.894      -1.573     0.041      0.525      0.974      -9999.000  -9999.000  -9999.000  -9999.000  0.600      13.589     0.112      2.212      0.112      5088.022  
5112.487   8.500      80.814     0.002      0.001      0.042      0.934      0.034      0.244      0.001      0.001      0.001      0.003      9.638      9.674      8.893      -1.577     0.044      0.472      1.003      -9999.000  -9999.000  -9999.000  -9999.000  0.516      15.538     0.112      2.218      0.112      5088.174  
5112.639   8.500      75.409     0.002      0.001      0.042      1.084      0.033      0.246      0.001      0.001      0.001      0.003      9.594      9.633      8.893      -1.567     0.047      0.429      1.035      0.000      -9999.000  -9999.000  -9999.000  0.497      16.877     0.112      2.249      0.112      5088.327  
5112.791   8.500      68.775     0.002      0.001      0.041      1.142      0.032      0.243      0.001      0.001      0.001      0.003      10.174     10.216     8.893      -1.556     0.057      0.388      1.221      2.629      -9999.000  -9999.000  -9999.000  0.547      16.539     0.112      2.266      0.112      5088.479  
5112.944   8.500      63.738     0.001      0.001      0.040      1.096      0.033      0.238      0.001      0.001      0.001      0.003      16.790     16.863     8.893      -1.547     0.101      0.314      2.445      510.371    -9999.000  -9999.000  -9999.000  0.698      15.189     0.112      2.271      0.112      5088.631  
5113.096   8.500      61.536     0.001      0.001      0.039      0.981      0.036      0.234      0.001      0.001      0.001      0.003      56.178     56.425     8.894      -1.522     0.174      0.194      5.073      807.853    -9999.000  -9999.000  -9999.000  0.938      14.509     0.112      2.297      0.112      5088.784  
5113.249   8.500      61.856     0.001      0.001      0.036      0.807      0.043      0.227      0.001      0.001      0.001      0.004      182.690    183.504    8.894      -1.475     0.309      0.083      9.537      10.655     -9999.000  -9999.000  -9999.000  0.940      14.634     0.112      2.307      0.112      5088.936  
5113.401   8.500      63.568     0.000      0.001      0.031      0.567      0.054      0.215      0.001      0.001      0.001      0.005      358.607    360.211    8.894      -1.404     0.486      0.019      14.667     0.243      -9999.000  -9999.000  -9999.000  0.768      13.864     0.112      2.240      0.112      5089.089  
5113.553   8.500      65.878     0.000      0.001      0.022      0.331      0.068      0.199      0.001      0.001      0.001      0.007      422.488    424.369    8.895      -1.237     0.544      0.011      16.303     -9999.000  -9999.000  -9999.000  -9999.000  0.670      11.625     0.112      2.167      0.112      5089.241  
5113.706   8.500      68.979     0.001      0.001      0.012      0.256      0.080      0.177      0.001      0.001      0.001      0.010      306.987    308.342    8.942      -0.925     0.425      0.115      12.943     -9999.000  -9999.000  -9999.000  -9999.000  0.569      8.696      0.113      2.157      0.112      5089.393  
5113.858   8.500      73.541     0.003      0.008      0.006      0.395      0.084      0.156      0.001      0.001      0.001      0.011      141.279    141.882    9.094      -0.591     0.268      0.467      8.191      -9999.000  -9999.000  -9999.000  -9999.000  0.462      6.586      0.113      2.130      0.113      5089.546  
5114.011   8.500      79.660     0.005      0.026      0.006      0.622      0.075      0.140      0.001      0.001      0.001      0.009      49.180     49.382     9.310      -0.326     0.175      1.031      4.553      -9999.000  -9999.000  -9999.000  -9999.000  0.397      5.425      0.115      2.095      0.115      5089.698  
5114.163   8.500      85.836     0.006      0.058      0.010      0.863      0.057      0.130      0.001      0.000      0.005      0.005      23.541     23.637     9.474      -0.142     0.130      1.420      2.362      0.000      -9999.000  -9999.000  -9999.000  0.368      4.896      460.172    2.086      583.181    5089.851  
5114.315   8.500      89.126     0.007      0.099      0.012      1.214      0.036      0.121      0.001      0.000      0.019      0.002      21.399     21.485     9.548      -0.030     0.125      1.497      1.823      0.000      -9999.000  -9999.000  -9999.000  0.340      4.775      7920.823   2.104      10557.324  5090.003  
5114.468   8.500      87.204     0.007      0.133      0.012      1.716      0.018      0.110      0.001      0.000      0.043      0.000      22.354     22.445     9.620      0.039      0.132      1.479      1.859      0.000      -9999.000  -9999.000  -9999.000  0.310      4.852      28540.934  2.139      37615.430  5090.155  
5114.620   8.500      80.449     0.007      0.146      0.009      2.183      0.007      0.101      0.001      0.000      0.066      0.000      23.895     23.990     9.807      0.073      0.146      1.442      1.961      0.000      -9999.000  -9999.000  -9999.000  0.301      4.838      52961.746  2.149      70533.641  5090.308  
5114.773   8.500      71.707     0.007      0.138      0.007      2.449      0.002      0.094      0.001      0.000      0.074      0.000      26.492     26.595     10.310     0.083      0.167      1.346      2.208      0.000      -9999.000  -9999.000  -9999.000  0.312      4.509      66776.125  2.096      135617.172 5090.460  
5114.925   8.500      64.283     0.006      0.123      0.006      2.531      0.001      0.084      0.001      0.000      0.073      0.001      29.891     30.007     11.390     0.089      0.180      1.196      2.524      0.000      -9999.000  -9999.000  -9999.000  0.319      4.010      69952.211  1.990      300000.063 5090.613  
