~Version
 VERS              .         2.0                           : CWLS LOG ASCII STANDARD - VERSION 2.0
 WRAP              .         NO                            : ONE LINE PER DEPTH STEP
 DLM               .         SPACE                         : DELIMITING CHARACTER(SPACE TAB OR COMMA)
~Well Information
#_______________________________________________________________________________
#
#PARAMETER_NAME    .UNIT     VALUE                         : DESCRIPTION
#_______________________________________________________________________________
STRT               .M        2228.000                      : First reference value
STOP               .M        5446.688                      : Last reference value
STEP               .M        0.152                         : Step increment
NULL               .         -9999                         : Missing value
COMP               .         Petrobras                     : Company
WELL               .         8-SPH-13-SPS                  : Well name
FLD                .         Sapinhoa                      : Field
LOC                .                                       : Location
CNTY               .                                       : County
STAT               .         SAO PAULO                     : State
CTRY               .         BRASIL                        : Country
SRVC               .                                       : Service Company
DATE               .                                       : Date
API                .         863160035500                  : API number
APD                .M        24                            : Above Permanent Datum
BHT                .degF     120                           : Bottom Hole Temperature
BLI                .M        5180.5                        : Bottom Log Interval
BS                 .in       12.25x14.75                   : Bit Size
DCS                .         07/04/2014                    : Date Ciculation Stopped
DFD                .lbm/gal  10.1                          : Drilling Fluid Density
DFT                .         BR-MUL                        : Drilling Fluid Type
DLAB               .         08/04/2014                    : Date Logger At Bottom
EDF                .M        24                            : Elevation of Derreck Floor
EGL                .M        -2119                         : Elevation of Ground Level
EKB                .M        -999.25                       : ELEVATION OF KELLY BUSHING
EPD                .M        0                             : Elevation Of Permanent Datum
GDAT               .         SIRGAS2000                    : Geodetic Datum
LMF                .         MR                            : Log Measured From
LUL                .         MCE                           : LOGGING UNIT LOCATION
LUN                .         -999.25                       : LOGGING UNIT NUMBER
LATI               .         -25_42_39.196                 : Latitude
LONG               .         -43_09_15.905                 : Longitude
MCST               .degF     -999.25                       : Mud Cake Sample Temperature
MFST               .degF     -999.25                       : Mud Filtrate Sample Temperature
MRT                .degF     120                           : Maximum Recorded Temperature
MST                .degF     -999.25                       : Mud Sample Temperature
ORIGINALWELLNAME   .         8SPH 0013  SPS                : 
PDAT               .         NM                            : Permanent Datum
PRODUCER-CODE      .         15                            : 
PRODUCER-NAME      .         INTEQ                         : 
RMB                .ohm.m    -999.25                       : RESISTIVITY OF MUD - BHT
RMCS               .ohm.m    -999.25                       : Resistivity Of Mud Cake Sample
RMFS               .ohm.m    -999.25                       : Mud Filtrate Sample Resistivity
RMS                .ohm.m    -999.25                       : Mud Sample Resistivity
RUN                .         1                             : Run
TCS                .h        15_00                         : Time Ciculation Stopped
TDD                .M        5184                          : Total Depht - Driller
TDL                .M        5184                          : Total Depht - Logger
TLAB               .h        11_00                         : Time Logger At Bottom
TLI                .M        3543                          : Top Log Interval
X                  .M        685128.30900000               : X COORDINATE N
Y                  .M        7155027.01100000              : Y COORDINATE E
~Parameter Information Block
#_______________________________________________________________________________
#
#PARAMETER_NAME    .UNIT     VALUE                         : DESCRIPTION
#_______________________________________________________________________________
SET                .         BASE                          : 
TLFamily_DT        .         Compressional Slowness        : 
TLFamily_GR        .         Gamma Ray                     : 
TLFamily_HCAL      .         Caliper                       : 
TLFamily_MD        .         Measured Depth                : 
TLFamily_NMRE_Final .         NMR Bound Fluid Volume Fraction: 
TLFamily_NMRFL_Final .         NMR Free Fluids               : 
TLFamily_NMRT_Final .         NMR Porosity                  : 
TLFamily_NPHI      .         Neutron Porosity              : 
TLFamily_RD        .         Resistivity - Deep            : 
TLFamily_RHOB      .         Bulk Density                  : 
TLFamily_RM        .         Resistivity - Medium          : 
TLFamily_RS        .         Resistivity - Shallow         : 
~Curve Information
#_______________________________________________________________________________
#
#LOGNAME           .UNIT     LOG_ID                        : DESCRIPTION
#_______________________________________________________________________________
DEPTH              .M                                      :  
DT                 .us/ft                                  : SONICO COMPRESSIONAL (COMPOSICAO DE CURVAS CABO E/OU LWD) 
GR                 .gAPI                                   : RAIOS GAMA (COMPOSICAO DE CURVAS CABO E/OU LWD) 
HCAL               .in                                     : CALIPER (COMPOSICAO DE CURVAS CABO E/OU LWD) 
NMRE_Final         .m3/m3                                  : 03/02 - MRIL (HALLIBURTON) - MRIL EFFECTIVE POROSITY 
NMRFL_Final        .unitless                               : 03/02 - MRIL (HALLIBURTON) - FREE FLUID INDEX T2 
NMRT_Final         .frac                                   : 03/02 - MRIL (HALLIBURTON) - MRIAN MRIL TOTAL POROSITY 
NPHI               .frac                                   : POROSIDADE NEUTRONICA (COMPOSICAO DE CURVAS CABO E/OU LWD) 
RD                 .ohm.m                                  : RESISTIVIDADE PROFUNDA (COMPOSICAO DE CURVAS CABO E/OU LWD) 
RHOB               .g/cm3                                  : DENSIDADE (COMPOSICAO DE CURVAS CABO E/OU LWD ) 
RM                 .ohm.m                                  : RESISTIVIDADE MEDIA (COMPOSICAO DE CURVAS CABO E/OU LWD) 
RS                 .ohm.m                                  : RESISTIVIDADE RASA (COMPOSICAO DE CURVAS CABO E/OU LWD) 
~Ascii
# ...
4682.250   68.521     5.551      14.654     -9999.000  -9999.000  -9999.000  -0.031     1452.231   2.048      1544.886   1544.886  
4682.402   68.461     5.133      14.654     -9999.000  -9999.000  -9999.000  -0.031     1449.998   2.039      1544.886   1544.886  
4682.554   68.503     5.186      14.653     -9999.000  -9999.000  -9999.000  -0.030     1456.223   2.031      1493.880   1493.880  
4682.707   68.624     4.906      14.653     -9999.000  -9999.000  -9999.000  -0.031     1469.511   2.031      1314.200   1314.200  
4682.859   68.570     4.532      14.652     -9999.000  -9999.000  -9999.000  -0.031     1466.985   2.030      1246.441   1246.441  
4683.012   68.447     4.686      14.649     -9999.000  -9999.000  -9999.000  -0.031     1453.476   2.026      1354.229   1354.229  
4683.164   68.309     4.707      14.645     -9999.000  -9999.000  -9999.000  -0.031     1446.208   2.024      1354.229   1354.229  
4683.316   68.045     4.423      14.643     -9999.000  -9999.000  -9999.000  -0.031     1437.887   2.024      1354.229   1354.229  
4683.469   67.878     4.874      14.642     -9999.000  -9999.000  -9999.000  -0.031     1421.424   2.021      1407.832   1407.832  
4683.621   67.866     5.421      14.640     -9999.000  -9999.000  -9999.000  -0.030     1414.849   2.018      1490.825   1490.825  
4683.774   68.028     5.391      14.637     -9999.000  -9999.000  -9999.000  -0.030     1419.289   2.018      1408.900   1408.900  
4683.926   68.299     5.056      14.634     -9999.000  -9999.000  -9999.000  -0.030     1432.700   2.020      1489.604   1489.604  
4684.078   68.298     4.874      14.637     -9999.000  -9999.000  -9999.000  -0.030     1462.205   2.025      1354.229   1354.229  
4684.231   68.267     5.000      14.638     -9999.000  -9999.000  -9999.000  -0.030     1486.431   2.029      1354.229   1354.229  
4684.383   68.419     5.226      14.635     -9999.000  -9999.000  -9999.000  -0.030     1513.211   2.027      1411.039   1411.039  
4684.536   68.340     5.490      14.634     -9999.000  -9999.000  -9999.000  -0.030     1522.401   2.028      1544.886   1544.886  
4684.688   68.184     5.418      14.633     -9999.000  -9999.000  -9999.000  -0.031     1527.237   2.035      1487.007   1487.007  
4684.840   68.205     5.816      14.634     -9999.000  -9999.000  -9999.000  -0.031     1531.270   2.040      1354.229   1354.229  
4684.993   68.472     6.491      14.634     -9999.000  -9999.000  -9999.000  -0.031     1543.613   2.044      1308.380   1308.380  
4685.145   68.625     6.160      14.634     -9999.000  -9999.000  -9999.000  -0.030     1555.617   2.047      1205.937   1205.937  
4685.298   68.735     5.706      14.634     -9999.000  -9999.000  -9999.000  -0.029     1574.229   2.048      1205.937   1205.937  
4685.450   68.920     5.730      14.634     -9999.000  -9999.000  -9999.000  -0.029     1589.905   2.048      1205.937   1205.937  
4685.602   68.881     5.481      14.632     -9999.000  -9999.000  -9999.000  -0.029     1621.702   2.047      1252.974   1252.974  
4685.755   68.715     5.527      14.629     -9999.000  -9999.000  -9999.000  -0.030     1645.795   2.042      1306.717   1306.717  
4685.907   68.838     6.302      14.629     -9999.000  -9999.000  -9999.000  -0.030     1671.681   2.037      1167.441   1167.441  
4686.060   69.125     6.440      14.630     -9999.000  -9999.000  -9999.000  -0.029     1672.354   2.033      1086.974   1086.974  
4686.212   69.173     6.114      14.630     -9999.000  -9999.000  -9999.000  -0.029     1644.111   2.031      1237.721   1237.721  
4686.364   68.911     5.897      14.629     -9999.000  -9999.000  -9999.000  -0.029     1607.568   2.030      1627.743   1627.743  
4686.517   68.591     5.858      14.629     -9999.000  -9999.000  -9999.000  -0.029     1557.135   2.033      1529.299   1529.299  
4686.669   68.588     6.626      14.631     -9999.000  -9999.000  -9999.000  -0.029     1464.095   2.037      961.810    961.810   
4686.822   68.731     6.562      14.635     -9999.000  -9999.000  -9999.000  -0.028     1410.949   2.041      1124.613   1124.613  
4686.974   68.622     5.991      14.638     -9999.000  -9999.000  -9999.000  -0.027     1342.367   2.047      1389.371   1389.371  
4687.126   68.282     6.280      14.640     -9999.000  -9999.000  -9999.000  -0.025     1293.481   2.052      1127.757   1127.757  
4687.279   68.121     5.936      14.639     -9999.000  -9999.000  -9999.000  -0.022     1251.599   2.064      1205.937   1205.937  
4687.431   68.156     5.259      14.639     -9999.000  -9999.000  -9999.000  -0.018     1292.459   2.100      1205.937   1205.937  
4687.584   68.314     4.871      14.640     -9999.000  -9999.000  -9999.000  -0.016     1428.458   2.138      1205.937   1205.937  
4687.736   68.343     5.155      14.638     -9999.000  -9999.000  -9999.000  -0.018     1539.828   2.134      1258.438   1258.438  
4687.888   68.392     5.150      14.637     -9999.000  -9999.000  -9999.000  -0.023     1675.239   2.087      1354.229   1354.229  
4688.041   68.277     4.869      14.635     -9999.000  -9999.000  -9999.000  -0.027     1734.824   2.052      1422.797   1422.797  
4688.193   68.171     5.288      14.632     -9999.000  -9999.000  -9999.000  -0.029     1736.536   2.045      1475.707   1475.707  
4688.346   68.232     5.314      14.633     -9999.000  -9999.000  -9999.000  -0.030     1715.957   2.042      1354.229   1354.229  
4688.498   68.121     4.650      14.634     -9999.000  -9999.000  -9999.000  -0.030     1688.836   2.039      1354.229   1354.229  
4688.650   67.925     4.856      14.634     -9999.000  -9999.000  -9999.000  -0.030     1677.380   2.035      1299.709   1299.709  
4688.803   67.817     5.816      14.632     -9999.000  -9999.000  -9999.000  -0.031     1659.814   2.031      1331.638   1331.638  
4688.955   67.842     6.207      14.634     -9999.000  -9999.000  -9999.000  -0.030     1632.566   2.028      1544.886   1544.886  
4689.108   67.943     5.818      14.635     -9999.000  -9999.000  -9999.000  -0.030     1543.935   2.030      1372.499   1372.499  
4689.260   68.071     5.271      14.633     -9999.000  -9999.000  -9999.000  -0.030     1453.745   2.032      1258.994   1258.994  
4689.412   68.195     5.061      14.632     -9999.000  -9999.000  -9999.000  -0.030     1352.584   2.033      1251.792   1251.792  
4689.565   68.331     5.253      14.644     -9999.000  -9999.000  -9999.000  -0.029     1199.564   2.036      739.808    739.808   
4689.717   68.514     4.896      14.651     -9999.000  -9999.000  -9999.000  -0.028     1123.935   2.040      697.015    697.015   
4689.870   68.808     4.699      14.638     -9999.000  -9999.000  -9999.000  -0.027     1072.901   2.041      1045.529   1045.529  
4690.022   68.989     5.261      14.636     -9999.000  -9999.000  -9999.000  -0.026     1114.264   2.042      21297.758  21297.758 
4690.174   68.910     5.718      14.630     -9999.000  -9999.000  -9999.000  -0.025     1271.017   2.041      32366.959  32366.959 
4690.327   68.821     5.992      14.625     -9999.000  -9999.000  -9999.000  -0.023     1404.999   2.037      1369.536   1369.536  
4690.479   68.757     6.491      14.629     -9999.000  -9999.000  -9999.000  -0.019     1540.399   2.043      725.084    725.084   
4690.632   68.595     6.300      14.633     -9999.000  -9999.000  -9999.000  -0.014     1521.592   2.079      871.468    871.468   
4690.784   68.352     5.848      14.633     -9999.000  -9999.000  -9999.000  -0.009     1405.284   2.158      1135.094   1135.094  
4690.936   68.041     5.870      14.632     -9999.000  -9999.000  -9999.000  -0.009     1359.773   2.215      1266.277   1266.277  
4691.089   67.649     6.353      14.631     -9999.000  -9999.000  -9999.000  -0.013     1427.814   2.167      1432.419   1432.419  
4691.241   67.346     6.035      14.628     -9999.000  -9999.000  -9999.000  -0.020     1540.271   2.088      1355.994   1355.994  
4691.394   67.231     4.920      14.627     -9999.000  -9999.000  -9999.000  -0.024     1697.229   2.058      1198.075   1198.075  
