~Version
 VERS              .         2.0                           : CWLS LOG ASCII STANDARD - VERSION 2.0
 WRAP              .         NO                            : ONE LINE PER DEPTH STEP
 DLM               .         SPACE                         : DELIMITING CHARACTER(SPACE TAB OR COMMA)
~Well Information
#_______________________________________________________________________________
#
#PARAMETER_NAME    .UNIT     VALUE                         : DESCRIPTION
#_______________________________________________________________________________
STRT               .M        5038.900                      : First reference value
STOP               .M        5526.275                      : Last reference value
STEP               .M        0.152                         : Step increment
NULL               .         -9999                         : Missing value
COMP               .         PETROBRAS                     : Company
WELL               .         8-SPH-23-SPS                  : Well name
FLD                .         SAPINHOA                      : Field
LOC                .                                       : Location
PROV               .                                       : Province
SRVC               .                                       : Service Company
DATE               .         2021-09-13 11_18_58           : Date
UWI                .         8-SPH-23-SPS                  : Unique Well ID
APD                .M        24.0                          : ABOVE PERMANENT DATUM
API                .         863160047300                  : API Code
BHT                .degF     160                           : BOTTOMHOLE TEMPERATURE
BLI                .M        5511.3                        : BOTTOM LOGGED INTERVAL
BS                 .in       12.25                         : BIT SIZE
CTRY               .         BRASIL                        : Nation
DCS                .         10/04/2016                    : DATE CIRCULATION STOPPED
DFD                .lb/gal   9.4                           : DRILLING FLUID DENSITY
DFT                .         OLEDRILL (BASE OLEFINA)       : DRILLING FLUID TYPE
DLAB               .         12/04/2016                    : DATE LOGGING ON BOTTOM
EDF                .M        24.0                          : ELEVATION OF DRILLING FLOOR
EGL                .M        -2146.0                       : ELEVATION OF GROUND LEVEL
EKB                .M        24.0                          : ELEVATION OF KELLY BUSHING
EPD                .M        0.0                           : ELEVATATION OF PERMANENT DATUM
GDAT               .         SIRGAS2000                    : Geodetic Datum
LMF                .         MR                            : LOG MEASURED FROM
LUL                .         MCE                           : LOGGING UNIT LOCATION
LUN                .         12247255                      : LOGGING UNIT NUMBER
LATI               .         -25_42_01.290                 : Latitude
LONG               .         -43_11_39,303                 : LONGITUDE
MCST               .degF     -999.25                       : MUDCAKE SAMPLE TEMPERATURE
MFST               .degF     -999.25                       : MUD FILTRATE SAMPLE TEMPERATURE
MRT                .degF     160.0                         : MAXIMUM RECORDED TEMPERATURE
MST                .degF     -999.25                       : MUD SAMPLE TEMPERATURE
ORIGINALWELLNAME   .         8SPH 0023  SPS                : 
PDAT               .         NM                            : PERMANENT DATUM
PRODUCER-CODE      .         280                           : 
PRODUCER-NAME      .         Halliburton                   : 
RMB                .ohm.m    -999.25                       : RESISTIVITY OF MUD - BHT
RMCS               .ohm.m    -999.25                       : RESISTIVITY OF MUDCAKE SAMPLE
RMFS               .ohm.m    -999.25                       : RESISTIVITY OF MUD FILTRATE SAMPLE
RMS                .ohm.m    -999.25                       : RESISTIVITY OF MUD SAMPLE
RUN                .         02                            : RUN NUMBER 1
STAT               .         SAO PAULO                     : STATE
TCS                .h        03_30                         : TIME CIRCULATION STOPPED
TDD                .M        5517.0                        : DRILLERS DEPTH
TDL                .M        5520.0                        : LOGGERS DEPTH
TLAB               .h        07_30                         : TIME LOGGING ON BOTTOM
TLI                .M        5070.0                        : TOP LOGGED INTERVAL
X                  .M        681190.00000000               : X UTM Coordinate
Y                  .M        7156260.00000000              : Y UTM Coordinate
~Parameter Information Block
#_______________________________________________________________________________
#
#PARAMETER_NAME    .UNIT     VALUE                         : DESCRIPTION
#_______________________________________________________________________________
SET                .         BASE                          : 
TLFamily_BS        .         Bit Size                      : 
TLFamily_DT        .         Compressional Slowness        : 
TLFamily_DWAL      .         Aluminum Weight Fraction      : 
TLFamily_DWCA      .         Calcium Weight Fraction       : 
TLFamily_DWFE      .         Iron Weight Fraction          : 
TLFamily_DWK       .         Potassium Weight Fraction     : 
TLFamily_DWMG      .         Magnesium Weight Fraction     : 
TLFamily_DWMN      .         Manganese Weight Fraction     : 
TLFamily_DWS       .         Sulfur Weight Fraction        : 
TLFamily_DWSI      .         Silicon Weight Fraction       : 
TLFamily_DWTI      .         Titanium Weight Fraction      : 
TLFamily_GR        .         Gamma Ray                     : 
TLFamily_GRt       .         Gamma Ray                     : 
TLFamily_HCAL      .         Caliper                       : 
TLFamily_HFK       .         Potassium Concentration       : 
TLFamily_HTHO      .         Thorium Concentration         : 
TLFamily_HURA      .         Uranium Concentration         : 
TLFamily_MD        .         Measured Depth                : 
TLFamily_MPERM     .         NMR Permeability              : 
TLFamily_NMRE_Final .         NMR Bound Fluid Volume Fraction: 
TLFamily_NMRFL_Final .         NMR Free Fluids               : 
TLFamily_NMRT_Final .         NMR Porosity                  : 
TLFamily_NPHI      .         Neutron Porosity              : 
TLFamily_PE        .         Photoelectric Factor          : 
TLFamily_RD        .         Resistivity - Deep            : 
TLFamily_RHOB      .         Bulk Density                  : 
TLFamily_RM        .         Resistivity - Medium          : 
TLFamily_RS        .         Resistivity - Shallow         : 
TLFamily_T2LM      .         NMR T2 Logarithmic Mean       : 
TLFamily_TVDSS     .         True Vertical Depth Sub Sea   : 
~Curve Information
#_______________________________________________________________________________
#
#LOGNAME           .UNIT     LOG_ID                        : DESCRIPTION
#_______________________________________________________________________________
DEPTH              .M                                      :  
BS                 .in                                     : BS/Bit Size 
DT                 .us/ft                                  : DTC/MonoDeltaT 
DWAL               .kg/kg                                  : DAL/DryrockAlWF 
DWCA               .kg/kg                                  : DCA/DryrockCaWF 
DWFE               .kg/kg                                  : DFE/DryrockFeWF 
DWK                .kg/kg                                  : DK/DryrockKWF 
DWMG               .kg/kg                                  : DMG/DryrockMgWF 
DWMN               .kg/kg                                  : DMN/DryrockMnWF 
DWS                .kg/kg                                  : DSUL/DryrockSuWF 
DWSI               .kg/kg                                  : DSI/DryrockSiWF 
DWTI               .kg/kg                                  : DTI/DryrockTiWF 
GR                 .gAPI                                   : GR/Gamma API 
GRt                .gAPI                                   : GKUT/GammaKUT 
HCAL               .in                                     : CALI/Caliper 
HFK                .%                                      : POTA/Potassium 
HTHO               .ppm                                    : THOR/Thorium 
HURA               .ppm                                    : URAN/Uranium 
MPERM              .mD                                     : MPERMT2/MrilT2KCoat 
NMRE_Final         .m3/m3                                  : MPHIT2/TA-grp T2 Effective Por 
NMRFL_Final        .unitless                               : MFFIT2/TA-grp T2 FreeFluid Ind 
NMRT_Final         .frac                                   : MSIGT2/TA-grp T2 Total Por. 
NPHI               .frac                                   : POROSIDADE NEUTRONICA (COMPOSICAO DE CURVAS CABO E/OU LWD) 
PE                 .b/e                                    : Density PE Filtered 
RD                 .ohm.m                                  : RT90/90in Resistivity 2ft Res 
RHOB               .g/cm3                                  : DENSIDADE (COMPOSICAO DE CURVAS CABO E/OU LWD ) 
RM                 .ohm.m                                  : RT30/30in Resistivity 2ft Res 
RS                 .ohm.m                                  : RT10/10in Resistivity 2ft Res 
T2LM               .ms                                     : T2LM/T2 Log Mean 
TVDSS              .M                                      :  
~Ascii
# ...
5377.990   12.250     54.978     0.017      0.198      0.005      0.021      0.024      0.001      0.009      0.162      0.000      36.480     44.355     12.428     0.107      1.482      4.212      0.067      0.046      0.025      0.054      0.065      8.650      33.210     2.557      41.844     56.455     52.681     5319.557  
5378.142   12.250     54.958     0.017      0.180      0.005      0.021      0.021      0.001      0.009      0.188      0.000      34.767     42.533     12.446     0.112      1.327      4.056      0.024      0.045      0.019      0.050      0.060      8.517      36.928     2.557      48.406     67.514     57.171     5319.710  
5378.295   12.250     55.198     0.015      0.160      0.004      0.018      0.033      0.001      0.010      0.197      0.000      33.215     40.980     12.436     0.139      1.175      3.894      0.011      0.044      0.015      0.051      0.059      8.450      38.396     2.554      51.328     72.361     47.112     5319.862  
5378.447   12.250     55.617     0.013      0.137      0.002      0.017      0.026      0.001      0.013      0.236      0.000      31.151     39.121     12.437     0.160      0.865      3.763      0.011      0.047      0.013      0.060      0.069      8.484      39.223     2.533      53.642     76.294     36.547     5320.014  
5378.599   12.250     56.073     0.014      0.129      0.002      0.018      0.013      0.001      0.014      0.264      0.000      30.826     38.523     12.411     0.152      0.645      3.791      0.021      0.052      0.016      0.066      0.092      8.550      38.121     2.482      52.192     73.717     39.582     5320.167  
5378.752   12.250     57.465     0.015      0.121      0.002      0.019      0.000      0.000      0.013      0.294      0.000      28.252     38.563     12.337     0.127      0.326      3.955      0.079      0.054      0.026      0.066      0.102      8.565      32.814     2.460      43.580     58.851     45.056     5320.319  
5378.904   12.250     59.014     0.015      0.117      0.002      0.019      0.000      0.000      0.012      0.300      0.001      26.674     39.249     12.277     0.101      0.291      4.088      0.132      0.055      0.030      0.067      0.102      8.345      29.188     2.465      37.857     49.585     43.228     5320.471  
5379.057   12.250     59.403     0.016      0.120      0.002      0.020      0.000      0.000      0.010      0.296      0.001      30.591     41.194     12.272     0.088      0.532      4.240      0.064      0.060      0.024      0.069      0.091      8.102      25.715     2.499      32.773     41.917     39.790     5320.624  
5379.209   12.250     59.662     0.018      0.126      0.002      0.023      0.000      0.000      0.008      0.287      0.001      35.394     42.759     12.278     0.083      0.736      4.348      0.020      0.064      0.016      0.070      0.075      7.866      24.980     2.531      31.925     40.819     38.903     5320.776  
5379.361   12.250     59.262     0.020      0.136      0.002      0.024      0.000      0.000      0.003      0.276      0.001      38.615     44.621     12.297     0.093      1.106      4.404      0.007      0.060      0.011      0.066      0.072      7.556      25.631     2.539      33.532     43.781     36.598     5320.928  
5379.514   12.250     58.913     0.020      0.143      0.002      0.024      0.000      0.000      0.000      0.270      0.001      38.833     45.909     12.339     0.112      1.302      4.442      0.004      0.052      0.010      0.059      0.071      7.175      26.755     2.541      36.022     48.442     35.019     5321.081  
5379.666   12.250     58.018     0.019      0.149      0.002      0.023      0.003      0.000      0.000      0.260      0.000      38.581     46.667     12.367     0.139      1.272      4.492      0.008      0.048      0.013      0.053      0.075      6.951      26.530     2.536      36.279     49.681     38.501     5321.233  
5379.819   12.250     57.868     0.018      0.151      0.002      0.023      0.004      0.000      0.000      0.256      0.000      38.086     46.868     12.401     0.163      1.176      4.507      0.020      0.050      0.018      0.054      0.081      7.011      24.755     2.525      33.539     45.478     44.584     5321.385  
5379.971   12.250     57.856     0.018      0.146      0.003      0.022      0.003      0.000      0.000      0.263      0.000      37.978     47.064     12.388     0.172      0.879      4.622      0.016      0.058      0.016      0.060      0.082      7.313      21.734     2.512      28.638     37.631     48.940     5321.538  
5380.123   12.250     58.368     0.017      0.142      0.002      0.021      0.000      0.000      0.001      0.274      0.000      37.621     46.766     12.318     0.161      0.708      4.669      0.010      0.066      0.012      0.067      0.080      7.690      20.470     2.504      26.735     34.828     52.683     5321.690  
5380.276   12.250     59.274     0.015      0.134      0.002      0.019      0.001      0.000      0.004      0.282      0.000      33.275     45.453     12.288     0.112      0.713      4.606      0.019      0.069      0.015      0.073      0.080      7.894      21.568     2.501      28.933     39.248     52.126     5321.842  
5380.428   12.250     60.155     0.015      0.127      0.002      0.018      0.001      0.000      0.006      0.290      0.000      29.671     43.689     12.285     0.070      0.791      4.455      0.069      0.069      0.024      0.075      0.079      7.910      23.143     2.497      32.037     45.811     48.903     5321.995  
5380.581   12.250     60.517     0.013      0.115      0.001      0.017      0.000      0.000      0.008      0.307      0.000      27.540     40.575     12.293     0.039      1.156      4.028      0.153      0.069      0.031      0.075      0.080      7.854      24.166     2.489      34.251     51.666     47.269     5322.147  
5380.733   12.250     60.521     0.013      0.105      0.001      0.016      0.000      0.000      0.008      0.321      0.000      26.427     38.358     12.280     0.046      1.393      3.683      0.143      0.070      0.030      0.076      0.082      7.829      24.129     2.482      34.299     52.530     49.580     5322.299  
5380.885   12.250     60.356     0.012      0.095      0.001      0.015      0.000      0.000      0.008      0.333      0.000      25.829     36.600     12.260     0.069      1.490      3.411      0.092      0.071      0.026      0.080      0.083      7.915      23.976     2.474      34.066     52.413     54.466     5322.452  
5381.038   12.250     60.608     0.013      0.083      0.000      0.017      0.000      0.000      0.007      0.346      0.000      25.511     34.013     12.206     0.123      1.403      3.062      0.100      0.076      0.026      0.085      0.086      8.029      24.470     2.465      35.159     55.059     62.221     5322.604  
5381.190   12.250     60.772     0.015      0.077      0.000      0.019      0.000      0.000      0.006      0.351      0.001      24.941     32.780     12.187     0.149      1.175      2.963      0.260      0.083      0.035      0.091      0.087      8.030      25.482     2.459      37.330     60.098     73.916     5322.756  
5381.343   12.250     62.278     0.021      0.066      0.000      0.026      0.000      0.000      0.003      0.357      0.001      22.204     30.762     12.196     0.185      0.760      2.828      0.521      0.089      0.042      0.095      0.088      7.925      27.291     2.457      41.501     69.918     73.605     5322.909  
5381.495   12.250     64.349     0.023      0.061      0.000      0.028      0.000      0.000      0.001      0.360      0.001      21.250     29.742     12.169     0.190      0.550      2.782      0.770      0.092      0.047      0.100      0.092      7.821      27.690     2.449      42.621     71.750     62.593     5323.061  
5381.647   12.250     65.248     0.026      0.053      0.000      0.032      0.000      0.000      0.000      0.366      0.002      22.407     29.172     12.151     0.201      0.470      2.729      1.020      0.093      0.050      0.113      0.097      7.728      27.481     2.429      42.658     69.594     41.290     5323.213  
