~Version
 VERS              .         2.0                           : CWLS LOG ASCII STANDARD - VERSION 2.0
 WRAP              .         NO                            : ONE LINE PER DEPTH STEP
 DLM               .         SPACE                         : DELIMITING CHARACTER(SPACE TAB OR COMMA)
~Well Information
#_______________________________________________________________________________
#
#PARAMETER_NAME    .UNIT     VALUE                         : DESCRIPTION
#_______________________________________________________________________________
STRT               .M        5038.900                      : First reference value
STOP               .M        5526.275                      : Last reference value
STEP               .M        0.152                         : Step increment
NULL               .         -9999                         : Missing value
COMP               .         PETROBRAS                     : Company
WELL               .         8-SPH-23-SPS                  : Well name
FLD                .         SAPINHOA                      : Field
LOC                .                                       : Location
PROV               .                                       : Province
SRVC               .                                       : Service Company
DATE               .         2021-09-13 11_18_58           : Date
UWI                .         8-SPH-23-SPS                  : Unique Well ID
APD                .M        24.0                          : ABOVE PERMANENT DATUM
API                .         863160047300                  : API Code
BHT                .degF     160                           : BOTTOMHOLE TEMPERATURE
BLI                .M        5511.3                        : BOTTOM LOGGED INTERVAL
BS                 .in       12.25                         : BIT SIZE
CTRY               .         BRASIL                        : Nation
DCS                .         10/04/2016                    : DATE CIRCULATION STOPPED
DFD                .lb/gal   9.4                           : DRILLING FLUID DENSITY
DFT                .         OLEDRILL (BASE OLEFINA)       : DRILLING FLUID TYPE
DLAB               .         12/04/2016                    : DATE LOGGING ON BOTTOM
EDF                .M        24.0                          : ELEVATION OF DRILLING FLOOR
EGL                .M        -2146.0                       : ELEVATION OF GROUND LEVEL
EKB                .M        24.0                          : ELEVATION OF KELLY BUSHING
EPD                .M        0.0                           : ELEVATATION OF PERMANENT DATUM
GDAT               .         SIRGAS2000                    : Geodetic Datum
LMF                .         MR                            : LOG MEASURED FROM
LUL                .         MCE                           : LOGGING UNIT LOCATION
LUN                .         12247255                      : LOGGING UNIT NUMBER
LATI               .         -25_42_01.290                 : Latitude
LONG               .         -43_11_39,303                 : LONGITUDE
MCST               .degF     -999.25                       : MUDCAKE SAMPLE TEMPERATURE
MFST               .degF     -999.25                       : MUD FILTRATE SAMPLE TEMPERATURE
MRT                .degF     160.0                         : MAXIMUM RECORDED TEMPERATURE
MST                .degF     -999.25                       : MUD SAMPLE TEMPERATURE
ORIGINALWELLNAME   .         8SPH 0023  SPS                : 
PDAT               .         NM                            : PERMANENT DATUM
PRODUCER-CODE      .         280                           : 
PRODUCER-NAME      .         Halliburton                   : 
RMB                .ohm.m    -999.25                       : RESISTIVITY OF MUD - BHT
RMCS               .ohm.m    -999.25                       : RESISTIVITY OF MUDCAKE SAMPLE
RMFS               .ohm.m    -999.25                       : RESISTIVITY OF MUD FILTRATE SAMPLE
RMS                .ohm.m    -999.25                       : RESISTIVITY OF MUD SAMPLE
RUN                .         02                            : RUN NUMBER 1
STAT               .         SAO PAULO                     : STATE
TCS                .h        03_30                         : TIME CIRCULATION STOPPED
TDD                .M        5517.0                        : DRILLERS DEPTH
TDL                .M        5520.0                        : LOGGERS DEPTH
TLAB               .h        07_30                         : TIME LOGGING ON BOTTOM
TLI                .M        5070.0                        : TOP LOGGED INTERVAL
X                  .M        681190.00000000               : X UTM Coordinate
Y                  .M        7156260.00000000              : Y UTM Coordinate
~Parameter Information Block
#_______________________________________________________________________________
#
#PARAMETER_NAME    .UNIT     VALUE                         : DESCRIPTION
#_______________________________________________________________________________
SET                .         BASE                          : 
TLFamily_BS        .         Bit Size                      : 
TLFamily_DT        .         Compressional Slowness        : 
TLFamily_DWAL      .         Aluminum Weight Fraction      : 
TLFamily_DWCA      .         Calcium Weight Fraction       : 
TLFamily_DWFE      .         Iron Weight Fraction          : 
TLFamily_DWK       .         Potassium Weight Fraction     : 
TLFamily_DWMG      .         Magnesium Weight Fraction     : 
TLFamily_DWMN      .         Manganese Weight Fraction     : 
TLFamily_DWS       .         Sulfur Weight Fraction        : 
TLFamily_DWSI      .         Silicon Weight Fraction       : 
TLFamily_DWTI      .         Titanium Weight Fraction      : 
TLFamily_GR        .         Gamma Ray                     : 
TLFamily_GRt       .         Gamma Ray                     : 
TLFamily_HCAL      .         Caliper                       : 
TLFamily_HFK       .         Potassium Concentration       : 
TLFamily_HTHO      .         Thorium Concentration         : 
TLFamily_HURA      .         Uranium Concentration         : 
TLFamily_MD        .         Measured Depth                : 
TLFamily_MPERM     .         NMR Permeability              : 
TLFamily_NMRE_Final .         NMR Bound Fluid Volume Fraction: 
TLFamily_NMRFL_Final .         NMR Free Fluids               : 
TLFamily_NMRT_Final .         NMR Porosity                  : 
TLFamily_NPHI      .         Neutron Porosity              : 
TLFamily_PE        .         Photoelectric Factor          : 
TLFamily_RD        .         Resistivity - Deep            : 
TLFamily_RHOB      .         Bulk Density                  : 
TLFamily_RM        .         Resistivity - Medium          : 
TLFamily_RS        .         Resistivity - Shallow         : 
TLFamily_T2LM      .         NMR T2 Logarithmic Mean       : 
TLFamily_TVDSS     .         True Vertical Depth Sub Sea   : 
~Curve Information
#_______________________________________________________________________________
#
#LOGNAME           .UNIT     LOG_ID                        : DESCRIPTION
#_______________________________________________________________________________
DEPTH              .M                                      :  
BS                 .in                                     : BS/Bit Size 
DT                 .us/ft                                  : DTC/MonoDeltaT 
DWAL               .kg/kg                                  : DAL/DryrockAlWF 
DWCA               .kg/kg                                  : DCA/DryrockCaWF 
DWFE               .kg/kg                                  : DFE/DryrockFeWF 
DWK                .kg/kg                                  : DK/DryrockKWF 
DWMG               .kg/kg                                  : DMG/DryrockMgWF 
DWMN               .kg/kg                                  : DMN/DryrockMnWF 
DWS                .kg/kg                                  : DSUL/DryrockSuWF 
DWSI               .kg/kg                                  : DSI/DryrockSiWF 
DWTI               .kg/kg                                  : DTI/DryrockTiWF 
GR                 .gAPI                                   : GR/Gamma API 
GRt                .gAPI                                   : GKUT/GammaKUT 
HCAL               .in                                     : CALI/Caliper 
HFK                .%                                      : POTA/Potassium 
HTHO               .ppm                                    : THOR/Thorium 
HURA               .ppm                                    : URAN/Uranium 
MPERM              .mD                                     : MPERMT2/MrilT2KCoat 
NMRE_Final         .m3/m3                                  : MPHIT2/TA-grp T2 Effective Por 
NMRFL_Final        .unitless                               : MFFIT2/TA-grp T2 FreeFluid Ind 
NMRT_Final         .frac                                   : MSIGT2/TA-grp T2 Total Por. 
NPHI               .frac                                   : POROSIDADE NEUTRONICA (COMPOSICAO DE CURVAS CABO E/OU LWD) 
PE                 .b/e                                    : Density PE Filtered 
RD                 .ohm.m                                  : RT90/90in Resistivity 2ft Res 
RHOB               .g/cm3                                  : DENSIDADE (COMPOSICAO DE CURVAS CABO E/OU LWD ) 
RM                 .ohm.m                                  : RT30/30in Resistivity 2ft Res 
RS                 .ohm.m                                  : RT10/10in Resistivity 2ft Res 
T2LM               .ms                                     : T2LM/T2 Log Mean 
TVDSS              .M                                      :  
~Ascii
# ...
5137.960   12.250     66.960     0.021      0.344      0.001      0.026      0.000      0.000      0.000      0.032      0.001      13.654     16.188     12.040     0.385      0.582      0.924      2168.350   0.156      0.150      0.157      0.168      6.688      1403.140   2.429      1152.512   1061.717   613.092    5079.571  
5138.112   12.250     67.659     0.021      0.347      0.001      0.025      0.000      0.000      0.000      0.030      0.001      13.624     16.348     12.042     0.452      0.627      0.808      1319.138   0.172      0.160      0.173      0.178      6.715      1563.161   2.409      1297.200   1141.091   628.805    5079.724  
5138.265   12.250     69.180     0.020      0.347      0.000      0.024      0.000      0.000      0.000      0.031      0.001      13.972     16.675     12.043     0.505      0.673      0.736      1164.005   0.188      0.171      0.189      0.195      6.794      1725.742   2.372      1472.119   1252.306   647.238    5079.876  
5138.417   12.250     71.508     0.020      0.347      0.000      0.024      0.000      0.000      0.000      0.032      0.001      15.069     16.992     12.038     0.534      0.691      0.716      2340.378   0.205      0.189      0.205      0.211      6.853      1850.057   2.336      1622.991   1359.146   649.770    5080.028  
5138.569   12.250     72.553     0.019      0.351      0.000      0.023      0.000      0.000      0.000      0.029      0.001      15.050     17.165     12.049     0.504      0.656      0.799      6186.493   0.213      0.201      0.213      0.218      6.897      1960.914   2.308      1782.515   1499.662   656.624    5080.181  
5138.722   12.250     74.819     0.018      0.354      0.000      0.023      0.000      0.000      0.000      0.026      0.002      14.181     17.447     12.045     0.459      0.616      0.923      7907.950   0.216      0.209      0.216      0.225      6.883      2000.000   2.283      1882.478   1619.908   700.804    5080.333  
5138.874   12.250     76.235     0.018      0.355      0.000      0.022      0.000      0.000      0.000      0.025      0.002      14.103     17.382     12.053     0.381      0.587      1.062      8130.641   0.218      0.211      0.218      0.230      6.822      2000.000   2.264      1932.134   1720.607   735.646    5080.486  
5139.027   12.250     76.981     0.018      0.356      0.000      0.022      0.000      0.000      0.000      0.024      0.002      14.840     17.240     12.050     0.332      0.599      1.125      8629.527   0.221      0.214      0.221      0.233      6.782      2000.000   2.253      1952.591   1774.526   742.117    5080.638  
5139.179   12.250     77.905     0.017      0.361      0.000      0.021      0.000      0.000      0.000      0.019      0.002      14.911     17.280     12.044     0.296      0.661      1.171      9281.430   0.224      0.217      0.225      0.235      6.781      2000.000   2.244      1962.510   1812.197   715.413    5080.790  
5139.331   12.250     78.007     0.017      0.365      0.000      0.021      0.000      0.000      0.000      0.016      0.001      14.807     17.296     12.050     0.276      0.698      1.193      9454.554   0.224      0.218      0.229      0.235      6.815      2000.000   2.241      1964.880   1827.374   657.237    5080.943  
5139.484   12.250     78.106     0.016      0.369      0.000      0.020      0.000      0.000      0.000      0.012      0.001      14.948     17.484     12.048     0.267      0.698      1.230      6658.248   0.225      0.218      0.232      0.236      6.887      2000.000   2.241      1963.996   1832.110   627.373    5081.095  
5139.636   12.250     78.003     0.014      0.376      0.000      0.018      0.000      0.000      0.000      0.006      0.001      15.569     18.766     12.036     0.255      0.683      1.399      5312.727   0.228      0.215      0.231      0.236      7.081      2000.000   2.242      1957.383   1825.777   668.141    5081.248  
5139.789   12.250     77.810     0.014      0.378      0.000      0.017      0.000      0.000      0.000      0.005      0.001      16.783     19.689     12.030     0.261      0.668      1.497      5523.683   0.228      0.213      0.228      0.235      7.233      2000.000   2.243      1950.253   1814.403   695.262    5081.400  
5139.941   12.250     77.701     0.015      0.379      0.000      0.018      0.000      0.000      0.000      0.002      0.001      19.524     21.919     12.030     0.277      0.541      1.763      4864.243   0.227      0.211      0.227      0.233      7.284      1969.495   2.245      1908.518   1768.952   670.975    5081.552  
5140.093   12.250     77.456     0.015      0.380      0.000      0.018      0.000      0.000      0.002      0.000      0.001      20.407     23.511     12.036     0.277      0.487      1.960      3271.424   0.226      0.208      0.226      0.230      7.246      1927.803   2.248      1862.690   1725.424   638.388    5081.705  
5140.246   12.250     77.321     0.013      0.381      0.000      0.016      0.000      0.000      0.004      0.000      0.001      20.417     26.191     12.034     0.278      0.397      2.291      1671.546   0.226      0.202      0.228      0.227      7.134      1837.031   2.251      1764.201   1633.755   571.574    5081.857  
5140.398   12.250     77.182     0.013      0.381      0.000      0.016      0.000      0.000      0.005      0.000      0.001      21.101     27.833     12.031     0.253      0.371      2.525      1205.309   0.226      0.201      0.232      0.224      7.077      1767.636   2.254      1690.582   1567.937   485.559    5082.010  
5140.551   12.250     76.468     0.014      0.379      0.000      0.017      0.000      0.000      0.007      0.000      0.001      23.044     30.332     12.038     0.201      0.506      2.845      1089.950   0.227      0.201      0.235      0.221      7.048      1615.408   2.256      1535.703   1439.017   404.332    5082.162  
5140.703   12.250     76.207     0.012      0.379      0.000      0.015      0.000      0.000      0.008      0.002      0.001      23.978     31.187     12.027     0.186      0.642      2.916      912.238    0.225      0.199      0.235      0.218      7.025      1519.923   2.258      1449.911   1375.052   362.437    5082.314  
5140.855   12.250     75.152     0.012      0.378      0.000      0.016      0.000      0.000      0.005      0.004      0.001      25.209     31.358     12.034     0.188      0.911      2.834      687.091    0.216      0.191      0.229      0.214      7.037      1373.294   2.265      1335.624   1301.155   329.204    5082.467  
5141.008   12.250     73.213     0.013      0.370      0.000      0.017      0.004      0.000      0.003      0.006      0.001      25.285     30.775     12.029     0.199      1.019      2.711      638.791    0.203      0.183      0.217      0.208      7.047      1280.062   2.281      1266.094   1257.395   324.327    5082.619  
5141.160   12.250     71.779     0.015      0.349      0.000      0.019      0.015      0.000      0.001      0.012      0.001      23.664     28.859     12.031     0.212      1.057      2.461      665.915    0.190      0.173      0.199      0.199      6.986      1145.859   2.305      1172.681   1205.992   339.300    5082.772  
5141.313   12.250     69.707     0.015      0.332      0.000      0.019      0.021      0.000      0.001      0.021      0.001      21.534     26.738     12.030     0.224      1.032      2.213      464.314    0.177      0.157      0.180      0.188      6.909      1017.075   2.334      1079.798   1150.383   347.227    5082.924  
5141.465   12.250     67.791     0.017      0.335      0.000      0.021      0.010      0.000      0.000      0.034      0.001      20.176     24.534     12.029     0.208      1.036      1.994      300.011    0.161      0.141      0.162      0.177      6.850      832.745    2.361      927.702    1047.762   345.168    5083.076  
5141.617   12.250     66.356     0.018      0.335      0.000      0.022      0.003      0.000      0.001      0.043      0.001      19.454     22.912     12.022     0.203      1.112      1.795      226.118    0.142      0.125      0.142      0.166      6.813      644.622    2.387      751.029    903.836    318.884    5083.229  
