~Version
 VERS              .         2.0                           : CWLS LOG ASCII STANDARD - VERSION 2.0
 WRAP              .         NO                            : ONE LINE PER DEPTH STEP
 DLM               .         SPACE                         : DELIMITING CHARACTER(SPACE TAB OR COMMA)
~Well Information
#_______________________________________________________________________________
#
#PARAMETER_NAME    .UNIT     VALUE                         : DESCRIPTION
#_______________________________________________________________________________
STRT               .M        5038.900                      : First reference value
STOP               .M        5526.275                      : Last reference value
STEP               .M        0.152                         : Step increment
NULL               .         -9999                         : Missing value
COMP               .         PETROBRAS                     : Company
WELL               .         8-SPH-23-SPS                  : Well name
FLD                .         SAPINHOA                      : Field
LOC                .                                       : Location
PROV               .                                       : Province
SRVC               .                                       : Service Company
DATE               .         2021-09-13 11_18_58           : Date
UWI                .         8-SPH-23-SPS                  : Unique Well ID
APD                .M        24.0                          : ABOVE PERMANENT DATUM
API                .         863160047300                  : API Code
BHT                .degF     160                           : BOTTOMHOLE TEMPERATURE
BLI                .M        5511.3                        : BOTTOM LOGGED INTERVAL
BS                 .in       12.25                         : BIT SIZE
CTRY               .         BRASIL                        : Nation
DCS                .         10/04/2016                    : DATE CIRCULATION STOPPED
DFD                .lb/gal   9.4                           : DRILLING FLUID DENSITY
DFT                .         OLEDRILL (BASE OLEFINA)       : DRILLING FLUID TYPE
DLAB               .         12/04/2016                    : DATE LOGGING ON BOTTOM
EDF                .M        24.0                          : ELEVATION OF DRILLING FLOOR
EGL                .M        -2146.0                       : ELEVATION OF GROUND LEVEL
EKB                .M        24.0                          : ELEVATION OF KELLY BUSHING
EPD                .M        0.0                           : ELEVATATION OF PERMANENT DATUM
GDAT               .         SIRGAS2000                    : Geodetic Datum
LMF                .         MR                            : LOG MEASURED FROM
LUL                .         MCE                           : LOGGING UNIT LOCATION
LUN                .         12247255                      : LOGGING UNIT NUMBER
LATI               .         -25_42_01.290                 : Latitude
LONG               .         -43_11_39,303                 : LONGITUDE
MCST               .degF     -999.25                       : MUDCAKE SAMPLE TEMPERATURE
MFST               .degF     -999.25                       : MUD FILTRATE SAMPLE TEMPERATURE
MRT                .degF     160.0                         : MAXIMUM RECORDED TEMPERATURE
MST                .degF     -999.25                       : MUD SAMPLE TEMPERATURE
ORIGINALWELLNAME   .         8SPH 0023  SPS                : 
PDAT               .         NM                            : PERMANENT DATUM
PRODUCER-CODE      .         280                           : 
PRODUCER-NAME      .         Halliburton                   : 
RMB                .ohm.m    -999.25                       : RESISTIVITY OF MUD - BHT
RMCS               .ohm.m    -999.25                       : RESISTIVITY OF MUDCAKE SAMPLE
RMFS               .ohm.m    -999.25                       : RESISTIVITY OF MUD FILTRATE SAMPLE
RMS                .ohm.m    -999.25                       : RESISTIVITY OF MUD SAMPLE
RUN                .         02                            : RUN NUMBER 1
STAT               .         SAO PAULO                     : STATE
TCS                .h        03_30                         : TIME CIRCULATION STOPPED
TDD                .M        5517.0                        : DRILLERS DEPTH
TDL                .M        5520.0                        : LOGGERS DEPTH
TLAB               .h        07_30                         : TIME LOGGING ON BOTTOM
TLI                .M        5070.0                        : TOP LOGGED INTERVAL
X                  .M        681190.00000000               : X UTM Coordinate
Y                  .M        7156260.00000000              : Y UTM Coordinate
~Parameter Information Block
#_______________________________________________________________________________
#
#PARAMETER_NAME    .UNIT     VALUE                         : DESCRIPTION
#_______________________________________________________________________________
SET                .         BASE                          : 
TLFamily_BS        .         Bit Size                      : 
TLFamily_DT        .         Compressional Slowness        : 
TLFamily_DWAL      .         Aluminum Weight Fraction      : 
TLFamily_DWCA      .         Calcium Weight Fraction       : 
TLFamily_DWFE      .         Iron Weight Fraction          : 
TLFamily_DWK       .         Potassium Weight Fraction     : 
TLFamily_DWMG      .         Magnesium Weight Fraction     : 
TLFamily_DWMN      .         Manganese Weight Fraction     : 
TLFamily_DWS       .         Sulfur Weight Fraction        : 
TLFamily_DWSI      .         Silicon Weight Fraction       : 
TLFamily_DWTI      .         Titanium Weight Fraction      : 
TLFamily_GR        .         Gamma Ray                     : 
TLFamily_GRt       .         Gamma Ray                     : 
TLFamily_HCAL      .         Caliper                       : 
TLFamily_HFK       .         Potassium Concentration       : 
TLFamily_HTHO      .         Thorium Concentration         : 
TLFamily_HURA      .         Uranium Concentration         : 
TLFamily_MD        .         Measured Depth                : 
TLFamily_MPERM     .         NMR Permeability              : 
TLFamily_NMRE_Final .         NMR Bound Fluid Volume Fraction: 
TLFamily_NMRFL_Final .         NMR Free Fluids               : 
TLFamily_NMRT_Final .         NMR Porosity                  : 
TLFamily_NPHI      .         Neutron Porosity              : 
TLFamily_PE        .         Photoelectric Factor          : 
TLFamily_RD        .         Resistivity - Deep            : 
TLFamily_RHOB      .         Bulk Density                  : 
TLFamily_RM        .         Resistivity - Medium          : 
TLFamily_RS        .         Resistivity - Shallow         : 
TLFamily_T2LM      .         NMR T2 Logarithmic Mean       : 
TLFamily_TVDSS     .         True Vertical Depth Sub Sea   : 
~Curve Information
#_______________________________________________________________________________
#
#LOGNAME           .UNIT     LOG_ID                        : DESCRIPTION
#_______________________________________________________________________________
DEPTH              .M                                      :  
BS                 .in                                     : BS/Bit Size 
DT                 .us/ft                                  : DTC/MonoDeltaT 
DWAL               .kg/kg                                  : DAL/DryrockAlWF 
DWCA               .kg/kg                                  : DCA/DryrockCaWF 
DWFE               .kg/kg                                  : DFE/DryrockFeWF 
DWK                .kg/kg                                  : DK/DryrockKWF 
DWMG               .kg/kg                                  : DMG/DryrockMgWF 
DWMN               .kg/kg                                  : DMN/DryrockMnWF 
DWS                .kg/kg                                  : DSUL/DryrockSuWF 
DWSI               .kg/kg                                  : DSI/DryrockSiWF 
DWTI               .kg/kg                                  : DTI/DryrockTiWF 
GR                 .gAPI                                   : GR/Gamma API 
GRt                .gAPI                                   : GKUT/GammaKUT 
HCAL               .in                                     : CALI/Caliper 
HFK                .%                                      : POTA/Potassium 
HTHO               .ppm                                    : THOR/Thorium 
HURA               .ppm                                    : URAN/Uranium 
MPERM              .mD                                     : MPERMT2/MrilT2KCoat 
NMRE_Final         .m3/m3                                  : MPHIT2/TA-grp T2 Effective Por 
NMRFL_Final        .unitless                               : MFFIT2/TA-grp T2 FreeFluid Ind 
NMRT_Final         .frac                                   : MSIGT2/TA-grp T2 Total Por. 
NPHI               .frac                                   : POROSIDADE NEUTRONICA (COMPOSICAO DE CURVAS CABO E/OU LWD) 
PE                 .b/e                                    : Density PE Filtered 
RD                 .ohm.m                                  : RT90/90in Resistivity 2ft Res 
RHOB               .g/cm3                                  : DENSIDADE (COMPOSICAO DE CURVAS CABO E/OU LWD ) 
RM                 .ohm.m                                  : RT30/30in Resistivity 2ft Res 
RS                 .ohm.m                                  : RT10/10in Resistivity 2ft Res 
T2LM               .ms                                     : T2LM/T2 Log Mean 
TVDSS              .M                                      :  
~Ascii
# ...
5347.510   12.250     62.777     0.015      0.124      0.001      0.018      0.000      0.000      0.004      0.297      0.000      21.972     28.370     12.114     0.428      0.761      2.141      0.418      0.073      0.040      0.075      0.116      8.535      12.308     2.491      16.541     23.495     119.879    5289.089  
5347.662   12.250     61.439     0.015      0.146      0.000      0.019      0.000      0.000      0.003      0.272      0.000      24.534     31.100     12.073     0.408      0.695      2.503      0.440      0.080      0.041      0.081      0.110      8.443      11.164     2.482      14.429     19.477     110.458    5289.242  
5347.815   12.250     59.486     0.014      0.162      0.000      0.018      0.000      0.000      0.005      0.254      0.000      26.118     32.946     11.992     0.379      0.534      2.818      0.620      0.087      0.044      0.087      0.105      8.357      10.926     2.471      13.904     18.243     106.324    5289.394  
5347.967   12.250     59.107     0.013      0.163      0.001      0.016      0.000      0.000      0.009      0.252      0.000      26.785     33.666     12.052     0.336      0.351      3.038      0.868      0.092      0.048      0.092      0.103      8.456      12.018     2.465      15.497     20.344     121.989    5289.546  
5348.119   12.250     59.269     0.013      0.156      0.002      0.016      0.000      0.000      0.012      0.259      0.000      27.106     33.663     12.120     0.314      0.255      3.112      1.174      0.098      0.052      0.098      0.102      8.724      13.331     2.466      17.491     23.340     147.245    5289.699  
5348.272   12.250     60.304     0.013      0.143      0.002      0.017      0.000      0.000      0.012      0.273      0.000      27.374     33.416     12.111     0.312      0.264      3.083      1.532      0.101      0.055      0.101      0.108      8.894      13.938     2.464      18.215     24.575     153.596    5289.851  
5348.424   12.250     61.408     0.014      0.135      0.002      0.017      0.000      0.000      0.012      0.281      0.000      29.050     33.445     12.069     0.315      0.353      3.049      2.602      0.104      0.062      0.106      0.121      8.832      13.481     2.460      17.216     22.969     153.169    5290.003  
5348.577   12.250     64.998     0.015      0.130      0.001      0.018      0.000      0.000      0.014      0.285      0.000      30.560     34.240     11.955     0.312      0.472      3.099      5.765      0.108      0.073      0.111      0.140      8.634      12.437     2.455      15.342     20.019     153.061    5290.156  
5348.729   12.250     66.203     0.015      0.129      0.001      0.019      0.000      0.000      0.016      0.285      0.001      30.041     34.787     11.946     0.326      0.637      3.077      8.829      0.107      0.078      0.111      0.149      8.438      12.163     2.450      14.786     19.281     163.207    5290.308  
5348.881   12.250     68.339     0.016      0.129      0.001      0.020      0.000      0.000      0.016      0.283      0.001      27.292     34.294     11.967     0.339      0.687      2.980      8.686      0.103      0.076      0.105      0.150      8.349      13.152     2.440      16.092     22.022     184.424    5290.461  
5349.034   12.250     68.082     0.017      0.130      0.001      0.021      0.000      0.000      0.018      0.279      0.002      24.545     32.978     11.962     0.344      0.616      2.852      6.625      0.098      0.072      0.100      0.150      8.463      14.109     2.425      17.420     25.204     178.227    5290.613  
5349.186   12.250     67.224     0.018      0.133      0.001      0.023      0.000      0.000      0.016      0.274      0.002      22.588     31.201     11.937     0.324      0.564      2.707      4.897      0.097      0.069      0.101      0.145      8.724      14.360     2.402      17.710     26.666     141.546    5290.765  
5349.339   12.250     66.090     0.020      0.138      0.002      0.024      0.000      0.000      0.013      0.267      0.002      21.679     28.365     11.968     0.248      0.383      2.589      4.085      0.101      0.068      0.105      0.137      8.978      13.421     2.377      16.199     24.859     123.501    5290.918  
5349.491   12.250     64.198     0.020      0.138      0.002      0.025      0.000      0.000      0.011      0.267      0.002      22.374     27.566     11.994     0.185      0.281      2.646      3.348      0.103      0.065      0.105      0.128      9.098      12.731     2.370      15.154     23.273     128.687    5291.070  
5349.643   12.250     62.665     0.021      0.136      0.002      0.027      0.000      0.000      0.009      0.269      0.001      22.973     27.940     11.965     0.120      0.238      2.816      2.863      0.098      0.063      0.098      0.119      8.953      11.926     2.386      13.945     21.355     146.742    5291.222  
5349.796   12.250     62.120     0.021      0.136      0.002      0.026      0.000      0.000      0.009      0.270      0.001      23.045     28.973     11.931     0.116      0.241      2.938      2.572      0.094      0.061      0.094      0.114      8.659      11.712     2.409      13.595     20.818     155.313    5291.375  
5349.948   12.250     60.502     0.019      0.143      0.001      0.024      0.000      0.001      0.014      0.262      0.002      23.881     31.458     11.934     0.146      0.196      3.179      2.167      0.094      0.059      0.098      0.111      8.416      11.717     2.431      13.477     20.565     126.035    5291.527  
5350.101   12.250     60.274     0.019      0.152      0.001      0.024      0.000      0.001      0.017      0.250      0.002      24.550     33.012     11.910     0.162      0.181      3.329      1.673      0.094      0.056      0.101      0.110      8.286      11.830     2.455      13.534     20.460     105.153    5291.679  
5350.253   12.250     59.583     0.020      0.180      0.001      0.025      0.000      0.001      0.017      0.216      0.002      27.853     35.321     11.891     0.161      0.220      3.573      1.865      0.094      0.058      0.104      0.112      8.306      12.363     2.470      14.038     20.685     98.677     5291.832  
5350.405   12.250     59.057     0.020      0.203      0.001      0.025      0.000      0.001      0.013      0.190      0.002      30.222     36.464     11.922     0.149      0.228      3.719      3.675      0.092      0.067      0.106      0.114      8.418      13.077     2.478      14.817     21.471     91.319     5291.984  
5350.558   12.250     58.769     0.018      0.233      0.002      0.022      0.000      0.001      0.009      0.161      0.002      29.612     37.126     11.930     0.160      0.387      3.716      6.241      0.091      0.072      0.102      0.114      8.472      15.051     2.481      17.087     24.331     98.228     5292.136  
5350.710   12.250     58.516     0.017      0.242      0.002      0.021      0.000      0.001      0.006      0.154      0.001      28.279     36.964     11.912     0.192      0.487      3.606      4.538      0.089      0.067      0.095      0.112      8.503      16.763     2.475      19.098     27.096     114.404    5292.289  
5350.863   12.250     58.450     0.016      0.240      0.003      0.020      0.000      0.001      0.002      0.159      0.001      27.882     36.226     11.880     0.257      0.592      3.373      1.773      0.080      0.056      0.088      0.095      8.530      19.038     2.482      21.727     30.757     102.142    5292.441  
5351.015   12.250     58.056     0.017      0.226      0.003      0.021      0.000      0.001      0.000      0.175      0.001      27.363     35.397     11.848     0.298      0.727      3.161      0.593      0.069      0.044      0.078      0.077      8.512      20.318     2.504      23.091     32.429     89.602     5292.593  
5351.167   12.250     57.793     0.018      0.203      0.003      0.022      0.000      0.001      0.001      0.200      0.001      27.184     35.272     11.848     0.287      0.845      3.121      0.438      0.067      0.040      0.071      0.077      8.424      19.436     2.516      21.716     29.219     113.755    5292.746  
