~Version
 VERS              .         2.0                           : CWLS LOG ASCII STANDARD - VERSION 2.0
 WRAP              .         NO                            : ONE LINE PER DEPTH STEP
 DLM               .         SPACE                         : DELIMITING CHARACTER(SPACE TAB OR COMMA)
~Well Information
#_______________________________________________________________________________
#
#PARAMETER_NAME    .UNIT     VALUE                         : DESCRIPTION
#_______________________________________________________________________________
STRT               .M        5027.447                      : First reference value
STOP               .M        5499.430                      : Last reference value
STEP               .M        0.152                         : Step increment
NULL               .         -9999                         : Missing value
COMP               .         PETROBRAS                     : Company
WELL               .         8-SPH-10-SPS                  : Well name
FLD                .         SAPINHOA                      : Field
LOC                .                                       : Location
PROV               .                                       : Province
SRVC               .                                       : Service Company
DATE               .         2021-09-13 11_18_58           : Date
UWI                .         8-SPH-10-SPS                  : Unique Well ID
APD                .M        24                            : Above Permanent Datum
API                .                                       : API NUMBER
BHT                .degF     153                           : Bottom Hole Temperature
BLI                .M        5494.8                        : Bottom Log Interval
BS                 .in       8.5                           : Bit Size
CTRY               .         BRASIL                        : Nation
DCS                .         15/06/2015                    : Date Ciculation Stopped
DFD                .lb/gal   9.7                           : Drilling Fluid Density
DFT                .         CATIONICO FLEX DRILL (BASE AGUA): Drilling Fluid Type
DLAB               .         18/06/2015                    : Date Logger At Bottom
EDF                .M        24                            : Elevation of Derreck Floor
EGL                .M        -2125                         : Elevation of Ground Level
EKB                .M        -999.25                       : Elevation of Kelly Bushing
EPD                .M        0                             : Elevation Of Permanent Datum
LMF                .         MR                            : Log Measured From
LONG               .         -43_10_14,760                 : Longitude
MCST               .degF     67                            : Mud Cake Sample Temperature
MFST               .degF     67                            : Mud Filtrate Sample Temperature
MRT                .degF     153                           : Maximum Recorded Temperature
MST                .degF     67                            : Mud Sample Temperature
ORIGINALWELLNAME   .         P08                           : 
PDAT               .         NM                            : Permanent Datum
PRODUCER-CODE      .         150                           : 
PRODUCER-NAME      .         ATLAS                         : 
RMB                .ohm.m    -999.25                       : Resistivity Of Mud - BHT
RMCS               .ohm.m    0.078                         : Resistivity Of Mud Cake Sample
RMFS               .ohm.m    0.064                         : Mud Filtrate Sample Resistivity
RMS                .ohm.m    0.071                         : Mud Sample Resistivity
RUN                .         3                             : Run Number
STAT               .         SAO PAULO                     : State
TCS                .h        22_00                         : Time Ciculation Stopped
TDD                .M        5496                          : Total Depht - Driller
TDL                .M        5495.5                        : Total Depht - Logger
TLAB               .h        10_45                         : Time Logger At Bottom
TLI                .M        5114                          : Top Log Interval
X                  .M        683623.00000000               : 
Y                  .M        7161727.00000000              : 
~Parameter Information Block
#_______________________________________________________________________________
#
#PARAMETER_NAME    .UNIT     VALUE                         : DESCRIPTION
#_______________________________________________________________________________
SET                .         BASE                          : 
TLFamily_BS        .         Bit Size                      : 
TLFamily_DT        .         Compressional Slowness        : 
TLFamily_DWAL      .         Aluminum Weight Fraction      : 
TLFamily_DWCA      .         Calcium Weight Fraction       : 
TLFamily_DWFE      .         Iron Weight Fraction          : 
TLFamily_DWGD      .         Gadolinium Weight Fraction    : 
TLFamily_DWK       .         Potassium Weight Fraction     : 
TLFamily_DWMG      .         Magnesium Weight Fraction     : 
TLFamily_DWMN      .         Manganese Weight Fraction     : 
TLFamily_DWS       .         Sulfur Weight Fraction        : 
TLFamily_DWSI      .         Silicon Weight Fraction       : 
TLFamily_DWTI      .         Titanium Weight Fraction      : 
TLFamily_GR        .         Gamma Ray                     : 
TLFamily_GRt       .         Gamma Ray                     : 
TLFamily_HCAL      .         Caliper                       : 
TLFamily_HDRA      .         Bulk Density Correction       : 
TLFamily_HFK       .         Potassium Concentration       : 
TLFamily_HTHO      .         Thorium Concentration         : 
TLFamily_HURA      .         Uranium Concentration         : 
TLFamily_MD        .         Measured Depth                : 
TLFamily_MPERM     .         NMR Permeability              : 
TLFamily_NMRE_Final .         NMR Bound Fluid Volume Fraction: 
TLFamily_NMRFL_Final .         NMR Free Fluids               : 
TLFamily_NMRT_Final .         NMR Porosity                  : 
TLFamily_NPHI      .         Neutron Porosity              : 
TLFamily_PE        .         Photoelectric Factor          : 
TLFamily_RD        .         Resistivity - Deep            : 
TLFamily_RHOB      .         Bulk Density                  : 
TLFamily_RS        .         Resistivity - Shallow         : 
TLFamily_TVDSS     .         True Vertical Depth Sub Sea   : 
~Curve Information
#_______________________________________________________________________________
#
#LOGNAME           .UNIT     LOG_ID                        : DESCRIPTION
#_______________________________________________________________________________
DEPTH              .M                                      :  
BS                 .in                                     : Bit size 
DT                 .us/ft                                  : Slowness over 24-inch interval 
DWAL               .kg/kg                                  : Weight fraction of aluminum derived from thorium in dry rock 
DWCA               .kg/kg                                  : Weight fraction of calcium in dry rock 
DWFE               .kg/kg                                  : Weight fraction of iron in dry rock 
DWGD               .ppm                                    : Weight fraction of gadolinium in dry rock 
DWK                .kg/kg                                  : Weight fraction of potassium in dry rock 
DWMG               .kg/kg                                  : Weight fraction of magnesium in dry rock 
DWMN               .kg/kg                                  : Weight fraction of manganese in dry rock 
DWS                .kg/kg                                  : Weight fraction of sulfur in dry rock 
DWSI               .kg/kg                                  : Weight fraction of silicon in dry rock 
DWTI               .kg/kg                                  : Weight fraction of titanium in dry rock 
GR                 .gAPI                                   : Gamma ray 
GRt                .gAPI                                   : Gamma ray from 1329 spectrum 
HCAL               .in                                     : Caliper 
HDRA               .g/cm3                                  : Density correction 
HFK                .%                                      : Potassium content 
HTHO               .ppm                                    : Thorium concentration 
HURA               .ppm                                    : Uranium content 
MPERM              .mD                                     : MR permeability 
NMRE_Final         .m3/m3                                  : MR effective porosity 
NMRFL_Final        .unitless                               : MR moveable fluids 
NMRT_Final         .frac                                   : MR total porosity 
NPHI               .frac                                   : Borehole size corrected compensated neutron porosity 
PE                 .b/e                                    : Photo electric cross-section 
RD                 .ohm.m                                  : Deep resistivity 
RHOB               .g/cm3                                  : Formation bulk density 
RS                 .ohm.m                                  : Shallow resistivity 
TVDSS              .M                                      :  
~Ascii
# ...
5137.937   8.500      53.349     0.007      0.231      0.001      2.840      0.001      0.051      0.001      0.001      0.085      0.006      13.048     13.101     8.615      -0.013     0.223      1.322      0.824      0.162      0.069      0.032      0.075      0.100      3.925      162.016    2.654      229.337    5113.625  
5138.090   8.500      53.589     0.007      0.234      0.001      2.744      0.001      0.051      0.001      0.001      0.084      0.005      13.339     13.393     8.614      -0.013     0.213      1.441      0.824      0.145      0.071      0.031      0.078      0.095      3.889      225.181    2.657      365.421    5113.777  
5138.242   8.500      53.884     0.008      0.241      0.002      2.561      0.001      0.053      0.001      0.001      0.079      0.003      13.274     13.327     8.613      -0.013     0.205      1.561      0.827      0.192      0.072      0.033      0.075      0.093      3.881      321.003    2.660      596.305    5113.930  
5138.395   8.500      54.067     0.008      0.247      0.002      2.384      0.001      0.057      0.001      0.001      0.072      0.002      13.713     13.769     8.613      -0.014     0.196      1.690      0.846      0.232      0.070      0.035      0.073      0.096      3.966      392.386    2.660      759.273    5114.082  
5138.547   8.500      54.322     0.008      0.251      0.001      2.245      0.001      0.060      0.001      0.001      0.068      0.000      15.219     15.284     8.614      -0.016     0.187      1.791      0.951      0.167      0.066      0.032      0.078      0.101      4.101      398.558    2.652      721.452    5114.234  
5138.699   8.500      55.003     0.008      0.251      0.001      2.096      0.002      0.061      0.001      0.001      0.067      0.000      17.740     17.815     8.614      -0.018     0.184      1.753      1.228      0.116      0.065      0.029      0.086      0.109      4.114      360.433    2.636      556.151    5114.387  
5138.852   8.500      56.294     0.008      0.250      0.001      1.908      0.004      0.059      0.001      0.001      0.069      0.000      20.547     20.631     8.614      -0.019     0.187      1.579      1.600      0.109      0.067      0.028      0.088      0.120      3.859      324.414    2.612      425.700    5114.539  
5139.004   8.500      58.004     0.007      0.244      0.001      1.724      0.007      0.059      0.001      0.001      0.074      0.000      22.208     22.297     8.614      -0.018     0.189      1.400      1.898      0.167      0.073      0.032      0.088      0.128      3.449      325.092    2.584      438.446    5114.692  
5139.157   8.500      59.668     0.006      0.232      0.001      1.603      0.009      0.062      0.001      0.001      0.080      0.000      23.452     23.545     8.613      -0.015     0.190      1.214      2.236      0.396      0.081      0.040      0.090      0.134      3.111      373.306    2.561      597.435    5114.844  
5139.309   8.500      60.844     0.005      0.218      0.001      1.569      0.010      0.067      0.001      0.001      0.088      0.000      28.869     28.983     8.613      -0.013     0.190      0.931      3.016      1.208      0.090      0.052      0.097      0.142      2.981      440.647    2.542      747.227    5114.996  
5139.461   8.500      61.327     0.004      0.205      0.001      1.596      0.008      0.071      0.001      0.001      0.099      0.000      39.633     39.794     8.612      -0.013     0.199      0.675      3.961      3.358      0.083      0.060      0.090      0.141      3.126      479.335    2.526      722.006    5115.149  
5139.614   8.500      61.172     0.003      0.199      0.001      1.635      0.007      0.069      0.001      0.001      0.114      0.000      47.857     48.053     8.612      -0.016     0.209      0.575      4.410      6.403      0.071      0.059      0.075      0.133      3.524      466.704    2.521      554.298    5115.301  
5139.766   8.500      60.631     0.004      0.199      0.001      1.674      0.006      0.059      0.001      0.001      0.132      0.000      45.163     45.346     8.611      -0.018     0.210      0.650      4.230      2.873      0.066      0.053      0.066      0.131      4.009      423.523    2.531      404.788    5115.454  
5139.919   8.500      60.023     0.005      0.206      0.001      1.731      0.006      0.047      0.001      0.001      0.143      0.000      33.861     33.996     8.616      -0.020     0.235      1.021      3.223      0.966      0.078      0.048      0.078      0.136      4.364      388.749    2.545      356.462    5115.606  
5140.071   8.500      59.591     0.007      0.218      0.001      1.802      0.006      0.038      0.001      0.001      0.138      0.000      23.214     23.307     8.630      -0.022     0.311      1.486      1.885      0.977      0.091      0.050      0.094      0.138      4.561      378.921    2.553      376.399    5115.758  
5140.223   8.500      59.389     0.008      0.233      0.000      1.869      0.007      0.036      0.001      0.001      0.119      0.001      18.563     18.638     8.647      -0.023     0.387      1.680      1.212      1.054      0.097      0.051      0.103      0.137      4.679      373.281    2.557      396.591    5115.911  
5140.376   8.500      59.297     0.008      0.245      0.001      1.918      0.008      0.038      0.001      0.001      0.095      0.001      18.390     18.463     8.656      -0.021     0.427      1.676      1.099      1.243      0.100      0.053      0.106      0.136      4.743      343.856    2.563      384.181    5116.063  
5140.528   8.500      59.159     0.008      0.253      0.001      1.942      0.009      0.038      0.001      0.001      0.076      0.001      19.448     19.523     8.657      -0.019     0.470      1.653      1.044      1.652      0.105      0.057      0.107      0.134      4.746      288.472    2.570      343.129    5116.216  
5140.681   8.500      58.911     0.008      0.258      0.002      1.961      0.010      0.036      0.001      0.001      0.067      0.000      20.708     20.786     8.657      -0.018     0.528      1.635      0.985      2.257      0.107      0.061      0.110      0.132      4.722      228.755    2.575      287.762    5116.368  
5140.833   8.500      58.579     0.008      0.261      0.002      2.016      0.011      0.033      0.001      0.001      0.064      0.000      21.933     22.017     8.656      -0.019     0.569      1.632      0.978      2.820      0.104      0.063      0.107      0.130      4.735      187.796    2.575      232.430    5116.520  
5140.985   8.500      58.204     0.008      0.263      0.003      2.109      0.010      0.031      0.001      0.001      0.060      0.000      22.546     22.637     8.656      -0.021     0.580      1.671      0.994      4.230      0.101      0.067      0.103      0.128      4.836      170.545    2.573      191.731    5116.673  
5141.138   8.500      57.801     0.009      0.266      0.003      2.185      0.010      0.034      0.001      0.001      0.050      0.000      22.406     22.499     8.657      -0.022     0.570      1.757      1.000      6.872      0.098      0.072      0.099      0.125      5.030      169.286    2.571      173.406    5116.825  
5141.290   8.500      57.398     0.009      0.270      0.003      2.181      0.010      0.041      0.001      0.001      0.040      0.000      22.130     22.222     8.657      -0.023     0.544      1.862      1.004      8.166      0.096      0.072      0.096      0.123      5.167      176.862    2.572      172.397    5116.977  
5141.443   8.500      57.094     0.010      0.273      0.004      2.088      0.010      0.046      0.001      0.001      0.035      0.000      22.225     22.319     8.656      -0.022     0.506      1.958      1.004      4.137      0.096      0.066      0.096      0.121      5.052      190.513    2.577      181.615    5117.130  
5141.595   8.500      57.039     0.010      0.275      0.004      1.964      0.011      0.044      0.001      0.001      0.041      0.000      22.626     22.721     8.655      -0.019     0.463      2.039      0.993      1.932      0.095      0.058      0.102      0.122      4.762      205.617    2.588      193.984    5117.282  
