~Version
 VERS              .         2.0                           : CWLS LOG ASCII STANDARD - VERSION 2.0
 WRAP              .         NO                            : ONE LINE PER DEPTH STEP
 DLM               .         SPACE                         : DELIMITING CHARACTER(SPACE TAB OR COMMA)
~Well Information
#_______________________________________________________________________________
#
#PARAMETER_NAME    .UNIT     VALUE                         : DESCRIPTION
#_______________________________________________________________________________
STRT               .M        5159.045                      : First reference value
STOP               .M        5591.861                      : Last reference value
STEP               .M        0.152                         : Step increment
NULL               .         -9999                         : Missing value
COMP               .         PETROBRAS                     : Company
WELL               .         8-SPH-19D-SPS                 : Well name
FLD                .         SAPINHOA                      : Field
LOC                .                                       : Location
PROV               .                                       : Province
SRVC               .                                       : Service Company
DATE               .         2020-11-17 00_10_26           : Date
UWI                .         8SPH0019DSPS                  : Unique Well ID
APD                .M        26                            : Above Permanent Datum
API                .                                       : API NUMBER
BHT                .degF     150                           : Bottom Hole Temperature
BLI                .M        5581.8                        : Bottom Log Interval
BS                 .in       12.25                         : Bit Size
CNTY               .                                       : County
CTRY               .         BRASIL                        : Nation
DCS                .         04/08/2015                    : Date Ciculation Stopped
DFD                .lbm/gal  9.5                           : Drilling Fluid Density
DFT                .         NAO AQUOSO (BASE OLEFINA)     : Drilling Fluid Type
DLAB               .         05/08/2015                    : Date Logger At Bottom
EDF                .M        26                            : Elevation of Derreck Floor
EGL                .M        -2132                         : Elevation of Ground Level
EKB                .M        -999.25                       : Elevation of Kelly Bushing
EPD                .M        0                             : Elevation Of Permanent Datum
GDAT               .         SIRGAS2000                    : Geodetic Datum
LMF                .         MR                            : Log Measured From
LATI               .         -25_46_45.710                 : Latitude
LONG               .         -43_12_21,306                 : Longitude
MCST               .degF     -999.25                       : Mud Cake Sample Temperature
MFST               .degF     -999.25                       : Mud Filtrate Sample Temperature
MRT                .degF     150                           : Maximum Recorded Temperature
MST                .degF     -999.25                       : Mud Sample Temperature
ORIGINALWELLNAME   .         8-sph-19d-sps_petrobras       : 
PDAT               .         NM                            : Permanent Datum
PRODUCER-CODE      .         150                           : 
PRODUCER-NAME      .         ATLAS                         : 
RMB                .ohm.m    -999.25                       : Resistivity Of Mud - BHT
RMCS               .ohm.m    -999.25                       : Resistivity Of Mud Cake Sample
RMFS               .ohm.m    -999.25                       : Mud Filtrate Sample Resistivity
RMS                .ohm.m    -999.25                       : Mud Sample Resistivity
RUN                .         2                             : Run Number
STAT               .         SAO PAULO                     : State
TCS                .h        02_00                         : Time Ciculation Stopped
TDD                .M        5583                          : Total Depht - Driller
TDL                .M        5585.4                        : Total Depht - Logger
TLAB               .h        18_45                         : Time Logger At Bottom
TLI                .M        5200                          : Top Log Interval
X                  .M        679908.00000000               : Surface X
Y                  .M        7148113.00000000              : Surface Y
~Parameter Information Block
#_______________________________________________________________________________
#
#PARAMETER_NAME    .UNIT     VALUE                         : DESCRIPTION
#_______________________________________________________________________________
SET                .         BASE                          : 
TLFamily_BS        .         Bit Size                      : 
TLFamily_DT        .         Compressional Slowness        : 
TLFamily_DWAL      .         Aluminum Weight Fraction      : 
TLFamily_DWCA      .         Calcium Weight Fraction       : 
TLFamily_DWFE      .         Iron Weight Fraction          : 
TLFamily_DWGD      .         Gadolinium Weight Fraction    : 
TLFamily_DWK       .         Potassium Weight Fraction     : 
TLFamily_DWMG      .         Magnesium Weight Fraction     : 
TLFamily_DWMN      .         Manganese Weight Fraction     : 
TLFamily_DWS       .         Sulfur Weight Fraction        : 
TLFamily_DWSI      .         Silicon Weight Fraction       : 
TLFamily_DWTI      .         Titanium Weight Fraction      : 
TLFamily_GR        .         Gamma Ray                     : 
TLFamily_GRt       .         Gamma Ray                     : 
TLFamily_HCAL      .         Caliper                       : 
TLFamily_HDRA      .         Bulk Density Correction       : 
TLFamily_HFK       .         Potassium Concentration       : 
TLFamily_HTHO      .         Thorium Concentration         : 
TLFamily_HURA      .         Uranium Concentration         : 
TLFamily_MD        .         Measured Depth                : 
TLFamily_MPERM     .         NMR Permeability              : 
TLFamily_NMRE_Final .         NMR Bound Fluid Volume Fraction: 
TLFamily_NMRFL_Final .         NMR Free Fluids               : 
TLFamily_NMRT_Final .         NMR Porosity                  : 
TLFamily_NPHI      .         Neutron Porosity              : 
TLFamily_PE        .         Photoelectric Factor          : 
TLFamily_RD        .         Resistivity - Deep            : 
TLFamily_RHOB      .         Bulk Density                  : 
TLFamily_RM        .         Resistivity - Medium          : 
TLFamily_RS        .         Resistivity - Shallow         : 
TLFamily_TVDSS     .         True Vertical Depth Sub Sea   : 
~Curve Information
#_______________________________________________________________________________
#
#LOGNAME           .UNIT     LOG_ID                        : DESCRIPTION
#_______________________________________________________________________________
DEPTH              .M                                      :  
BS                 .in                                     :  
DT                 .us/ft                                  : SONICO COMPRESSIONAL (COMPOSICAO DE CURVAS CABO E/OU LWD) 
DWAL               .kg/kg                                  :  
DWCA               .kg/kg                                  :  
DWFE               .kg/kg                                  :  
DWGD               .ppm                                    :  
DWK                .kg/kg                                  :  
DWMG               .kg/kg                                  :  
DWMN               .kg/kg                                  :  
DWS                .kg/kg                                  :  
DWSI               .kg/kg                                  :  
DWTI               .kg/kg                                  :  
GR                 .gAPI                                   :  
GRt                .gAPI                                   :  
HCAL               .in                                     : CALIPER (COMPOSICAO DE CURVAS CABO E/OU LWD) 
HDRA               .g/cm3                                  : Density Delta Rho Filtered 
HFK                .%                                      :  
HTHO               .ppm                                    :  
HURA               .ppm                                    :  
MPERM              .mD                                     :  
NMRE_Final         .m3/m3                                  :  
NMRFL_Final        .unitless                               :  
NMRT_Final         .frac                                   :  
NPHI               .frac                                   : Neutron Porosity Limestone Filtered 
PE                 .b/e                                    : Density PE Filtered 
RD                 .ohm.m                                  : Vertical 2-foot resolution matched resistivity, 90-inch DOI 
RHOB               .g/cm3                                  : Bulk Density Filtered 
RM                 .ohm.m                                  : Vertical 2-foot resolution matched resistivity, 30-inch DOI 
RS                 .ohm.m                                  : Vertical 2-foot resolution matched resistivity, 10-inch DOI 
TVDSS              .M                                      :  
~Ascii
# ...
5499.202   12.250     72.510     0.013      0.299      0.010      2.831      0.013      0.041      0.001      0.001      0.105      0.000      31.602     31.784     12.382     0.167      0.403      2.386      2.589      0.000      0.024      0.006      0.090      0.198      6.957      2.132      2.582      2.139      2.291      5321.427  
5499.354   12.250     73.514     0.014      0.301      0.011      3.169      0.008      0.050      0.001      0.001      0.108      0.000      35.430     35.642     12.370     0.146      0.433      2.559      2.696      0.000      0.016      0.007      0.103      0.216      6.726      2.447      2.581      2.453      2.684      5321.569  
5499.506   12.250     75.192     0.014      0.300      0.011      3.338      0.005      0.057      0.001      0.001      0.116      0.000      42.983     43.269     12.369     0.124      0.479      2.650      3.351      0.000      0.019      0.006      0.122      0.232      6.427      2.844      2.566      2.844      3.159      5321.712  
5499.659   12.250     77.382     0.014      0.295      0.012      3.288      0.006      0.055      0.001      0.001      0.124      0.000      51.723     52.093     12.386     0.110      0.521      2.604      4.196      0.000      0.022      0.003      0.125      0.237      6.284      3.093      2.550      3.082      3.428      5321.854  
5499.811   12.250     79.326     0.014      0.282      0.012      3.151      0.011      0.046      0.001      0.001      0.130      0.000      56.395     56.804     12.395     0.097      0.559      2.583      4.539      0.000      0.018      0.003      0.115      0.247      6.038      3.233      2.527      3.208      3.534      5321.997  
5499.964   12.250     81.684     0.014      0.263      0.012      3.095      0.015      0.044      0.001      0.001      0.133      0.000      55.346     55.734     12.375     0.090      0.617      2.605      4.506      0.000      0.016      0.004      0.119      0.267      5.742      3.527      2.503      3.489      3.804      5322.140  
5500.116   12.250     84.153     0.015      0.240      0.012      3.120      0.019      0.057      0.001      0.001      0.133      0.000      52.226     52.578     12.358     0.092      0.702      2.636      4.407      0.000      0.013      0.004      0.128      0.280      5.667      4.171      2.496      4.115      4.459      5322.282  
5500.268   12.250     86.513     0.014      0.222      0.010      3.107      0.022      0.074      0.001      0.001      0.131      0.000      50.758     51.102     12.343     0.099      0.763      2.645      4.350      0.000      0.011      0.006      0.125      0.291      5.743      5.247      2.495      5.169      5.610      5322.425  
5500.421   12.250     86.801     0.014      0.218      0.009      3.010      0.023      0.084      0.001      0.001      0.128      0.000      52.016     52.377     12.336     0.099      0.771      2.573      4.380      0.000      0.016      0.006      0.121      0.285      5.779      6.420      2.492      6.335      6.960      5322.567  
5500.573   12.250     85.632     0.014      0.230      0.009      2.879      0.023      0.082      0.001      0.001      0.124      0.000      54.862     55.254     12.343     0.097      0.749      2.445      4.460      0.000      0.013      0.006      0.110      0.267      5.769      6.762      2.489      6.710      7.434      5322.710  
5500.726   12.250     83.944     0.013      0.249      0.008      2.755      0.022      0.074      0.001      0.001      0.120      0.000      56.308     56.703     12.349     0.098      0.720      2.344      4.521      0.000      0.013      0.005      0.107      0.250      5.759      6.027      2.500      6.020      6.629      5322.853  
5500.878   12.250     82.455     0.012      0.265      0.007      2.640      0.022      0.069      0.001      0.001      0.115      0.000      53.598     53.943     12.341     0.101      0.650      2.220      4.526      0.000      0.009      0.001      0.109      0.241      5.790      5.033      2.514      5.058      5.516      5322.995  
5501.030   12.250     81.376     0.011      0.272      0.007      2.574      0.023      0.068      0.001      0.001      0.112      0.000      47.435     47.717     12.321     0.107      0.540      2.007      4.376      0.000      0.005      0.000      0.109      0.245      5.930      4.255      2.525      4.293      4.643      5323.138  
5501.183   12.250     79.998     0.010      0.269      0.007      2.591      0.024      0.069      0.001      0.001      0.114      0.000      41.916     42.168     12.312     0.112      0.456      1.804      4.165      0.000      0.009      0.002      0.110      0.241      6.015      3.656      2.534      3.694      3.963      5323.280  
5501.335   12.250     78.585     0.010      0.257      0.006      2.615      0.023      0.071      0.001      0.001      0.125      0.000      39.283     39.530     12.305     0.110      0.414      1.706      4.041      0.000      0.015      0.005      0.113      0.214      5.868      3.170      2.545      3.201      3.410      5323.423  
5501.488   12.250     77.604     0.010      0.244      0.006      2.559      0.022      0.069      0.001      0.001      0.145      0.000      38.027     38.261     12.306     0.100      0.393      1.674      3.990      0.001      0.027      0.007      0.111      0.184      5.517      2.886      2.552      2.910      3.088      5323.566  
5501.640   12.250     77.586     0.009      0.232      0.006      2.480      0.020      0.063      0.001      0.001      0.167      0.000      37.383     37.603     12.304     0.092      0.383      1.651      3.995      0.001      0.028      0.009      0.091      0.178      5.283      2.838      2.549      2.855      3.031      5323.708  
5501.792   12.250     78.932     0.009      0.222      0.007      2.545      0.019      0.058      0.001      0.001      0.185      0.000      38.795     39.030     12.302     0.083      0.381      1.650      4.052      0.000      0.024      0.005      0.080      0.181      5.080      2.909      2.540      2.918      3.105      5323.851  
5501.945   12.250     81.823     0.010      0.212      0.007      2.832      0.017      0.060      0.001      0.001      0.193      0.000      41.999     42.271     12.303     0.078      0.388      1.685      4.143      0.000      0.013      0.002      0.090      0.210      5.038      3.012      2.515      3.011      3.210      5323.993  
5502.097   12.250     85.812     0.010      0.206      0.008      3.229      0.017      0.066      0.001      0.001      0.189      0.000      44.324     44.609     12.303     0.077      0.394      1.727      4.198      0.000      0.007      0.002      0.114      0.244      5.049      3.254      2.488      3.242      3.468      5324.136  
5502.250   12.250     88.380     0.010      0.210      0.009      3.513      0.017      0.065      0.001      0.001      0.176      0.000      43.887     44.147     12.304     0.079      0.393      1.786      4.162      0.000      0.010      0.004      0.141      0.275      5.088      3.700      2.469      3.674      3.950      5324.279  
5502.402   12.250     87.421     0.011      0.226      0.009      3.548      0.017      0.054      0.001      0.001      0.159      0.000      40.709     40.942     12.292     0.085      0.378      1.981      3.889      0.000      0.016      0.005      0.151      0.296      5.131      4.039      2.466      4.003      4.314      5324.421  
5502.554   12.250     83.999     0.013      0.254      0.009      3.361      0.016      0.041      0.001      0.001      0.141      0.000      35.972     36.187     12.282     0.094      0.346      2.312      3.286      0.000      0.020      0.005      0.134      0.274      5.173      3.967      2.488      3.933      4.227      5324.564  
5502.707   12.250     79.503     0.014      0.287      0.009      3.066      0.013      0.033      0.001      0.001      0.121      0.000      31.673     31.877     12.298     0.100      0.316      2.524      2.720      0.000      0.025      0.004      0.108      0.235      5.263      3.796      2.518      3.772      4.046      5324.706  
