~Version
 VERS              .         2.0                           : CWLS LOG ASCII STANDARD - VERSION 2.0
 WRAP              .         NO                            : ONE LINE PER DEPTH STEP
 DLM               .         SPACE                         : DELIMITING CHARACTER(SPACE TAB OR COMMA)
~Well Information
#_______________________________________________________________________________
#
#PARAMETER_NAME    .UNIT     VALUE                         : DESCRIPTION
#_______________________________________________________________________________
STRT               .M        5159.045                      : First reference value
STOP               .M        5591.861                      : Last reference value
STEP               .M        0.152                         : Step increment
NULL               .         -9999                         : Missing value
COMP               .         PETROBRAS                     : Company
WELL               .         8-SPH-19D-SPS                 : Well name
FLD                .         SAPINHOA                      : Field
LOC                .                                       : Location
PROV               .                                       : Province
SRVC               .                                       : Service Company
DATE               .         2020-11-17 00_10_26           : Date
UWI                .         8SPH0019DSPS                  : Unique Well ID
APD                .M        26                            : Above Permanent Datum
API                .                                       : API NUMBER
BHT                .degF     150                           : Bottom Hole Temperature
BLI                .M        5581.8                        : Bottom Log Interval
BS                 .in       12.25                         : Bit Size
CNTY               .                                       : County
CTRY               .         BRASIL                        : Nation
DCS                .         04/08/2015                    : Date Ciculation Stopped
DFD                .lbm/gal  9.5                           : Drilling Fluid Density
DFT                .         NAO AQUOSO (BASE OLEFINA)     : Drilling Fluid Type
DLAB               .         05/08/2015                    : Date Logger At Bottom
EDF                .M        26                            : Elevation of Derreck Floor
EGL                .M        -2132                         : Elevation of Ground Level
EKB                .M        -999.25                       : Elevation of Kelly Bushing
EPD                .M        0                             : Elevation Of Permanent Datum
GDAT               .         SIRGAS2000                    : Geodetic Datum
LMF                .         MR                            : Log Measured From
LATI               .         -25_46_45.710                 : Latitude
LONG               .         -43_12_21,306                 : Longitude
MCST               .degF     -999.25                       : Mud Cake Sample Temperature
MFST               .degF     -999.25                       : Mud Filtrate Sample Temperature
MRT                .degF     150                           : Maximum Recorded Temperature
MST                .degF     -999.25                       : Mud Sample Temperature
ORIGINALWELLNAME   .         8-sph-19d-sps_petrobras       : 
PDAT               .         NM                            : Permanent Datum
PRODUCER-CODE      .         150                           : 
PRODUCER-NAME      .         ATLAS                         : 
RMB                .ohm.m    -999.25                       : Resistivity Of Mud - BHT
RMCS               .ohm.m    -999.25                       : Resistivity Of Mud Cake Sample
RMFS               .ohm.m    -999.25                       : Mud Filtrate Sample Resistivity
RMS                .ohm.m    -999.25                       : Mud Sample Resistivity
RUN                .         2                             : Run Number
STAT               .         SAO PAULO                     : State
TCS                .h        02_00                         : Time Ciculation Stopped
TDD                .M        5583                          : Total Depht - Driller
TDL                .M        5585.4                        : Total Depht - Logger
TLAB               .h        18_45                         : Time Logger At Bottom
TLI                .M        5200                          : Top Log Interval
X                  .M        679908.00000000               : Surface X
Y                  .M        7148113.00000000              : Surface Y
~Parameter Information Block
#_______________________________________________________________________________
#
#PARAMETER_NAME    .UNIT     VALUE                         : DESCRIPTION
#_______________________________________________________________________________
SET                .         BASE                          : 
TLFamily_BS        .         Bit Size                      : 
TLFamily_DT        .         Compressional Slowness        : 
TLFamily_DWAL      .         Aluminum Weight Fraction      : 
TLFamily_DWCA      .         Calcium Weight Fraction       : 
TLFamily_DWFE      .         Iron Weight Fraction          : 
TLFamily_DWGD      .         Gadolinium Weight Fraction    : 
TLFamily_DWK       .         Potassium Weight Fraction     : 
TLFamily_DWMG      .         Magnesium Weight Fraction     : 
TLFamily_DWMN      .         Manganese Weight Fraction     : 
TLFamily_DWS       .         Sulfur Weight Fraction        : 
TLFamily_DWSI      .         Silicon Weight Fraction       : 
TLFamily_DWTI      .         Titanium Weight Fraction      : 
TLFamily_GR        .         Gamma Ray                     : 
TLFamily_GRt       .         Gamma Ray                     : 
TLFamily_HCAL      .         Caliper                       : 
TLFamily_HDRA      .         Bulk Density Correction       : 
TLFamily_HFK       .         Potassium Concentration       : 
TLFamily_HTHO      .         Thorium Concentration         : 
TLFamily_HURA      .         Uranium Concentration         : 
TLFamily_MD        .         Measured Depth                : 
TLFamily_MPERM     .         NMR Permeability              : 
TLFamily_NMRE_Final .         NMR Bound Fluid Volume Fraction: 
TLFamily_NMRFL_Final .         NMR Free Fluids               : 
TLFamily_NMRT_Final .         NMR Porosity                  : 
TLFamily_NPHI      .         Neutron Porosity              : 
TLFamily_PE        .         Photoelectric Factor          : 
TLFamily_RD        .         Resistivity - Deep            : 
TLFamily_RHOB      .         Bulk Density                  : 
TLFamily_RM        .         Resistivity - Medium          : 
TLFamily_RS        .         Resistivity - Shallow         : 
TLFamily_TVDSS     .         True Vertical Depth Sub Sea   : 
~Curve Information
#_______________________________________________________________________________
#
#LOGNAME           .UNIT     LOG_ID                        : DESCRIPTION
#_______________________________________________________________________________
DEPTH              .M                                      :  
BS                 .in                                     :  
DT                 .us/ft                                  : SONICO COMPRESSIONAL (COMPOSICAO DE CURVAS CABO E/OU LWD) 
DWAL               .kg/kg                                  :  
DWCA               .kg/kg                                  :  
DWFE               .kg/kg                                  :  
DWGD               .ppm                                    :  
DWK                .kg/kg                                  :  
DWMG               .kg/kg                                  :  
DWMN               .kg/kg                                  :  
DWS                .kg/kg                                  :  
DWSI               .kg/kg                                  :  
DWTI               .kg/kg                                  :  
GR                 .gAPI                                   :  
GRt                .gAPI                                   :  
HCAL               .in                                     : CALIPER (COMPOSICAO DE CURVAS CABO E/OU LWD) 
HDRA               .g/cm3                                  : Density Delta Rho Filtered 
HFK                .%                                      :  
HTHO               .ppm                                    :  
HURA               .ppm                                    :  
MPERM              .mD                                     :  
NMRE_Final         .m3/m3                                  :  
NMRFL_Final        .unitless                               :  
NMRT_Final         .frac                                   :  
NPHI               .frac                                   : Neutron Porosity Limestone Filtered 
PE                 .b/e                                    : Density PE Filtered 
RD                 .ohm.m                                  : Vertical 2-foot resolution matched resistivity, 90-inch DOI 
RHOB               .g/cm3                                  : Bulk Density Filtered 
RM                 .ohm.m                                  : Vertical 2-foot resolution matched resistivity, 30-inch DOI 
RS                 .ohm.m                                  : Vertical 2-foot resolution matched resistivity, 10-inch DOI 
TVDSS              .M                                      :  
~Ascii
# ...
5426.050   12.250     70.767     0.007      0.306      0.008      1.970      0.004      0.039      0.001      0.001      0.095      0.002      21.130     21.274     12.440     0.103      0.176      1.170      1.971      0.274      0.133      0.030      0.163      0.295      6.278      6.866      2.476      7.314      7.739      5253.189  
5426.202   12.250     70.817     0.007      0.300      0.008      2.131      0.004      0.039      0.001      0.001      0.098      0.002      20.908     21.036     12.458     0.103      0.171      1.142      2.008      0.199      0.136      0.026      0.171      0.293      6.253      6.721      2.482      7.149      7.593      5253.331  
5426.354   12.250     70.537     0.007      0.292      0.008      2.414      0.003      0.039      0.001      0.001      0.097      0.002      20.717     20.842     12.506     0.105      0.166      1.146      2.000      0.089      0.134      0.019      0.175      0.285      6.341      6.546      2.478      6.950      7.431      5253.473  
5426.507   12.250     70.117     0.007      0.284      0.008      2.787      0.002      0.037      0.001      0.001      0.094      0.003      20.238     20.375     12.530     0.108      0.162      1.197      1.934      0.024      0.127      0.011      0.171      0.274      6.490      6.392      2.477      6.774      7.324      5253.615  
5426.659   12.250     69.758     0.008      0.278      0.007      3.110      0.001      0.035      0.001      0.001      0.089      0.004      19.284     19.431     12.513     0.114      0.157      1.309      1.818      0.015      0.125      0.009      0.168      0.263      6.678      6.305      2.490      6.669      7.318      5253.757  
5426.812   12.250     69.830     0.008      0.274      0.007      3.241      0.001      0.032      0.001      0.001      0.082      0.005      18.481     18.626     12.480     0.113      0.153      1.455      1.685      0.047      0.119      0.016      0.158      0.258      6.794      6.254      2.501      6.597      7.351      5253.899  
5426.964   12.250     70.039     0.009      0.271      0.006      3.141      0.001      0.029      0.001      0.001      0.079      0.006      18.301     18.438     12.434     0.100      0.154      1.577      1.576      0.067      0.104      0.020      0.137      0.266      6.695      6.160      2.486      6.470      7.280      5254.041  
5427.116   12.250     70.234     0.009      0.271      0.005      2.851      0.001      0.029      0.001      0.001      0.080      0.006      18.575     18.703     12.434     0.091      0.159      1.658      1.490      0.040      0.097      0.017      0.126      0.277      6.538      5.956      2.469      6.215      6.990      5254.183  
5427.269   12.250     70.270     0.010      0.273      0.004      2.449      0.003      0.042      0.001      0.001      0.084      0.005      18.950     19.069     12.458     0.097      0.172      1.714      1.412      0.044      0.099      0.018      0.132      0.290      6.352      5.594      2.467      5.787      6.441      5254.325  
5427.421   12.250     70.264     0.010      0.277      0.005      2.008      0.007      0.065      0.001      0.001      0.088      0.003      19.062     19.166     12.468     0.106      0.190      1.746      1.349      0.079      0.107      0.021      0.149      0.301      6.193      5.083      2.470      5.209      5.705      5254.467  
5427.574   12.250     70.509     0.010      0.282      0.006      1.602      0.012      0.086      0.001      0.001      0.091      0.002      18.780     18.861     12.510     0.111      0.211      1.757      1.311      0.122      0.126      0.023      0.169      0.301      6.144      4.485      2.473      4.554      4.911      5254.609  
5427.726   12.250     70.580     0.010      0.290      0.007      1.346      0.018      0.091      0.001      0.001      0.091      0.000      18.512     18.583     12.525     0.113      0.227      1.758      1.303      0.221      0.142      0.027      0.169      0.295      6.126      3.886      2.477      3.915      4.176      5254.751  
5427.878   12.250     70.673     0.010      0.297      0.008      1.368      0.022      0.083      0.001      0.001      0.091      0.000      18.531     18.611     12.491     0.111      0.233      1.763      1.312      0.422      0.138      0.035      0.158      0.284      6.126      3.370      2.483      3.376      3.584      5254.893  
5428.031   12.250     70.650     0.010      0.301      0.008      1.655      0.023      0.071      0.001      0.001      0.091      0.000      18.885     18.979     12.467     0.108      0.230      1.768      1.335      0.417      0.121      0.037      0.143      0.276      6.141      3.010      2.485      3.000      3.190      5255.035  
5428.183   12.250     70.336     0.010      0.305      0.007      2.000      0.022      0.059      0.001      0.001      0.090      0.000      19.398     19.498     12.460     0.102      0.219      1.751      1.377      0.326      0.121      0.034      0.142      0.281      6.186      2.852      2.474      2.832      3.031      5255.177  
5428.336   12.250     70.772     0.010      0.308      0.007      2.194      0.021      0.048      0.001      0.001      0.087      0.000      19.789     19.898     12.465     0.096      0.205      1.719      1.422      0.140      0.134      0.023      0.154      0.291      6.264      2.897      2.458      2.867      3.101      5255.319  
5428.488   12.250     71.676     0.010      0.311      0.008      2.238      0.020      0.040      0.001      0.001      0.082      0.000      20.133     20.258     12.537     0.099      0.193      1.717      1.452      0.038      0.129      0.013      0.151      0.297      6.438      3.028      2.448      2.988      3.261      5255.461  
5428.640   12.250     72.715     0.010      0.313      0.009      2.273      0.017      0.037      0.001      0.001      0.079      0.000      20.548     20.690     12.572     0.106      0.183      1.766      1.483      0.034      0.116      0.014      0.138      0.299      6.624      3.061      2.444      3.018      3.301      5255.603  
5428.793   12.250     73.210     0.010      0.316      0.009      2.391      0.014      0.033      0.001      0.001      0.078      0.000      20.946     21.093     12.605     0.114      0.181      1.826      1.534      0.087      0.131      0.019      0.156      0.296      6.728      3.004      2.449      2.964      3.230      5255.745  
5428.945   12.250     73.001     0.010      0.320      0.010      2.568      0.011      0.028      0.001      0.001      0.075      0.000      21.193     21.336     12.604     0.118      0.188      1.851      1.586      0.117      0.151      0.020      0.179      0.287      6.770      2.978      2.457      2.943      3.194      5255.887  
5429.098   12.250     72.161     0.010      0.324      0.011      2.709      0.009      0.023      0.001      0.001      0.060      0.000      21.262     21.396     12.620     0.118      0.202      1.828      1.620      0.056      0.141      0.015      0.168      0.278      6.780      3.005      2.465      2.980      3.229      5256.029  
5429.250   12.250     71.033     0.010      0.325      0.012      2.705      0.009      0.023      0.001      0.001      0.037      0.000      21.094     21.219     12.570     0.120      0.215      1.757      1.646      0.023      0.124      0.011      0.151      0.264      6.868      3.098      2.478      3.085      3.356      5256.171  
5429.402   12.250     70.337     0.009      0.325      0.013      2.524      0.010      0.033      0.001      0.001      0.021      0.000      20.942     21.064     12.528     0.117      0.229      1.649      1.662      0.018      0.129      0.010      0.157      0.253      6.947      3.295      2.486      3.297      3.620      5256.313  
5429.555   12.250     70.454     0.009      0.321      0.013      2.246      0.012      0.053      0.001      0.001      0.014      0.000      21.051     21.177     12.472     0.108      0.240      1.545      1.661      0.015      0.138      0.008      0.165      0.259      6.888      3.519      2.478      3.544      3.925      5256.455  
