~Version
 VERS              .         2.0                           : CWLS LOG ASCII STANDARD - VERSION 2.0
 WRAP              .         NO                            : ONE LINE PER DEPTH STEP
 DLM               .         SPACE                         : DELIMITING CHARACTER(SPACE TAB OR COMMA)
~Well Information
#_______________________________________________________________________________
#
#PARAMETER_NAME    .UNIT     VALUE                         : DESCRIPTION
#_______________________________________________________________________________
STRT               .M        5159.045                      : First reference value
STOP               .M        5591.861                      : Last reference value
STEP               .M        0.152                         : Step increment
NULL               .         -9999                         : Missing value
COMP               .         PETROBRAS                     : Company
WELL               .         8-SPH-19D-SPS                 : Well name
FLD                .         SAPINHOA                      : Field
LOC                .                                       : Location
PROV               .                                       : Province
SRVC               .                                       : Service Company
DATE               .         2020-11-17 00_10_26           : Date
UWI                .         8SPH0019DSPS                  : Unique Well ID
APD                .M        26                            : Above Permanent Datum
API                .                                       : API NUMBER
BHT                .degF     150                           : Bottom Hole Temperature
BLI                .M        5581.8                        : Bottom Log Interval
BS                 .in       12.25                         : Bit Size
CNTY               .                                       : County
CTRY               .         BRASIL                        : Nation
DCS                .         04/08/2015                    : Date Ciculation Stopped
DFD                .lbm/gal  9.5                           : Drilling Fluid Density
DFT                .         NAO AQUOSO (BASE OLEFINA)     : Drilling Fluid Type
DLAB               .         05/08/2015                    : Date Logger At Bottom
EDF                .M        26                            : Elevation of Derreck Floor
EGL                .M        -2132                         : Elevation of Ground Level
EKB                .M        -999.25                       : Elevation of Kelly Bushing
EPD                .M        0                             : Elevation Of Permanent Datum
GDAT               .         SIRGAS2000                    : Geodetic Datum
LMF                .         MR                            : Log Measured From
LATI               .         -25_46_45.710                 : Latitude
LONG               .         -43_12_21,306                 : Longitude
MCST               .degF     -999.25                       : Mud Cake Sample Temperature
MFST               .degF     -999.25                       : Mud Filtrate Sample Temperature
MRT                .degF     150                           : Maximum Recorded Temperature
MST                .degF     -999.25                       : Mud Sample Temperature
ORIGINALWELLNAME   .         8-sph-19d-sps_petrobras       : 
PDAT               .         NM                            : Permanent Datum
PRODUCER-CODE      .         150                           : 
PRODUCER-NAME      .         ATLAS                         : 
RMB                .ohm.m    -999.25                       : Resistivity Of Mud - BHT
RMCS               .ohm.m    -999.25                       : Resistivity Of Mud Cake Sample
RMFS               .ohm.m    -999.25                       : Mud Filtrate Sample Resistivity
RMS                .ohm.m    -999.25                       : Mud Sample Resistivity
RUN                .         2                             : Run Number
STAT               .         SAO PAULO                     : State
TCS                .h        02_00                         : Time Ciculation Stopped
TDD                .M        5583                          : Total Depht - Driller
TDL                .M        5585.4                        : Total Depht - Logger
TLAB               .h        18_45                         : Time Logger At Bottom
TLI                .M        5200                          : Top Log Interval
X                  .M        679908.00000000               : Surface X
Y                  .M        7148113.00000000              : Surface Y
~Parameter Information Block
#_______________________________________________________________________________
#
#PARAMETER_NAME    .UNIT     VALUE                         : DESCRIPTION
#_______________________________________________________________________________
SET                .         BASE                          : 
TLFamily_BS        .         Bit Size                      : 
TLFamily_DT        .         Compressional Slowness        : 
TLFamily_DWAL      .         Aluminum Weight Fraction      : 
TLFamily_DWCA      .         Calcium Weight Fraction       : 
TLFamily_DWFE      .         Iron Weight Fraction          : 
TLFamily_DWGD      .         Gadolinium Weight Fraction    : 
TLFamily_DWK       .         Potassium Weight Fraction     : 
TLFamily_DWMG      .         Magnesium Weight Fraction     : 
TLFamily_DWMN      .         Manganese Weight Fraction     : 
TLFamily_DWS       .         Sulfur Weight Fraction        : 
TLFamily_DWSI      .         Silicon Weight Fraction       : 
TLFamily_DWTI      .         Titanium Weight Fraction      : 
TLFamily_GR        .         Gamma Ray                     : 
TLFamily_GRt       .         Gamma Ray                     : 
TLFamily_HCAL      .         Caliper                       : 
TLFamily_HDRA      .         Bulk Density Correction       : 
TLFamily_HFK       .         Potassium Concentration       : 
TLFamily_HTHO      .         Thorium Concentration         : 
TLFamily_HURA      .         Uranium Concentration         : 
TLFamily_MD        .         Measured Depth                : 
TLFamily_MPERM     .         NMR Permeability              : 
TLFamily_NMRE_Final .         NMR Bound Fluid Volume Fraction: 
TLFamily_NMRFL_Final .         NMR Free Fluids               : 
TLFamily_NMRT_Final .         NMR Porosity                  : 
TLFamily_NPHI      .         Neutron Porosity              : 
TLFamily_PE        .         Photoelectric Factor          : 
TLFamily_RD        .         Resistivity - Deep            : 
TLFamily_RHOB      .         Bulk Density                  : 
TLFamily_RM        .         Resistivity - Medium          : 
TLFamily_RS        .         Resistivity - Shallow         : 
TLFamily_TVDSS     .         True Vertical Depth Sub Sea   : 
~Curve Information
#_______________________________________________________________________________
#
#LOGNAME           .UNIT     LOG_ID                        : DESCRIPTION
#_______________________________________________________________________________
DEPTH              .M                                      :  
BS                 .in                                     :  
DT                 .us/ft                                  : SONICO COMPRESSIONAL (COMPOSICAO DE CURVAS CABO E/OU LWD) 
DWAL               .kg/kg                                  :  
DWCA               .kg/kg                                  :  
DWFE               .kg/kg                                  :  
DWGD               .ppm                                    :  
DWK                .kg/kg                                  :  
DWMG               .kg/kg                                  :  
DWMN               .kg/kg                                  :  
DWS                .kg/kg                                  :  
DWSI               .kg/kg                                  :  
DWTI               .kg/kg                                  :  
GR                 .gAPI                                   :  
GRt                .gAPI                                   :  
HCAL               .in                                     : CALIPER (COMPOSICAO DE CURVAS CABO E/OU LWD) 
HDRA               .g/cm3                                  : Density Delta Rho Filtered 
HFK                .%                                      :  
HTHO               .ppm                                    :  
HURA               .ppm                                    :  
MPERM              .mD                                     :  
NMRE_Final         .m3/m3                                  :  
NMRFL_Final        .unitless                               :  
NMRT_Final         .frac                                   :  
NPHI               .frac                                   : Neutron Porosity Limestone Filtered 
PE                 .b/e                                    : Density PE Filtered 
RD                 .ohm.m                                  : Vertical 2-foot resolution matched resistivity, 90-inch DOI 
RHOB               .g/cm3                                  : Bulk Density Filtered 
RM                 .ohm.m                                  : Vertical 2-foot resolution matched resistivity, 30-inch DOI 
RS                 .ohm.m                                  : Vertical 2-foot resolution matched resistivity, 10-inch DOI 
TVDSS              .M                                      :  
~Ascii
# ...
5283.403   12.250     52.407     0.007      0.344      0.008      1.617      0.001      0.035      0.001      0.001      0.077      0.000      19.933     20.046     12.365     0.108      0.259      1.288      1.488      0.034      0.043      0.021      0.043      0.083      6.294      579.766    2.687      607.830    648.059    5120.478  
5283.556   12.250     51.248     0.007      0.343      0.008      1.698      0.001      0.037      0.001      0.001      0.073      0.000      18.064     18.161     12.374     0.108      0.252      1.281      1.422      0.039      0.048      0.022      0.048      0.081      6.275      853.724    2.690      952.416    1193.502   5120.620  
5283.708   12.250     49.817     0.007      0.347      0.008      1.731      0.001      0.037      0.001      0.001      0.072      0.000      16.811     16.903     12.401     0.107      0.232      1.289      1.328      0.043      0.050      0.023      0.050      0.083      6.290      1011.840   2.692      1180.570   1745.158   5120.761  
5283.860   12.250     49.263     0.008      0.350      0.007      1.808      0.001      0.036      0.001      0.001      0.074      0.001      15.915     15.999     12.386     0.105      0.217      1.319      1.230      0.067      0.051      0.025      0.055      0.088      6.315      960.481    2.693      1161.194   1874.339   5120.902  
5284.013   12.250     49.766     0.008      0.349      0.006      2.017      0.001      0.036      0.001      0.001      0.075      0.001      15.187     15.264     12.379     0.104      0.212      1.360      1.149      0.117      0.064      0.029      0.068      0.093      6.341      687.415    2.690      847.430    1307.674   5121.043  
5284.165   12.250     50.476     0.008      0.348      0.004      2.287      0.001      0.037      0.001      0.001      0.075      0.001      15.181     15.265     12.384     0.105      0.216      1.383      1.090      0.130      0.067      0.030      0.071      0.096      6.374      339.496    2.686      372.776    452.668    5121.185  
5284.318   12.250     51.055     0.008      0.346      0.002      2.439      0.001      0.037      0.001      0.001      0.074      0.001      15.968     16.064     12.385     0.106      0.225      1.383      1.063      0.087      0.063      0.027      0.069      0.100      6.426      161.706    2.682      164.056    168.609    5121.326  
5284.470   12.250     51.284     0.008      0.344      0.001      2.347      0.001      0.039      0.001      0.001      0.073      0.000      16.599     16.694     12.366     0.109      0.234      1.372      1.076      0.043      0.058      0.022      0.066      0.100      6.452      85.578     2.683      84.044     82.153     5121.467  
5284.622   12.250     51.086     0.008      0.339      0.001      2.002      0.001      0.042      0.001      0.001      0.071      0.001      16.316     16.404     12.339     0.115      0.239      1.339      1.134      0.020      0.049      0.018      0.055      0.091      6.395      62.851     2.691      61.480     59.646     5121.608  
5284.775   12.250     50.391     0.007      0.336      0.002      1.486      0.001      0.044      0.001      0.001      0.070      0.001      15.596     15.686     12.310     0.117      0.242      1.283      1.215      0.016      0.035      0.018      0.036      0.078      6.287      63.359     2.701      62.481     61.010     5121.750  
5284.927   12.250     49.328     0.007      0.337      0.003      0.965      0.001      0.044      0.001      0.001      0.073      0.001      15.764     15.866     12.308     0.115      0.247      1.232      1.313      0.099      0.029      0.023      0.029      0.072      6.175      81.648     2.705      81.917     81.672     5121.891  
5285.080   12.250     48.434     0.007      0.341      0.004      0.689      0.001      0.042      0.001      0.001      0.081      0.001      17.744     17.864     12.310     0.113      0.255      1.215      1.463      0.310      0.044      0.032      0.044      0.077      6.065      97.902     2.701      99.468     101.162    5122.032  
5285.232   12.250     48.792     0.007      0.343      0.005      0.878      0.001      0.039      0.001      0.001      0.092      0.000      20.158     20.280     12.312     0.112      0.255      1.225      1.621      0.971      0.060      0.044      0.060      0.089      5.938      86.077     2.689      86.922     87.031     5122.173  
5285.384   12.250     49.848     0.007      0.345      0.004      1.494      0.001      0.034      0.001      0.001      0.100      0.000      20.968     21.068     12.311     0.112      0.245      1.245      1.711      7.643      0.070      0.060      0.070      0.102      5.969      65.336     2.670      65.347     65.347     5122.315  
5285.537   12.250     51.184     0.007      0.352      0.003      2.213      0.001      0.029      0.001      0.001      0.101      0.000      20.365     20.449     12.311     0.107      0.230      1.285      1.756      29.336     0.075      0.072      0.078      0.112      6.067      51.424     2.647      51.424     52.584     5122.456  
5285.689   12.250     52.315     0.008      0.368      0.002      2.714      0.001      0.023      0.001      0.001      0.095      0.000      19.843     19.937     12.314     0.097      0.210      1.333      1.803      41.432     0.080      0.080      0.084      0.117      6.125      39.729     2.619      39.729     41.644     5122.597  
5285.842   12.250     52.902     0.008      0.384      0.002      2.918      0.001      0.018      0.001      0.001      0.086      0.000      19.857     19.967     12.329     0.090      0.191      1.360      1.856      50.991     0.084      0.085      0.086      0.120      6.135      31.352     2.599      31.357     33.280     5122.738  
5285.994   12.250     52.941     0.008      0.395      0.003      2.926      0.001      0.016      0.001      0.001      0.081      0.000      20.555     20.665     12.332     0.088      0.182      1.367      1.903      53.663     0.087      0.084      0.087      0.120      6.141      29.497     2.596      29.653     32.101     5122.880  
5286.146   12.250     52.723     0.008      0.399      0.004      2.858      0.001      0.017      0.001      0.001      0.082      0.000      21.774     21.888     12.339     0.087      0.180      1.352      1.945      44.899     0.091      0.081      0.091      0.118      6.163      35.101     2.596      35.552     40.278     5123.021  
5286.299   12.250     53.121     0.007      0.398      0.004      2.800      0.001      0.017      0.001      0.001      0.086      0.000      22.573     22.697     12.342     0.087      0.177      1.306      1.982      17.101     0.098      0.080      0.101      0.119      6.175      44.466     2.590      45.462     55.423     5123.162  
5286.451   12.250     53.815     0.007      0.397      0.003      2.762      0.001      0.017      0.001      0.001      0.090      0.000      22.207     22.336     12.343     0.086      0.171      1.230      2.005      27.061     0.098      0.083      0.104      0.123      6.172      40.880     2.580      42.014     52.916     5123.303  
5286.604   12.250     54.557     0.007      0.401      0.002      2.711      0.002      0.015      0.001      0.001      0.092      0.000      20.926     21.046     12.343     0.086      0.161      1.126      1.993      19.016     0.101      0.082      0.103      0.128      6.188      29.682     2.572      30.445     37.544     5123.445  
5286.756   12.250     54.267     0.006      0.408      0.002      2.680      0.003      0.013      0.001      0.001      0.092      0.000      19.404     19.509     12.360     0.087      0.149      1.039      1.914      14.718     0.103      0.081      0.104      0.131      6.212      26.088     2.568      26.740     33.000     5123.586  
5286.908   12.250     54.136     0.006      0.413      0.002      2.753      0.003      0.012      0.001      0.001      0.091      0.000      17.980     18.069     12.359     0.088      0.143      1.000      1.780      23.983     0.104      0.085      0.111      0.131      6.261      30.820     2.569      31.756     41.468     5123.727  
