~Version
 VERS              .         2.0                           : CWLS LOG ASCII STANDARD - VERSION 2.0
 WRAP              .         NO                            : ONE LINE PER DEPTH STEP
 DLM               .         SPACE                         : DELIMITING CHARACTER(SPACE TAB OR COMMA)
~Well Information
#_______________________________________________________________________________
#
#PARAMETER_NAME    .UNIT     VALUE                         : DESCRIPTION
#_______________________________________________________________________________
STRT               .M        5159.045                      : First reference value
STOP               .M        5591.861                      : Last reference value
STEP               .M        0.152                         : Step increment
NULL               .         -9999                         : Missing value
COMP               .         PETROBRAS                     : Company
WELL               .         8-SPH-19D-SPS                 : Well name
FLD                .         SAPINHOA                      : Field
LOC                .                                       : Location
PROV               .                                       : Province
SRVC               .                                       : Service Company
DATE               .         2020-11-17 00_10_26           : Date
UWI                .         8SPH0019DSPS                  : Unique Well ID
APD                .M        26                            : Above Permanent Datum
API                .                                       : API NUMBER
BHT                .degF     150                           : Bottom Hole Temperature
BLI                .M        5581.8                        : Bottom Log Interval
BS                 .in       12.25                         : Bit Size
CNTY               .                                       : County
CTRY               .         BRASIL                        : Nation
DCS                .         04/08/2015                    : Date Ciculation Stopped
DFD                .lbm/gal  9.5                           : Drilling Fluid Density
DFT                .         NAO AQUOSO (BASE OLEFINA)     : Drilling Fluid Type
DLAB               .         05/08/2015                    : Date Logger At Bottom
EDF                .M        26                            : Elevation of Derreck Floor
EGL                .M        -2132                         : Elevation of Ground Level
EKB                .M        -999.25                       : Elevation of Kelly Bushing
EPD                .M        0                             : Elevation Of Permanent Datum
GDAT               .         SIRGAS2000                    : Geodetic Datum
LMF                .         MR                            : Log Measured From
LATI               .         -25_46_45.710                 : Latitude
LONG               .         -43_12_21,306                 : Longitude
MCST               .degF     -999.25                       : Mud Cake Sample Temperature
MFST               .degF     -999.25                       : Mud Filtrate Sample Temperature
MRT                .degF     150                           : Maximum Recorded Temperature
MST                .degF     -999.25                       : Mud Sample Temperature
ORIGINALWELLNAME   .         8-sph-19d-sps_petrobras       : 
PDAT               .         NM                            : Permanent Datum
PRODUCER-CODE      .         150                           : 
PRODUCER-NAME      .         ATLAS                         : 
RMB                .ohm.m    -999.25                       : Resistivity Of Mud - BHT
RMCS               .ohm.m    -999.25                       : Resistivity Of Mud Cake Sample
RMFS               .ohm.m    -999.25                       : Mud Filtrate Sample Resistivity
RMS                .ohm.m    -999.25                       : Mud Sample Resistivity
RUN                .         2                             : Run Number
STAT               .         SAO PAULO                     : State
TCS                .h        02_00                         : Time Ciculation Stopped
TDD                .M        5583                          : Total Depht - Driller
TDL                .M        5585.4                        : Total Depht - Logger
TLAB               .h        18_45                         : Time Logger At Bottom
TLI                .M        5200                          : Top Log Interval
X                  .M        679908.00000000               : Surface X
Y                  .M        7148113.00000000              : Surface Y
~Parameter Information Block
#_______________________________________________________________________________
#
#PARAMETER_NAME    .UNIT     VALUE                         : DESCRIPTION
#_______________________________________________________________________________
SET                .         BASE                          : 
TLFamily_BS        .         Bit Size                      : 
TLFamily_DT        .         Compressional Slowness        : 
TLFamily_DWAL      .         Aluminum Weight Fraction      : 
TLFamily_DWCA      .         Calcium Weight Fraction       : 
TLFamily_DWFE      .         Iron Weight Fraction          : 
TLFamily_DWGD      .         Gadolinium Weight Fraction    : 
TLFamily_DWK       .         Potassium Weight Fraction     : 
TLFamily_DWMG      .         Magnesium Weight Fraction     : 
TLFamily_DWMN      .         Manganese Weight Fraction     : 
TLFamily_DWS       .         Sulfur Weight Fraction        : 
TLFamily_DWSI      .         Silicon Weight Fraction       : 
TLFamily_DWTI      .         Titanium Weight Fraction      : 
TLFamily_GR        .         Gamma Ray                     : 
TLFamily_GRt       .         Gamma Ray                     : 
TLFamily_HCAL      .         Caliper                       : 
TLFamily_HDRA      .         Bulk Density Correction       : 
TLFamily_HFK       .         Potassium Concentration       : 
TLFamily_HTHO      .         Thorium Concentration         : 
TLFamily_HURA      .         Uranium Concentration         : 
TLFamily_MD        .         Measured Depth                : 
TLFamily_MPERM     .         NMR Permeability              : 
TLFamily_NMRE_Final .         NMR Bound Fluid Volume Fraction: 
TLFamily_NMRFL_Final .         NMR Free Fluids               : 
TLFamily_NMRT_Final .         NMR Porosity                  : 
TLFamily_NPHI      .         Neutron Porosity              : 
TLFamily_PE        .         Photoelectric Factor          : 
TLFamily_RD        .         Resistivity - Deep            : 
TLFamily_RHOB      .         Bulk Density                  : 
TLFamily_RM        .         Resistivity - Medium          : 
TLFamily_RS        .         Resistivity - Shallow         : 
TLFamily_TVDSS     .         True Vertical Depth Sub Sea   : 
~Curve Information
#_______________________________________________________________________________
#
#LOGNAME           .UNIT     LOG_ID                        : DESCRIPTION
#_______________________________________________________________________________
DEPTH              .M                                      :  
BS                 .in                                     :  
DT                 .us/ft                                  : SONICO COMPRESSIONAL (COMPOSICAO DE CURVAS CABO E/OU LWD) 
DWAL               .kg/kg                                  :  
DWCA               .kg/kg                                  :  
DWFE               .kg/kg                                  :  
DWGD               .ppm                                    :  
DWK                .kg/kg                                  :  
DWMG               .kg/kg                                  :  
DWMN               .kg/kg                                  :  
DWS                .kg/kg                                  :  
DWSI               .kg/kg                                  :  
DWTI               .kg/kg                                  :  
GR                 .gAPI                                   :  
GRt                .gAPI                                   :  
HCAL               .in                                     : CALIPER (COMPOSICAO DE CURVAS CABO E/OU LWD) 
HDRA               .g/cm3                                  : Density Delta Rho Filtered 
HFK                .%                                      :  
HTHO               .ppm                                    :  
HURA               .ppm                                    :  
MPERM              .mD                                     :  
NMRE_Final         .m3/m3                                  :  
NMRFL_Final        .unitless                               :  
NMRT_Final         .frac                                   :  
NPHI               .frac                                   : Neutron Porosity Limestone Filtered 
PE                 .b/e                                    : Density PE Filtered 
RD                 .ohm.m                                  : Vertical 2-foot resolution matched resistivity, 90-inch DOI 
RHOB               .g/cm3                                  : Bulk Density Filtered 
RM                 .ohm.m                                  : Vertical 2-foot resolution matched resistivity, 30-inch DOI 
RS                 .ohm.m                                  : Vertical 2-foot resolution matched resistivity, 10-inch DOI 
TVDSS              .M                                      :  
~Ascii
# ...
5305.349   12.250     56.710     0.008      0.395      0.007      3.051      0.001      0.007      0.001      0.001      0.076      0.000      18.677     18.789     12.354     0.089      0.180      1.342      1.735      128.592    0.110      0.103      0.116      0.169      6.287      47.494     2.558      49.955     62.690     5140.831  
5305.501   12.250     57.692     0.007      0.395      0.008      2.933      0.001      0.013      0.001      0.001      0.056      0.000      18.887     19.005     12.338     0.088      0.168      1.267      1.754      139.270    0.112      0.105      0.116      0.163      6.338      44.189     2.547      48.110     60.771     5140.972  
5305.654   12.250     58.164     0.007      0.391      0.008      2.748      0.002      0.018      0.001      0.001      0.041      0.000      19.046     19.174     12.335     0.091      0.156      1.198      1.768      103.240    0.104      0.098      0.105      0.147      6.373      42.007     2.549      47.836     62.318     5141.114  
5305.806   12.250     57.737     0.007      0.387      0.008      2.511      0.004      0.019      0.001      0.001      0.045      0.001      18.870     19.007     12.338     0.095      0.149      1.139      1.780      27.923     0.099      0.084      0.099      0.132      6.344      38.585     2.569      46.150     64.754     5141.255  
5305.958   12.250     56.628     0.006      0.383      0.009      2.337      0.004      0.017      0.001      0.001      0.064      0.001      18.400     18.538     12.355     0.101      0.148      1.083      1.794      6.835      0.095      0.071      0.095      0.117      6.284      33.454     2.597      41.654     67.473     5141.396  
5306.111   12.250     55.151     0.006      0.381      0.010      2.352      0.003      0.017      0.001      0.001      0.080      0.001      17.650     17.775     12.370     0.102      0.156      1.046      1.783      3.449      0.082      0.060      0.083      0.119      6.198      26.904     2.616      33.949     65.764     5141.538  
5306.263   12.250     54.010     0.006      0.379      0.010      2.535      0.002      0.020      0.001      0.001      0.086      0.001      16.676     16.767     12.362     0.100      0.171      1.037      1.736      2.207      0.068      0.052      0.075      0.134      6.123      20.086     2.623      24.881     52.513     5141.679  
5306.416   12.250     53.952     0.006      0.375      0.009      2.745      0.001      0.023      0.001      0.001      0.084      0.001      15.903     15.961     12.349     0.097      0.185      1.053      1.677      1.910      0.065      0.050      0.075      0.156      6.053      14.589     2.623      17.518     36.053     5141.821  
5306.568   12.250     54.518     0.006      0.370      0.009      2.836      0.001      0.025      0.001      0.001      0.081      0.001      15.760     15.817     12.353     0.093      0.192      1.080      1.625      5.149      0.075      0.060      0.082      0.169      6.033      11.134     2.611      13.040     25.575     5141.962  
5306.720   12.250     55.713     0.006      0.366      0.008      2.731      0.003      0.025      0.001      0.001      0.079      0.000      16.138     16.222     12.356     0.087      0.189      1.106      1.576      28.272     0.095      0.081      0.099      0.172      6.046      9.485      2.586      10.989     21.202     5142.104  
5306.873   12.250     57.254     0.007      0.363      0.009      2.502      0.006      0.023      0.001      0.001      0.079      0.000      16.561     16.666     12.355     0.084      0.182      1.128      1.527      47.324     0.115      0.096      0.121      0.168      6.053      9.052      2.558      10.520     20.864     5142.245  
5307.025   12.250     58.582     0.007      0.364      0.009      2.342      0.008      0.021      0.001      0.001      0.079      0.000      16.567     16.668     12.354     0.086      0.180      1.174      1.460      37.630     0.119      0.097      0.131      0.156      6.023      9.467      2.544      11.164     23.663     5142.387  
5307.178   12.250     59.348     0.007      0.371      0.009      2.352      0.008      0.019      0.001      0.001      0.078      0.000      16.213     16.307     12.356     0.089      0.179      1.265      1.376      25.593     0.112      0.090      0.127      0.143      6.000      10.403     2.541      12.535     28.842     5142.528  
5307.330   12.250     59.374     0.008      0.383      0.007      2.448      0.006      0.017      0.001      0.001      0.075      0.000      16.015     16.113     12.368     0.094      0.177      1.368      1.311      15.699     0.106      0.083      0.115      0.130      6.086      11.439     2.551      14.090     34.614     5142.670  
5307.482   12.250     58.681     0.009      0.397      0.005      2.524      0.003      0.017      0.001      0.001      0.071      0.000      16.306     16.417     12.376     0.098      0.175      1.487      1.277      12.328     0.094      0.075      0.096      0.118      6.248      12.313     2.568      15.448     39.570     5142.811  
5307.635   12.250     57.741     0.009      0.406      0.003      2.542      0.001      0.019      0.001      0.001      0.068      0.001      16.965     17.090     12.386     0.103      0.171      1.636      1.285      5.397      0.083      0.064      0.085      0.104      6.487      12.999     2.593      16.554     44.633     5142.953  
5307.787   12.250     56.985     0.010      0.411      0.003      2.502      0.001      0.023      0.001      0.001      0.065      0.002      17.774     17.900     12.398     0.108      0.165      1.742      1.366      1.447      0.077      0.052      0.083      0.095      6.600      13.497     2.612      17.387     51.619     5143.094  
5307.940   12.250     56.482     0.010      0.414      0.005      2.421      0.001      0.026      0.001      0.001      0.063      0.002      18.585     18.705     12.415     0.111      0.165      1.735      1.485      0.753      0.071      0.045      0.077      0.090      6.613      13.652     2.628      17.654     59.033     5143.236  
5308.092   12.250     56.236     0.009      0.417      0.007      2.332      0.001      0.025      0.001      0.001      0.061      0.001      19.154     19.276     12.427     0.111      0.173      1.652      1.571      1.293      0.062      0.046      0.064      0.086      6.587      13.337     2.639      17.100     60.440     5143.377  
5308.244   12.250     56.060     0.009      0.417      0.008      2.291      0.001      0.018      0.001      0.001      0.064      0.001      19.291     19.417     12.435     0.112      0.183      1.568      1.595      5.842      0.054      0.048      0.055      0.083      6.579      12.734     2.646      16.039     54.110     5143.518  
5308.397   12.250     55.711     0.009      0.412      0.009      2.336      0.001      0.009      0.001      0.001      0.069      0.001      18.847     18.965     12.440     0.113      0.192      1.499      1.575      3.088      0.053      0.046      0.059      0.082      6.563      12.328     2.653      15.243     47.414     5143.660  
5308.549   12.250     55.094     0.008      0.402      0.009      2.435      0.001      0.003      0.001      0.001      0.073      0.001      18.051     18.160     12.444     0.115      0.197      1.440      1.546      4.443      0.048      0.044      0.056      0.081      6.533      12.433     2.659      15.158     44.132     5143.801  
5308.702   12.250     53.704     0.008      0.394      0.008      2.513      0.001      0.003      0.001      0.001      0.073      0.002      17.798     17.912     12.461     0.116      0.194      1.405      1.535      4.648      0.047      0.046      0.048      0.079      6.529      13.049     2.661      15.724     42.909     5143.943  
5308.854   12.250     52.346     0.008      0.391      0.007      2.519      0.001      0.005      0.001      0.001      0.070      0.003      18.554     18.675     12.467     0.117      0.183      1.397      1.568      4.789      0.049      0.045      0.048      0.075      6.563      14.171     2.663      16.872     42.740     5144.084  
