~Version
 VERS              .         2.0                           : CWLS LOG ASCII STANDARD - VERSION 2.0
 WRAP              .         NO                            : ONE LINE PER DEPTH STEP
 DLM               .         SPACE                         : DELIMITING CHARACTER(SPACE TAB OR COMMA)
~Well Information
#_______________________________________________________________________________
#
#PARAMETER_NAME    .UNIT     VALUE                         : DESCRIPTION
#_______________________________________________________________________________
STRT               .M        5060.036                      : First reference value
STOP               .M        5304.790                      : Last reference value
STEP               .M        0.152                         : Step increment
NULL               .         -9999                         : Missing value
COMP               .         PETROBRAS                     : Company
WELL               .         8-SPH-11-SPS                  : Well name
FLD                .         SAPINHOA                      : Field
LOC                .                                       : Location
PROV               .                                       : Province
SRVC               .                                       : Service Company
DATE               .         23/09/2015                    : Date
UWI                .         8-SPH-11-SPS                  : Unique Well ID
APD                .M        24                            : Elevation of Depth Reference (LMF) Above Permanent Datum
API                .                                       : API NUMBER
BHS                .         OPEN                          : Borehole Status (Open or Cased Hole)
BHT                .degF     135                           : Bottom Hole Temperature
BLI                .M        5299.5                        : Bottom Log Interval
BS                 .in       12.25                         : Bit Size
CBDR               .M        5086                          : Casing Bottom (Driller)
CBLO               .M        5084                          : Casing Bottom (Logger)
CSIZ               .in       14                            : Casing Outer Diameter
CWEI               .lbm/ft   115                           : Casing Weight
CTRY               .         BRASIL                        : Nation
DCS                .         22/09/2015                    : Date Circulation Stopped
DFD                .lb/gal   9.7                           : Drilling Fluid Density
DFT                .         Cationico Flex Drill(Base Agua): Drilling Fluid Type
DLAB               .         23/09/2015                    : Date Logging on Bottom
EDF                .M        24                            : Elevation of Drill Floor
EGL                .M        -2165                         : Elevation of Ground Level
EKB                .M        24                            : Elevation of Kelly Bushing
EPD                .M        0                             : Elevation of Permanent Datum (PDAT) above Mean Sea Level
LMF                .         MR                            : Logging Measured From (Name of Logging Elevation Reference)
LUL                .          BRMA                         : Logging Unit Location
LUN                .         OSU-PA 7032                   : Logging Unit Number
LONG               .         -43_13_56,159                 : Longitude
MCST               .degF     77.1                          : Mudcake Sample Temperature
MFST               .degF     78.3                          : Mud Filtrate Sample Temperature
MRT                .degF     135                           : Maximum Recorded Temperature
MST                .degF     77.9                          : Mud Sample Temperature
ORIGINALWELLNAME   .         P09                           : 
PDAT               .         NM                            : Permanent Datum
PRODUCER-CODE      .         440                           : 
PRODUCER-NAME      .         Schlumberger                  : 
RMB                .ohm.m    0.0430009                     : Resistivity of Mud at Bottom Hole Temperature
RMCS               .ohm.m    0.08                          : Resistivity of Mud Cake Sample
RMFS               .ohm.m    0.062                         : Resistivity of Mud Filtrate Sample
RMS                .ohm.m    0.072                         : Resistivity of Mud Sample
RUN                .         3                             : Run Number
STAT               .         SAO PAULO                     : State or Province
TCS                .h        10_30                         : Time Circulation Stopped
TDD                .M        5301                          : Total Depth (Driller)
TDL                .M        5301.5                        : Logger Total Depth
TLAB               .h        23_45                         : Time Logging on Bottom
TLI                .M        5084                          : Top Log Interval
X                  .M        677112.00000000               : 
Y                  .M        7136745.00000000              : 
~Parameter Information Block
#_______________________________________________________________________________
#
#PARAMETER_NAME    .UNIT     VALUE                         : DESCRIPTION
#_______________________________________________________________________________
SET                .         BASE                          : 
TLFamily_BS        .         Bit Size                      : 
TLFamily_DT        .         Compressional Slowness        : 
TLFamily_DWAL      .         Aluminum Weight Fraction      : 
TLFamily_DWCA      .         Calcium Weight Fraction       : 
TLFamily_DWFE      .         Iron Weight Fraction          : 
TLFamily_DWGD      .         Gadolinium Weight Fraction    : 
TLFamily_DWS       .         Sulfur Weight Fraction        : 
TLFamily_DWSI      .         Silicon Weight Fraction       : 
TLFamily_DWTI      .         Titanium Weight Fraction      : 
TLFamily_GR        .         Gamma Ray                     : 
TLFamily_GRt       .         Gamma Ray                     : 
TLFamily_HCAL      .         Caliper                       : 
TLFamily_HDRA      .         Bulk Density Correction       : 
TLFamily_HFK       .         Potassium Concentration       : 
TLFamily_HTHO      .         Thorium Concentration         : 
TLFamily_HURA      .         Uranium Concentration         : 
TLFamily_KSDR      .         NMR Permeability              : 
TLFamily_KTIM      .         NMR Permeability              : 
TLFamily_MD        .         Measured Depth                : 
TLFamily_NMRE_Final .         NMR Bound Fluid Volume Fraction: 
TLFamily_NMRFL_Final .         NMR Free Fluids               : 
TLFamily_NMRT_Final .         NMR Porosity                  : 
TLFamily_NPHI      .         Neutron Porosity              : 
TLFamily_PE        .         Photoelectric Factor          : 
TLFamily_RD        .         Resistivity - Deep            : 
TLFamily_RHOB      .         Bulk Density                  : 
TLFamily_RM        .         Resistivity - Medium          : 
TLFamily_RS        .         Resistivity - Shallow         : 
TLFamily_T2LM      .         NMR T2 Logarithmic Mean       : 
TLFamily_TVDSS     .         True Vertical Depth Sub Sea   : 
~Curve Information
#_______________________________________________________________________________
#
#LOGNAME           .UNIT     LOG_ID                        : DESCRIPTION
#_______________________________________________________________________________
DEPTH              .M                                      :  
BS                 .in                                     : Bit Size 
DT                 .us/ft                                  : Delta-T Compressional 
DWAL               .kg/kg                                  : Dry Weight Fraction Pseudo Aluminum (SpectroLith WALK2 Model) 
DWCA               .kg/kg                                  : Dry Weight Fraction Calcium (SpectroLith WALK2 Model) 
DWFE               .kg/kg                                  : Dry Weight Fraction Iron + 0.14 Aluminum (SpectroLith WALK2 Model) 
DWGD               .ppm                                    : Dry Weight Fraction Gadolinium (SpectroLith WALK2 Model) 
DWS                .kg/kg                                  : Dry Weight Fraction Sulfur (SpectroLith WALK2 Model) 
DWSI               .kg/kg                                  : Dry Weight Fraction Silicon (SpectroLith WALK2 Model) 
DWTI               .kg/kg                                  : Dry Weight Fraction Titanium (SpectroLith WALK2 Model) 
GR                 .gAPI                                   : Gamma Ray 
GRt                .gAPI                                   : HNGS Standard Gamma-Ray 
HCAL               .in                                     : HRCC Caliper Calibrated 
HDRA               .g/cm3                                  : Density Standoff Correction 
HFK                .%                                      : HNGS Formation Potassium Concentration 
HTHO               .ppm                                    : HNGS Formation Thorium Concentration 
HURA               .ppm                                    : HNGS Formation Uranium Concentration 
KSDR               .mD                                     : SDR Permeability 
KTIM               .mD                                     : Timur/Coates Permeability 
NMRE_Final         .m3/m3                                  :  
NMRFL_Final        .unitless                               :  
NMRT_Final         .frac                                   :  
NPHI               .frac                                   : Enhanced Thermal Neutron Porosity in Selected Lithology 
PE                 .b/e                                    : Standard Resolution Formation Photoelectric Factor 
RD                 .ohm.m                                  : Apparent Resistivity from Computed Focusing Mode 5 
RHOB               .g/cm3                                  : Standard Resolution Formation Density 
RM                 .ohm.m                                  : Apparent Resistivity from Computed Focusing Mode 4 
RS                 .ohm.m                                  : Apparent Resistivity from Computed Focusing Mode 3 
T2LM               .ms                                     : T2 Logarithmic Mean 
TVDSS              .M                                      :  
~Ascii
# ...
5151.476   12.250     60.584     0.000      0.343      0.000      1.305      0.000      0.067      0.000      17.346     10.873     12.731     -0.008     0.293      1.166      0.216      13.276     2.652      0.091      0.060      0.092      0.113      4.348      448.874    2.552      295.364    437.628    217.189    5126.150  
5151.628   12.250     59.361     0.001      0.355      0.001      0.626      0.000      0.050      0.000      17.546     12.152     12.740     -0.004     0.327      1.214      0.266      10.704     2.151      0.085      0.057      0.085      0.090      4.471      488.935    2.590      312.768    457.872    224.414    5126.302  
5151.780   12.250     58.142     0.001      0.362      0.001      0.000      0.000      0.042      0.000      17.969     13.194     12.713     0.000      0.356      1.244      0.303      6.661      1.349      0.078      0.051      0.078      0.068      4.417      558.037    2.623      337.215    486.518    214.734    5126.453  
5151.933   12.250     57.683     0.000      0.363      0.000      0.000      0.001      0.043      0.000      18.765     13.427     12.684     0.001      0.372      1.177      0.315      2.531      0.550      0.067      0.042      0.068      0.068      4.306      565.712    2.639      342.509    515.921    174.042    5126.605  
5152.085   12.250     57.525     0.000      0.353      0.000      0.000      0.002      0.054      0.000      19.527     13.095     12.676     0.003      0.362      1.127      0.318      0.453      0.126      0.053      0.030      0.057      0.075      4.133      505.201    2.658      333.750    544.071    102.821    5126.757  
5152.238   12.250     56.211     0.000      0.332      0.000      0.000      0.004      0.078      0.000      20.970     13.060     12.673     0.004      0.367      1.034      0.334      0.023      0.014      0.038      0.016      0.052      0.069      3.753      449.540    2.678      305.595    495.346    28.567     5126.908  
5152.390   12.250     54.225     0.000      0.300      0.000      0.000      0.005      0.115      0.000      23.396     13.810     12.731     0.008      0.386      0.949      0.422      0.003      0.003      0.028      0.009      0.048      0.048      3.337      482.814    2.696      318.537    525.367    11.460     5127.060  
5152.542   12.250     53.875     0.000      0.266      0.000      0.000      0.005      0.155      0.000      25.785     14.566     12.764     0.005      0.416      0.931      0.471      0.003      0.002      0.027      0.009      0.045      0.041      3.016      429.463    2.683      290.063    455.539    13.971     5127.212  
5152.695   12.250     55.439     0.000      0.245      0.000      0.000      0.007      0.178      0.000      27.771     15.966     12.758     0.002      0.463      0.949      0.533      0.017      0.007      0.033      0.014      0.046      0.056      3.045      519.380    2.661      323.923    494.518    31.376     5127.363  
5152.847   12.250     58.164     0.000      0.251      0.000      0.000      0.005      0.172      0.000      27.958     17.314     12.704     -0.002     0.499      1.011      0.596      0.086      0.030      0.043      0.020      0.052      0.068      3.337      319.787    2.636      238.488    303.701    53.611     5127.515  
5153.000   12.250     58.483     0.000      0.278      0.000      1.103      0.001      0.142      0.000      25.828     16.823     12.669     -0.004     0.493      0.959      0.563      0.339      0.076      0.056      0.026      0.060      0.067      3.737      90.450     2.635      85.756     103.899    82.003     5127.667  
5153.152   12.250     56.271     0.000      0.302      0.000      3.822      0.000      0.114      0.000      22.306     14.790     12.673     -0.003     0.447      0.852      0.460      0.662      0.098      0.061      0.028      0.062      0.062      4.002      126.114    2.647      113.711    138.739    107.176    5127.818  
5153.304   12.250     54.178     0.000      0.322      0.000      5.273      0.000      0.091      0.000      19.231     12.028     12.728     -0.004     0.377      0.800      0.322      0.697      0.090      0.061      0.027      0.061      0.056      4.119      305.311    2.658      226.551    293.237    110.962    5127.970  
5153.457   12.250     52.953     0.000      0.344      0.000      5.565      0.000      0.066      0.000      17.621     10.973     12.726     -0.006     0.342      0.849      0.264      0.636      0.089      0.061      0.027      0.061      0.055      4.204      528.706    2.654      317.309    459.617    107.247    5128.122  
5153.609   12.250     52.747     0.000      0.360      0.000      3.900      0.003      0.046      0.000      17.491     10.824     12.753     -0.007     0.334      0.924      0.242      0.892      0.145      0.063      0.031      0.063      0.054      4.321      781.378    2.645      399.047    662.841    120.173    5128.274  
5153.762   12.250     53.301     0.000      0.366      0.000      1.964      0.008      0.036      0.000      17.611     11.286     12.755     -0.008     0.350      1.050      0.219      2.027      0.394      0.073      0.040      0.073      0.053      4.462      1166.667   2.626      479.346    882.635    134.747    5128.425  
5153.914   12.250     54.666     0.000      0.365      0.000      0.332      0.008      0.037      0.000      18.200     11.662     12.742     -0.008     0.362      1.214      0.185      3.620      0.798      0.084      0.047      0.085      0.058      4.586      1445.135   2.608      523.035    1033.097   131.308    5128.577  
5154.066   12.250     56.103     0.000      0.366      0.000      0.000      0.007      0.037      0.000      18.174     11.913     12.743     -0.009     0.369      1.320      0.155      4.410      1.183      0.092      0.052      0.096      0.064      4.670      1301.537   2.595      500.220    921.450    113.500    5128.729  
5154.219   12.250     57.021     0.000      0.370      0.000      0.000      0.005      0.032      0.000      18.016     11.779     12.733     -0.008     0.359      1.338      0.155      4.005      1.290      0.095      0.053      0.102      0.066      4.687      1403.808   2.596      503.662    873.658    96.498     5128.880  
5154.371   12.250     57.579     0.002      0.370      0.002      0.000      0.008      0.026      0.000      18.357     11.704     12.736     -0.006     0.353      1.374      0.141      3.297      1.088      0.095      0.051      0.099      0.069      4.656      1336.386   2.599      484.404    827.842    91.959     5129.032  
5154.524   12.250     57.902     0.005      0.364      0.004      0.000      0.010      0.026      0.000      18.451     11.774     12.746     -0.005     0.359      1.385      0.134      3.047      0.859      0.091      0.048      0.091      0.082      4.592      1071.257   2.597      455.086    759.644    104.677    5129.184  
5154.676   12.250     57.834     0.007      0.352      0.005      0.000      0.014      0.036      0.000      18.158     11.933     12.731     -0.002     0.360      1.397      0.155      2.335      0.596      0.084      0.044      0.084      0.086      4.446      918.102    2.610      420.729    682.735    107.466    5129.335  
5154.828   12.250     57.294     0.007      0.341      0.005      0.052      0.014      0.049      0.000      17.801     12.068     12.749     -0.000     0.352      1.365      0.213      1.486      0.432      0.078      0.041      0.079      0.078      4.277      625.391    2.635      352.179    566.639    98.591     5129.487  
5154.981   12.250     56.379     0.004      0.331      0.003      0.637      0.010      0.067      0.000      17.853     11.663     12.794     0.000      0.323      1.268      0.252      0.867      0.403      0.075      0.040      0.079      0.075      4.117      335.902    2.660      244.271    364.718    75.686     5129.639  
5155.133   12.250     55.537     0.001      0.318      0.001      1.986      0.003      0.092      0.000      18.816     11.473     12.795     -0.000     0.308      1.147      0.302      0.540      0.561      0.076      0.043      0.089      0.071      3.961      253.457    2.675      193.808    267.328    46.897     5129.790  
