~Version
 VERS              .         2.0                           : CWLS LOG ASCII STANDARD - VERSION 2.0
 WRAP              .         NO                            : ONE LINE PER DEPTH STEP
 DLM               .         SPACE                         : DELIMITING CHARACTER(SPACE TAB OR COMMA)
~Well Information
#_______________________________________________________________________________
#
#PARAMETER_NAME    .UNIT     VALUE                         : DESCRIPTION
#_______________________________________________________________________________
STRT               .M        5159.045                      : First reference value
STOP               .M        5591.861                      : Last reference value
STEP               .M        0.152                         : Step increment
NULL               .         -9999                         : Missing value
COMP               .         PETROBRAS                     : Company
WELL               .         8-SPH-19D-SPS                 : Well name
FLD                .         SAPINHOA                      : Field
LOC                .                                       : Location
PROV               .                                       : Province
SRVC               .                                       : Service Company
DATE               .         2020-11-17 00_10_26           : Date
UWI                .         8SPH0019DSPS                  : Unique Well ID
APD                .M        26                            : Above Permanent Datum
API                .                                       : API NUMBER
BHT                .degF     150                           : Bottom Hole Temperature
BLI                .M        5581.8                        : Bottom Log Interval
BS                 .in       12.25                         : Bit Size
CNTY               .                                       : County
CTRY               .         BRASIL                        : Nation
DCS                .         04/08/2015                    : Date Ciculation Stopped
DFD                .lbm/gal  9.5                           : Drilling Fluid Density
DFT                .         NAO AQUOSO (BASE OLEFINA)     : Drilling Fluid Type
DLAB               .         05/08/2015                    : Date Logger At Bottom
EDF                .M        26                            : Elevation of Derreck Floor
EGL                .M        -2132                         : Elevation of Ground Level
EKB                .M        -999.25                       : Elevation of Kelly Bushing
EPD                .M        0                             : Elevation Of Permanent Datum
GDAT               .         SIRGAS2000                    : Geodetic Datum
LMF                .         MR                            : Log Measured From
LATI               .         -25_46_45.710                 : Latitude
LONG               .         -43_12_21,306                 : Longitude
MCST               .degF     -999.25                       : Mud Cake Sample Temperature
MFST               .degF     -999.25                       : Mud Filtrate Sample Temperature
MRT                .degF     150                           : Maximum Recorded Temperature
MST                .degF     -999.25                       : Mud Sample Temperature
ORIGINALWELLNAME   .         8-sph-19d-sps_petrobras       : 
PDAT               .         NM                            : Permanent Datum
PRODUCER-CODE      .         150                           : 
PRODUCER-NAME      .         ATLAS                         : 
RMB                .ohm.m    -999.25                       : Resistivity Of Mud - BHT
RMCS               .ohm.m    -999.25                       : Resistivity Of Mud Cake Sample
RMFS               .ohm.m    -999.25                       : Mud Filtrate Sample Resistivity
RMS                .ohm.m    -999.25                       : Mud Sample Resistivity
RUN                .         2                             : Run Number
STAT               .         SAO PAULO                     : State
TCS                .h        02_00                         : Time Ciculation Stopped
TDD                .M        5583                          : Total Depht - Driller
TDL                .M        5585.4                        : Total Depht - Logger
TLAB               .h        18_45                         : Time Logger At Bottom
TLI                .M        5200                          : Top Log Interval
X                  .M        679908.00000000               : Surface X
Y                  .M        7148113.00000000              : Surface Y
~Parameter Information Block
#_______________________________________________________________________________
#
#PARAMETER_NAME    .UNIT     VALUE                         : DESCRIPTION
#_______________________________________________________________________________
SET                .         BASE                          : 
TLFamily_BS        .         Bit Size                      : 
TLFamily_DT        .         Compressional Slowness        : 
TLFamily_DWAL      .         Aluminum Weight Fraction      : 
TLFamily_DWCA      .         Calcium Weight Fraction       : 
TLFamily_DWFE      .         Iron Weight Fraction          : 
TLFamily_DWGD      .         Gadolinium Weight Fraction    : 
TLFamily_DWK       .         Potassium Weight Fraction     : 
TLFamily_DWMG      .         Magnesium Weight Fraction     : 
TLFamily_DWMN      .         Manganese Weight Fraction     : 
TLFamily_DWS       .         Sulfur Weight Fraction        : 
TLFamily_DWSI      .         Silicon Weight Fraction       : 
TLFamily_DWTI      .         Titanium Weight Fraction      : 
TLFamily_GR        .         Gamma Ray                     : 
TLFamily_GRt       .         Gamma Ray                     : 
TLFamily_HCAL      .         Caliper                       : 
TLFamily_HDRA      .         Bulk Density Correction       : 
TLFamily_HFK       .         Potassium Concentration       : 
TLFamily_HTHO      .         Thorium Concentration         : 
TLFamily_HURA      .         Uranium Concentration         : 
TLFamily_MD        .         Measured Depth                : 
TLFamily_MPERM     .         NMR Permeability              : 
TLFamily_NMRE_Final .         NMR Bound Fluid Volume Fraction: 
TLFamily_NMRFL_Final .         NMR Free Fluids               : 
TLFamily_NMRT_Final .         NMR Porosity                  : 
TLFamily_NPHI      .         Neutron Porosity              : 
TLFamily_PE        .         Photoelectric Factor          : 
TLFamily_RD        .         Resistivity - Deep            : 
TLFamily_RHOB      .         Bulk Density                  : 
TLFamily_RM        .         Resistivity - Medium          : 
TLFamily_RS        .         Resistivity - Shallow         : 
TLFamily_TVDSS     .         True Vertical Depth Sub Sea   : 
~Curve Information
#_______________________________________________________________________________
#
#LOGNAME           .UNIT     LOG_ID                        : DESCRIPTION
#_______________________________________________________________________________
DEPTH              .M                                      :  
BS                 .in                                     :  
DT                 .us/ft                                  : SONICO COMPRESSIONAL (COMPOSICAO DE CURVAS CABO E/OU LWD) 
DWAL               .kg/kg                                  :  
DWCA               .kg/kg                                  :  
DWFE               .kg/kg                                  :  
DWGD               .ppm                                    :  
DWK                .kg/kg                                  :  
DWMG               .kg/kg                                  :  
DWMN               .kg/kg                                  :  
DWS                .kg/kg                                  :  
DWSI               .kg/kg                                  :  
DWTI               .kg/kg                                  :  
GR                 .gAPI                                   :  
GRt                .gAPI                                   :  
HCAL               .in                                     : CALIPER (COMPOSICAO DE CURVAS CABO E/OU LWD) 
HDRA               .g/cm3                                  : Density Delta Rho Filtered 
HFK                .%                                      :  
HTHO               .ppm                                    :  
HURA               .ppm                                    :  
MPERM              .mD                                     :  
NMRE_Final         .m3/m3                                  :  
NMRFL_Final        .unitless                               :  
NMRT_Final         .frac                                   :  
NPHI               .frac                                   : Neutron Porosity Limestone Filtered 
PE                 .b/e                                    : Density PE Filtered 
RD                 .ohm.m                                  : Vertical 2-foot resolution matched resistivity, 90-inch DOI 
RHOB               .g/cm3                                  : Bulk Density Filtered 
RM                 .ohm.m                                  : Vertical 2-foot resolution matched resistivity, 30-inch DOI 
RS                 .ohm.m                                  : Vertical 2-foot resolution matched resistivity, 10-inch DOI 
TVDSS              .M                                      :  
~Ascii
# ...
5546.750   12.250     88.184     0.008      0.275      0.010      3.077      0.007      0.068      0.001      0.001      0.101      0.002      26.571     26.733     -9999.000  -9999.000  0.296      1.481      2.801      0.000      0.041      0.003      0.117      -9999.000  -9999.000  3.761      -9999.000  3.689      3.870      5366.013  
5546.903   12.250     90.389     0.008      0.271      0.011      3.202      0.009      0.060      0.001      0.001      0.108      0.002      30.353     30.531     -9999.000  -9999.000  0.273      1.434      3.087      0.001      0.033      0.006      0.109      -9999.000  -9999.000  4.006      -9999.000  3.925      4.181      5366.156  
5547.055   12.250     90.716     0.008      0.267      0.011      3.261      0.010      0.063      0.001      0.001      0.117      0.001      35.674     35.881     -9999.000  -9999.000  0.237      1.324      3.550      0.000      0.021      0.006      0.115      -9999.000  -9999.000  4.852      -9999.000  4.744      5.153      5366.299  
5547.208   12.250     88.225     0.007      0.262      0.010      3.137      0.011      0.073      0.001      0.001      0.124      0.000      39.691     39.922     -9999.000  -9999.000  0.215      1.212      3.811      0.000      0.013      0.004      0.120      -9999.000  -9999.000  6.223      -9999.000  6.075      6.702      5366.442  
5547.360   12.250     83.574     0.007      0.262      0.009      2.933      0.012      0.080      0.001      0.001      0.130      0.000      41.410     41.652     -9999.000  -9999.000  0.211      1.156      3.839      0.000      0.010      0.002      0.119      -9999.000  -9999.000  6.889      -9999.000  6.746      7.362      5366.585  
5547.512   12.250     78.701     0.006      0.271      0.009      2.791      0.011      0.077      0.001      0.001      0.135      0.000      40.253     40.497     -9999.000  -9999.000  0.218      1.120      3.771      0.000      0.016      0.002      0.119      -9999.000  -9999.000  6.015      -9999.000  5.934      6.252      5366.729  
5547.665   12.250     74.287     0.006      0.283      0.008      2.758      0.008      0.065      0.001      0.001      0.138      0.000      36.505     36.740     -9999.000  -9999.000  0.238      1.096      3.634      0.000      0.021      0.003      0.098      -9999.000  -9999.000  4.872      -9999.000  4.845      5.009      5366.872  
5547.817   12.250     71.137     0.007      0.293      0.008      2.838      0.005      0.052      0.001      0.001      0.139      0.000      33.892     34.121     -9999.000  -9999.000  0.257      1.124      3.524      0.000      0.028      0.004      0.075      -9999.000  -9999.000  4.397      -9999.000  4.398      4.524      5367.015  
5547.970   12.250     70.109     0.007      0.299      0.008      3.006      0.004      0.042      0.001      0.001      0.136      0.000      35.256     35.491     -9999.000  -9999.000  0.267      1.182      3.470      0.001      0.033      0.007      0.069      -9999.000  -9999.000  4.407      -9999.000  4.439      4.567      5367.158  
5548.122   12.250     70.738     0.007      0.307      0.007      3.145      0.006      0.034      0.001      0.001      0.126      0.000      36.664     36.907     -9999.000  -9999.000  0.274      1.256      3.423      0.003      0.038      0.010      0.082      -9999.000  -9999.000  4.324      -9999.000  4.381      4.535      5367.302  
5548.274   12.250     72.728     0.008      0.317      0.007      3.122      0.008      0.026      0.001      0.001      0.112      0.000      33.470     33.699     -9999.000  -9999.000  0.261      1.370      3.321      0.002      0.033      0.009      0.090      -9999.000  -9999.000  3.674      -9999.000  3.729      3.876      5367.445  
5548.427   12.250     74.673     0.008      0.327      0.008      2.936      0.011      0.020      0.001      0.001      0.097      0.000      28.282     28.478     -9999.000  -9999.000  0.229      1.481      3.191      0.001      0.029      0.009      0.092      -9999.000  -9999.000  2.837      -9999.000  2.875      2.996      5367.588  
5548.579   12.250     76.170     0.009      0.332      0.009      2.707      0.012      0.017      0.001      0.001      0.085      0.000      26.079     26.247     -9999.000  -9999.000  0.213      1.531      3.137      0.003      0.035      0.010      0.094      -9999.000  -9999.000  2.349      -9999.000  2.373      2.473      5367.731  
5548.732   12.250     76.796     0.009      0.332      0.009      2.590      0.013      0.018      0.001      0.001      0.081      0.000      28.042     28.222     -9999.000  -9999.000  0.218      1.574      3.191      0.001      0.030      0.007      0.095      -9999.000  -9999.000  2.240      -9999.000  2.256      2.357      5367.874  
5548.884   12.250     77.608     0.009      0.328      0.010      2.682      0.012      0.019      0.001      0.001      0.086      0.000      32.277     32.493     -9999.000  -9999.000  0.257      1.610      3.345      0.000      0.020      0.003      0.098      -9999.000  -9999.000  2.472      -9999.000  2.483      2.605      5368.018  
5549.036   12.250     77.658     0.009      0.321      0.010      2.914      0.011      0.017      0.001      0.001      0.095      0.000      36.604     36.849     -9999.000  -9999.000  0.321      1.563      3.438      0.000      0.016      0.003      0.103      -9999.000  -9999.000  3.155      -9999.000  3.155      3.325      5368.161  
5549.189   12.250     77.076     0.009      0.318      0.010      3.072      0.011      0.014      0.001      0.001      0.103      0.000      38.946     39.204     -9999.000  -9999.000  0.363      1.507      3.393      0.000      0.022      0.003      0.106      -9999.000  -9999.000  4.476      -9999.000  4.447      4.670      5368.304  
5549.341   12.250     75.943     0.009      0.318      0.010      2.995      0.012      0.011      0.001      0.001      0.105      0.000      38.529     38.785     -9999.000  -9999.000  0.379      1.494      3.288      0.000      0.032      0.004      0.103      -9999.000  -9999.000  5.762      -9999.000  5.695      5.871      5368.447  
5549.494   12.250     75.553     0.008      0.323      0.010      2.722      0.014      0.010      0.001      0.001      0.102      0.000      36.123     36.358     -9999.000  -9999.000  0.387      1.496      3.089      0.001      0.038      0.005      0.099      -9999.000  -9999.000  5.502      -9999.000  5.445      5.431      5368.591  
5549.646   12.250     75.891     0.008      0.328      0.010      2.421      0.014      0.012      0.001      0.001      0.098      0.000      33.517     33.722     -9999.000  -9999.000  0.375      1.478      2.916      0.000      0.040      0.005      0.101      -9999.000  -9999.000  4.383      -9999.000  4.348      4.282      5368.734  
5549.798   12.250     77.100     0.008      0.330      0.010      2.216      0.013      0.017      0.001      0.001      0.095      0.000      32.034     32.215     -9999.000  -9999.000  0.354      1.429      2.895      0.000      0.036      0.003      0.098      -9999.000  -9999.000  3.838      -9999.000  3.832      3.786      5368.877  
5549.951   12.250     78.030     0.008      0.328      0.011      2.134      0.011      0.023      0.001      0.001      0.094      0.000      32.002     32.170     -9999.000  -9999.000  0.337      1.376      2.968      0.000      0.031      0.003      0.098      -9999.000  -9999.000  3.853      -9999.000  3.880      3.875      5369.020  
5550.103   12.250     78.501     0.007      0.323      0.011      2.201      0.009      0.026      0.001      0.001      0.096      0.000      33.993     34.167     -9999.000  -9999.000  0.316      1.259      3.212      0.000      0.035      0.005      0.108      -9999.000  -9999.000  3.957      -9999.000  4.029      4.102      5369.164  
5550.256   12.250     78.407     0.007      0.315      0.011      2.480      0.006      0.027      0.001      0.001      0.104      0.000      38.170     38.376     -9999.000  -9999.000  0.302      1.114      3.629      0.000      0.037      0.005      0.112      -9999.000  -9999.000  3.672      -9999.000  3.769      3.925      5369.307  
