~Version
 VERS              .         2.0                           : CWLS LOG ASCII STANDARD - VERSION 2.0
 WRAP              .         NO                            : ONE LINE PER DEPTH STEP
 DLM               .         SPACE                         : DELIMITING CHARACTER(SPACE TAB OR COMMA)
~Well Information
#_______________________________________________________________________________
#
#PARAMETER_NAME    .UNIT     VALUE                         : DESCRIPTION
#_______________________________________________________________________________
STRT               .M        2228.000                      : First reference value
STOP               .M        5446.688                      : Last reference value
STEP               .M        0.152                         : Step increment
NULL               .         -9999                         : Missing value
COMP               .         Petrobras                     : Company
WELL               .         8-SPH-13-SPS                  : Well name
FLD                .         Sapinhoa                      : Field
LOC                .                                       : Location
CNTY               .                                       : County
STAT               .         SAO PAULO                     : State
CTRY               .         BRASIL                        : Country
SRVC               .                                       : Service Company
DATE               .                                       : Date
API                .         863160035500                  : API number
APD                .M        24                            : Above Permanent Datum
BHT                .degF     120                           : Bottom Hole Temperature
BLI                .M        5180.5                        : Bottom Log Interval
BS                 .in       12.25x14.75                   : Bit Size
DCS                .         07/04/2014                    : Date Ciculation Stopped
DFD                .lbm/gal  10.1                          : Drilling Fluid Density
DFT                .         BR-MUL                        : Drilling Fluid Type
DLAB               .         08/04/2014                    : Date Logger At Bottom
EDF                .M        24                            : Elevation of Derreck Floor
EGL                .M        -2119                         : Elevation of Ground Level
EKB                .M        -999.25                       : ELEVATION OF KELLY BUSHING
EPD                .M        0                             : Elevation Of Permanent Datum
GDAT               .         SIRGAS2000                    : Geodetic Datum
LMF                .         MR                            : Log Measured From
LUL                .         MCE                           : LOGGING UNIT LOCATION
LUN                .         -999.25                       : LOGGING UNIT NUMBER
LATI               .         -25_42_39.196                 : Latitude
LONG               .         -43_09_15.905                 : Longitude
MCST               .degF     -999.25                       : Mud Cake Sample Temperature
MFST               .degF     -999.25                       : Mud Filtrate Sample Temperature
MRT                .degF     120                           : Maximum Recorded Temperature
MST                .degF     -999.25                       : Mud Sample Temperature
ORIGINALWELLNAME   .         8SPH 0013  SPS                : 
PDAT               .         NM                            : Permanent Datum
PRODUCER-CODE      .         15                            : 
PRODUCER-NAME      .         INTEQ                         : 
RMB                .ohm.m    -999.25                       : RESISTIVITY OF MUD - BHT
RMCS               .ohm.m    -999.25                       : Resistivity Of Mud Cake Sample
RMFS               .ohm.m    -999.25                       : Mud Filtrate Sample Resistivity
RMS                .ohm.m    -999.25                       : Mud Sample Resistivity
RUN                .         1                             : Run
TCS                .h        15_00                         : Time Ciculation Stopped
TDD                .M        5184                          : Total Depht - Driller
TDL                .M        5184                          : Total Depht - Logger
TLAB               .h        11_00                         : Time Logger At Bottom
TLI                .M        3543                          : Top Log Interval
X                  .M        685128.30900000               : X COORDINATE N
Y                  .M        7155027.01100000              : Y COORDINATE E
~Parameter Information Block
#_______________________________________________________________________________
#
#PARAMETER_NAME    .UNIT     VALUE                         : DESCRIPTION
#_______________________________________________________________________________
SET                .         BASE                          : 
TLFamily_DT        .         Compressional Slowness        : 
TLFamily_GR        .         Gamma Ray                     : 
TLFamily_HCAL      .         Caliper                       : 
TLFamily_MD        .         Measured Depth                : 
TLFamily_NMRE_Final .         NMR Bound Fluid Volume Fraction: 
TLFamily_NMRFL_Final .         NMR Free Fluids               : 
TLFamily_NMRT_Final .         NMR Porosity                  : 
TLFamily_NPHI      .         Neutron Porosity              : 
TLFamily_RD        .         Resistivity - Deep            : 
TLFamily_RHOB      .         Bulk Density                  : 
TLFamily_RM        .         Resistivity - Medium          : 
TLFamily_RS        .         Resistivity - Shallow         : 
~Curve Information
#_______________________________________________________________________________
#
#LOGNAME           .UNIT     LOG_ID                        : DESCRIPTION
#_______________________________________________________________________________
DEPTH              .M                                      :  
DT                 .us/ft                                  : SONICO COMPRESSIONAL (COMPOSICAO DE CURVAS CABO E/OU LWD) 
GR                 .gAPI                                   : RAIOS GAMA (COMPOSICAO DE CURVAS CABO E/OU LWD) 
HCAL               .in                                     : CALIPER (COMPOSICAO DE CURVAS CABO E/OU LWD) 
NMRE_Final         .m3/m3                                  : 03/02 - MRIL (HALLIBURTON) - MRIL EFFECTIVE POROSITY 
NMRFL_Final        .unitless                               : 03/02 - MRIL (HALLIBURTON) - FREE FLUID INDEX T2 
NMRT_Final         .frac                                   : 03/02 - MRIL (HALLIBURTON) - MRIAN MRIL TOTAL POROSITY 
NPHI               .frac                                   : POROSIDADE NEUTRONICA (COMPOSICAO DE CURVAS CABO E/OU LWD) 
RD                 .ohm.m                                  : RESISTIVIDADE PROFUNDA (COMPOSICAO DE CURVAS CABO E/OU LWD) 
RHOB               .g/cm3                                  : DENSIDADE (COMPOSICAO DE CURVAS CABO E/OU LWD ) 
RM                 .ohm.m                                  : RESISTIVIDADE MEDIA (COMPOSICAO DE CURVAS CABO E/OU LWD) 
RS                 .ohm.m                                  : RESISTIVIDADE RASA (COMPOSICAO DE CURVAS CABO E/OU LWD) 
~Ascii
# ...
3548.089   68.166     6.112      16.282     -9999.000  -9999.000  -9999.000  -0.007     2000.000   2.039      1205.937   1205.937  
3548.241   68.296     6.579      16.303     -9999.000  -9999.000  -9999.000  -0.007     2000.000   2.043      3449.979   3449.979  
3548.394   68.396     7.315      16.323     -9999.000  -9999.000  -9999.000  -0.010     2000.000   2.042      1544.886   1544.886  
3548.546   68.509     7.129      16.327     -9999.000  -9999.000  -9999.000  -0.016     1971.416   2.039      1354.229   1354.229  
3548.698   68.644     7.171      16.312     -9999.000  -9999.000  -9999.000  -0.018     1722.433   2.041      1797.189   1797.189  
3548.851   68.529     7.971      16.305     -9999.000  -9999.000  -9999.000  -0.018     1528.282   2.049      1544.886   1544.886  
3549.003   68.279     8.050      16.286     -9999.000  -9999.000  -9999.000  -0.017     1420.344   2.053      1544.886   1544.886  
3549.156   68.228     7.269      16.285     -9999.000  -9999.000  -9999.000  -0.017     1587.735   2.050      1544.886   1544.886  
3549.308   68.181     6.042      16.303     -9999.000  -9999.000  -9999.000  -0.018     1718.707   2.044      1544.886   1544.886  
3549.460   67.921     5.616      16.295     -9999.000  -9999.000  -9999.000  -0.025     1496.740   2.043      1354.229   1354.229  
3549.613   67.717     5.294      16.290     -9999.000  -9999.000  -9999.000  -0.036     1299.981   2.046      1544.886   1544.886  
3549.765   67.707     5.413      16.293     -9999.000  -9999.000  -9999.000  -0.038     1154.369   2.047      1544.886   1544.886  
3549.918   67.886     6.192      16.291     -9999.000  -9999.000  -9999.000  -0.037     1120.773   2.045      1354.229   1354.229  
3550.070   67.974     6.199      16.278     -9999.000  -9999.000  -9999.000  -0.036     1131.371   2.043      1544.886   1544.886  
3550.222   67.826     5.820      16.263     -9999.000  -9999.000  -9999.000  -0.036     1177.714   2.042      1797.189   1797.189  
3550.375   67.672     6.185      16.268     -9999.000  -9999.000  -9999.000  -0.035     1295.584   2.043      1544.886   1544.886  
3550.527   67.649     6.204      16.269     -9999.000  -9999.000  -9999.000  -0.036     1390.281   2.043      1797.189   1797.189  
3550.680   67.658     6.014      16.302     -9999.000  -9999.000  -9999.000  -0.036     1495.827   2.039      1797.189   1797.189  
3550.832   67.685     5.723      16.352     -9999.000  -9999.000  -9999.000  -0.036     1513.360   2.032      1797.189   1797.189  
3550.984   67.834     5.991      16.339     -9999.000  -9999.000  -9999.000  -0.035     1505.838   2.030      1797.189   1797.189  
3551.137   68.097     6.777      16.309     -9999.000  -9999.000  -9999.000  -0.035     1538.204   2.030      2143.342   2143.342  
3551.289   68.084     6.801      16.308     -9999.000  -9999.000  -9999.000  -0.035     1700.274   2.033      1544.886   1544.886  
3551.442   68.068     5.980      16.317     -9999.000  -9999.000  -9999.000  -0.036     1872.195   2.039      1544.886   1544.886  
3551.594   68.282     5.715      16.314     -9999.000  -9999.000  -9999.000  -0.036     1989.717   2.041      1354.229   1354.229  
3551.746   68.373     5.693      16.329     -9999.000  -9999.000  -9999.000  -0.036     2000.000   2.039      1797.189   1797.189  
3551.899   68.478     5.084      16.350     -9999.000  -9999.000  -9999.000  -0.035     2000.000   2.037      1797.189   1797.189  
3552.051   68.882     5.031      16.362     -9999.000  -9999.000  -9999.000  -0.035     2000.000   2.037      1544.886   1544.886  
3552.204   69.257     5.214      16.369     -9999.000  -9999.000  -9999.000  -0.035     1959.262   2.036      2143.342   2143.342  
3552.356   69.344     5.869      16.372     -9999.000  -9999.000  -9999.000  -0.035     1836.590   2.035      1797.189   1797.189  
3552.508   69.217     7.100      16.372     -9999.000  -9999.000  -9999.000  -0.035     1721.441   2.038      1544.886   1544.886  
3552.661   68.786     7.306      16.024     -9999.000  -9999.000  -9999.000  -0.035     1692.432   2.041      1544.886   1544.886  
3552.813   68.361     7.188      15.292     -9999.000  -9999.000  -9999.000  -0.034     1677.947   2.040      1544.886   1544.886  
3552.966   68.131     6.137      14.941     -9999.000  -9999.000  -9999.000  -0.033     1686.753   2.039      1544.886   1544.886  
3553.118   67.943     5.556      14.945     -9999.000  -9999.000  -9999.000  -0.033     1712.138   2.040      1797.189   1797.189  
3553.270   67.733     6.295      14.946     -9999.000  -9999.000  -9999.000  -0.033     1759.577   2.041      1797.189   1797.189  
3553.423   67.513     6.510      14.947     -9999.000  -9999.000  -9999.000  -0.033     1780.363   2.041      1797.189   1797.189  
3553.575   67.235     5.978      14.949     -9999.000  -9999.000  -9999.000  -0.033     1822.126   2.042      1797.189   1797.189  
3553.728   66.907     6.372      14.950     -9999.000  -9999.000  -9999.000  -0.033     1883.656   2.044      1797.189   1797.189  
3553.880   66.622     6.863      14.950     -9999.000  -9999.000  -9999.000  -0.033     1982.801   2.041      1354.229   1354.229  
3554.032   66.380     6.368      14.951     -9999.000  -9999.000  -9999.000  -0.033     2000.000   2.036      1544.886   1544.886  
3554.185   66.082     5.889      14.951     -9999.000  -9999.000  -9999.000  -0.033     2000.000   2.034      1354.229   1354.229  
3554.337   65.678     6.359      14.952     -9999.000  -9999.000  -9999.000  -0.033     2000.000   2.035      1544.886   1544.886  
3554.490   65.391     7.317      14.953     -9999.000  -9999.000  -9999.000  -0.033     1965.651   2.038      2644.926   2644.926  
3554.642   65.345     7.478      14.954     -9999.000  -9999.000  -9999.000  -0.033     1813.443   2.040      1544.886   1544.886  
3554.794   65.137     6.456      14.955     -9999.000  -9999.000  -9999.000  -0.033     1592.720   2.044      1797.189   1797.189  
3554.947   65.023     5.974      14.955     -9999.000  -9999.000  -9999.000  -0.033     1425.529   2.048      1797.189   1797.189  
3555.099   65.197     6.175      14.955     -9999.000  -9999.000  -9999.000  -0.033     1120.529   2.049      1205.937   1205.937  
3555.252   65.733     6.070      14.956     -9999.000  -9999.000  -9999.000  -0.033     934.449    2.047      2644.926   2644.926  
3555.404   66.302     5.456      14.956     -9999.000  -9999.000  -9999.000  -0.033     801.685    2.044      1797.189   1797.189  
3555.556   66.722     5.449      14.957     -9999.000  -9999.000  -9999.000  -0.033     793.844    2.042      2143.342   2143.342  
3555.709   67.064     6.263      14.956     -9999.000  -9999.000  -9999.000  -0.033     853.302    2.041      1797.189   1797.189  
3555.861   67.407     6.978      14.957     -9999.000  -9999.000  -9999.000  -0.033     928.923    2.042      1797.189   1797.189  
3556.014   67.746     7.089      14.958     -9999.000  -9999.000  -9999.000  -0.033     1038.643   2.042      1797.189   1797.189  
3556.166   68.176     6.181      14.958     -9999.000  -9999.000  -9999.000  -0.033     1286.115   2.043      1797.189   1797.189  
3556.318   68.391     6.121      14.959     -9999.000  -9999.000  -9999.000  -0.033     1442.375   2.044      1797.189   1797.189  
3556.471   68.676     6.110      14.960     -9999.000  -9999.000  -9999.000  -0.033     1623.144   2.042      1544.886   1544.886  
3556.623   68.986     5.891      14.959     -9999.000  -9999.000  -9999.000  -0.032     1689.041   2.040      2143.342   2143.342  
3556.776   69.171     5.661      14.959     -9999.000  -9999.000  -9999.000  -0.033     1642.518   2.043      2143.342   2143.342  
3556.928   69.209     5.906      14.959     -9999.000  -9999.000  -9999.000  -0.033     1521.155   2.047      1797.189   1797.189  
3557.080   69.158     6.506      14.960     -9999.000  -9999.000  -9999.000  -0.033     1462.916   2.048      1544.886   1544.886  
3557.233   69.015     6.640      14.961     -9999.000  -9999.000  -9999.000  -0.033     1556.939   2.046      1797.189   1797.189  
