~Version
 VERS              .         2.0                           : CWLS LOG ASCII STANDARD - VERSION 2.0
 WRAP              .         NO                            : ONE LINE PER DEPTH STEP
 DLM               .         SPACE                         : DELIMITING CHARACTER(SPACE TAB OR COMMA)
~Well Information
#_______________________________________________________________________________
#
#PARAMETER_NAME    .UNIT     VALUE                         : DESCRIPTION
#_______________________________________________________________________________
STRT               .M        5060.036                      : First reference value
STOP               .M        5304.790                      : Last reference value
STEP               .M        0.152                         : Step increment
NULL               .         -9999                         : Missing value
COMP               .         PETROBRAS                     : Company
WELL               .         8-SPH-11-SPS                  : Well name
FLD                .         SAPINHOA                      : Field
LOC                .                                       : Location
PROV               .                                       : Province
SRVC               .                                       : Service Company
DATE               .         23/09/2015                    : Date
UWI                .         8-SPH-11-SPS                  : Unique Well ID
APD                .M        24                            : Elevation of Depth Reference (LMF) Above Permanent Datum
API                .                                       : API NUMBER
BHS                .         OPEN                          : Borehole Status (Open or Cased Hole)
BHT                .degF     135                           : Bottom Hole Temperature
BLI                .M        5299.5                        : Bottom Log Interval
BS                 .in       12.25                         : Bit Size
CBDR               .M        5086                          : Casing Bottom (Driller)
CBLO               .M        5084                          : Casing Bottom (Logger)
CSIZ               .in       14                            : Casing Outer Diameter
CWEI               .lbm/ft   115                           : Casing Weight
CTRY               .         BRASIL                        : Nation
DCS                .         22/09/2015                    : Date Circulation Stopped
DFD                .lb/gal   9.7                           : Drilling Fluid Density
DFT                .         Cationico Flex Drill(Base Agua): Drilling Fluid Type
DLAB               .         23/09/2015                    : Date Logging on Bottom
EDF                .M        24                            : Elevation of Drill Floor
EGL                .M        -2165                         : Elevation of Ground Level
EKB                .M        24                            : Elevation of Kelly Bushing
EPD                .M        0                             : Elevation of Permanent Datum (PDAT) above Mean Sea Level
LMF                .         MR                            : Logging Measured From (Name of Logging Elevation Reference)
LUL                .          BRMA                         : Logging Unit Location
LUN                .         OSU-PA 7032                   : Logging Unit Number
LONG               .         -43_13_56,159                 : Longitude
MCST               .degF     77.1                          : Mudcake Sample Temperature
MFST               .degF     78.3                          : Mud Filtrate Sample Temperature
MRT                .degF     135                           : Maximum Recorded Temperature
MST                .degF     77.9                          : Mud Sample Temperature
ORIGINALWELLNAME   .         P09                           : 
PDAT               .         NM                            : Permanent Datum
PRODUCER-CODE      .         440                           : 
PRODUCER-NAME      .         Schlumberger                  : 
RMB                .ohm.m    0.0430009                     : Resistivity of Mud at Bottom Hole Temperature
RMCS               .ohm.m    0.08                          : Resistivity of Mud Cake Sample
RMFS               .ohm.m    0.062                         : Resistivity of Mud Filtrate Sample
RMS                .ohm.m    0.072                         : Resistivity of Mud Sample
RUN                .         3                             : Run Number
STAT               .         SAO PAULO                     : State or Province
TCS                .h        10_30                         : Time Circulation Stopped
TDD                .M        5301                          : Total Depth (Driller)
TDL                .M        5301.5                        : Logger Total Depth
TLAB               .h        23_45                         : Time Logging on Bottom
TLI                .M        5084                          : Top Log Interval
X                  .M        677112.00000000               : 
Y                  .M        7136745.00000000              : 
~Parameter Information Block
#_______________________________________________________________________________
#
#PARAMETER_NAME    .UNIT     VALUE                         : DESCRIPTION
#_______________________________________________________________________________
SET                .         BASE                          : 
TLFamily_BS        .         Bit Size                      : 
TLFamily_DT        .         Compressional Slowness        : 
TLFamily_DWAL      .         Aluminum Weight Fraction      : 
TLFamily_DWCA      .         Calcium Weight Fraction       : 
TLFamily_DWFE      .         Iron Weight Fraction          : 
TLFamily_DWGD      .         Gadolinium Weight Fraction    : 
TLFamily_DWS       .         Sulfur Weight Fraction        : 
TLFamily_DWSI      .         Silicon Weight Fraction       : 
TLFamily_DWTI      .         Titanium Weight Fraction      : 
TLFamily_GR        .         Gamma Ray                     : 
TLFamily_GRt       .         Gamma Ray                     : 
TLFamily_HCAL      .         Caliper                       : 
TLFamily_HDRA      .         Bulk Density Correction       : 
TLFamily_HFK       .         Potassium Concentration       : 
TLFamily_HTHO      .         Thorium Concentration         : 
TLFamily_HURA      .         Uranium Concentration         : 
TLFamily_KSDR      .         NMR Permeability              : 
TLFamily_KTIM      .         NMR Permeability              : 
TLFamily_MD        .         Measured Depth                : 
TLFamily_NMRE_Final .         NMR Bound Fluid Volume Fraction: 
TLFamily_NMRFL_Final .         NMR Free Fluids               : 
TLFamily_NMRT_Final .         NMR Porosity                  : 
TLFamily_NPHI      .         Neutron Porosity              : 
TLFamily_PE        .         Photoelectric Factor          : 
TLFamily_RD        .         Resistivity - Deep            : 
TLFamily_RHOB      .         Bulk Density                  : 
TLFamily_RM        .         Resistivity - Medium          : 
TLFamily_RS        .         Resistivity - Shallow         : 
TLFamily_T2LM      .         NMR T2 Logarithmic Mean       : 
TLFamily_TVDSS     .         True Vertical Depth Sub Sea   : 
~Curve Information
#_______________________________________________________________________________
#
#LOGNAME           .UNIT     LOG_ID                        : DESCRIPTION
#_______________________________________________________________________________
DEPTH              .M                                      :  
BS                 .in                                     : Bit Size 
DT                 .us/ft                                  : Delta-T Compressional 
DWAL               .kg/kg                                  : Dry Weight Fraction Pseudo Aluminum (SpectroLith WALK2 Model) 
DWCA               .kg/kg                                  : Dry Weight Fraction Calcium (SpectroLith WALK2 Model) 
DWFE               .kg/kg                                  : Dry Weight Fraction Iron + 0.14 Aluminum (SpectroLith WALK2 Model) 
DWGD               .ppm                                    : Dry Weight Fraction Gadolinium (SpectroLith WALK2 Model) 
DWS                .kg/kg                                  : Dry Weight Fraction Sulfur (SpectroLith WALK2 Model) 
DWSI               .kg/kg                                  : Dry Weight Fraction Silicon (SpectroLith WALK2 Model) 
DWTI               .kg/kg                                  : Dry Weight Fraction Titanium (SpectroLith WALK2 Model) 
GR                 .gAPI                                   : Gamma Ray 
GRt                .gAPI                                   : HNGS Standard Gamma-Ray 
HCAL               .in                                     : HRCC Caliper Calibrated 
HDRA               .g/cm3                                  : Density Standoff Correction 
HFK                .%                                      : HNGS Formation Potassium Concentration 
HTHO               .ppm                                    : HNGS Formation Thorium Concentration 
HURA               .ppm                                    : HNGS Formation Uranium Concentration 
KSDR               .mD                                     : SDR Permeability 
KTIM               .mD                                     : Timur/Coates Permeability 
NMRE_Final         .m3/m3                                  :  
NMRFL_Final        .unitless                               :  
NMRT_Final         .frac                                   :  
NPHI               .frac                                   : Enhanced Thermal Neutron Porosity in Selected Lithology 
PE                 .b/e                                    : Standard Resolution Formation Photoelectric Factor 
RD                 .ohm.m                                  : Apparent Resistivity from Computed Focusing Mode 5 
RHOB               .g/cm3                                  : Standard Resolution Formation Density 
RM                 .ohm.m                                  : Apparent Resistivity from Computed Focusing Mode 4 
RS                 .ohm.m                                  : Apparent Resistivity from Computed Focusing Mode 3 
T2LM               .ms                                     : T2 Logarithmic Mean 
TVDSS              .M                                      :  
~Ascii
# ...
5094.326   12.250     65.085     0.007      0.269      0.004      4.224      0.000      0.142      0.000      48.040     43.189     12.344     -0.008     0.598      1.139      3.639      12.307     6.375      0.101      0.072      0.101      0.119      3.962      1620.125   2.569      684.675    1081.362   172.954    5069.286  
5094.478   12.250     65.879     0.004      0.270      0.002      3.490      0.001      0.144      0.000      52.915     48.045     12.333     -0.006     0.667      1.288      4.033      14.231     6.022      0.100      0.071      0.100      0.124      3.806      1119.908   2.549      554.393    787.112    187.691    5069.437  
5094.630   12.250     65.448     0.002      0.279      0.001      1.894      0.009      0.134      0.000      46.766     44.117     12.319     -0.005     0.619      1.178      3.683      14.603     5.573      0.100      0.070      0.100      0.140      3.874      884.822    2.537      501.188    709.527    189.798    5069.589  
5094.783   12.250     64.664     0.001      0.287      0.001      0.000      0.022      0.119      0.000      37.634     32.760     12.311     -0.006     0.472      0.812      2.747      14.908     5.541      0.099      0.070      0.099      0.136      4.104      752.166    2.545      451.852    624.987    198.660    5069.740  
5094.935   12.250     63.365     0.002      0.292      0.001      0.000      0.027      0.109      0.000      35.038     23.620     12.305     -0.008     0.341      0.536      2.004      16.206     5.612      0.094      0.068      0.094      0.115      4.254      578.768    2.573      377.232    483.799    229.248    5069.892  
5095.088   12.250     62.300     0.003      0.293      0.002      0.000      0.028      0.105      0.000      43.235     22.972     12.305     -0.009     0.336      0.440      1.971      22.229     7.876      0.091      0.070      0.091      0.109      4.211      379.203    2.596      281.224    321.965    284.163    5070.044  
5095.240   12.250     62.548     0.004      0.299      0.003      0.000      0.024      0.098      0.000      49.881     29.776     12.309     -0.007     0.449      0.529      2.543      23.418     8.329      0.091      0.071      0.091      0.105      4.082      115.862    2.604      104.564    121.505    294.413    5070.195  
5095.392   12.250     62.646     0.003      0.306      0.003      0.000      0.019      0.094      0.000      48.953     35.182     12.308     0.001      0.539      0.624      2.958      19.886     7.390      0.089      0.069      0.089      0.115      4.109      341.561    2.590      241.764    235.540    281.823    5070.347  
5095.545   12.250     62.261     0.001      0.314      0.001      0.000      0.013      0.091      0.000      41.400     33.869     12.309     0.008      0.509      0.631      2.855      10.872     4.206      0.087      0.063      0.088      0.127      4.263      800.612    2.576      434.503    477.011    213.995    5070.498  
5095.697   12.250     61.708     0.000      0.313      0.000      0.000      0.010      0.097      0.000      34.694     28.448     12.324     0.005      0.437      0.592      2.368      3.451      1.299      0.088      0.053      0.090      0.109      4.396      1083.518   2.570      507.810    581.652    115.042    5070.650  
5095.850   12.250     60.792     0.000      0.307      0.000      0.000      0.008      0.105      0.000      32.345     24.786     12.319     -0.002     0.409      0.619      1.975      3.451      1.299      0.088      0.053      0.090      0.088      4.315      1457.996   2.583      597.504    690.032    115.037    5070.801  
5096.002   12.250     60.058     0.002      0.285      0.001      0.000      0.005      0.130      0.000      37.256     27.087     12.316     -0.008     0.453      0.741      2.122      0.849      0.301      0.079      0.038      0.082      0.081      4.038      953.045    2.593      467.726    531.702    68.315     5070.953  
5096.154   12.250     59.422     0.007      0.251      0.003      0.000      0.000      0.163      0.000      47.035     34.563     12.313     -0.007     0.577      0.963      2.703      0.195      0.065      0.070      0.024      0.073      0.071      3.707      490.233    2.592      315.059    350.200    41.249     5071.105  
5096.307   12.250     58.108     0.010      0.228      0.006      0.000      0.000      0.183      0.000      59.359     45.994     12.302     -0.003     0.761      1.285      3.622      0.079      0.022      0.062      0.017      0.064      0.070      3.553      213.418    2.588      168.106    185.310    34.815     5071.256  
5096.459   12.250     57.221     0.008      0.246      0.004      0.000      0.000      0.166      0.000      66.080     55.347     12.300     -0.004     0.919      1.637      4.304      0.076      0.015      0.054      0.016      0.054      0.107      3.763      82.244     2.591      73.840     81.090     47.649     5071.408  
5096.612   12.250     56.996     0.005      0.292      0.003      0.000      0.000      0.117      0.000      60.940     54.842     12.306     -0.004     0.921      1.751      4.209      0.108      0.024      0.053      0.019      0.053      0.121      4.226      98.893     2.598      88.614     97.549     57.422     5071.559  
5096.764   12.250     56.831     0.006      0.330      0.004      0.000      0.002      0.071      0.000      47.236     43.794     12.311     -0.010     0.765      1.460      3.274      0.223      0.046      0.059      0.023      0.059      0.080      4.701      275.731    2.598      225.513    269.573    68.335     5071.711  
5096.916   12.250     56.490     0.009      0.342      0.006      0.000      0.006      0.048      0.000      34.891     31.776     12.311     -0.008     0.575      1.089      2.316      0.311      0.062      0.062      0.024      0.062      0.062      4.957      383.438    2.605      298.043    385.961    73.403     5071.862  
5097.069   12.250     55.994     0.013      0.340      0.009      0.000      0.009      0.043      0.000      31.376     26.154     12.308     -0.004     0.473      0.945      1.886      0.339      0.074      0.063      0.026      0.064      0.058      4.992      504.110    2.627      368.801    482.168    70.976     5072.014  
5097.221   12.250     55.814     0.013      0.334      0.009      0.000      0.012      0.047      0.000      33.224     27.387     12.311     -0.000     0.505      1.024      1.928      0.433      0.119      0.069      0.029      0.071      0.066      4.938      323.650    2.652      260.546    327.597    65.117     5072.166  
5097.374   12.250     56.070     0.011      0.333      0.008      0.000      0.013      0.052      0.000      36.599     29.422     12.304     0.002      0.531      1.113      2.062      0.492      0.141      0.068      0.030      0.071      0.081      4.867      310.051    2.660      245.695    298.638    70.217     5072.317  
5097.526   12.250     56.269     0.007      0.335      0.005      0.022      0.010      0.058      0.000      37.978     30.979     12.306     0.001      0.506      1.101      2.274      0.632      0.251      0.068      0.035      0.069      0.095      4.776      292.194    2.655      231.242    275.125    84.092     5072.469  
5097.678   12.250     55.897     0.005      0.335      0.003      0.044      0.007      0.064      0.000      38.498     31.586     12.318     0.000      0.462      0.968      2.498      0.707      0.330      0.068      0.038      0.068      0.093      4.519      373.816    2.668      267.511    324.517    91.423     5072.620  
5097.831   12.250     55.640     0.003      0.323      0.002      0.000      0.007      0.080      0.000      38.884     31.321     12.300     0.002      0.411      0.884      2.622      0.833      0.389      0.069      0.039      0.069      0.089      4.123      631.897    2.691      387.551    500.977    97.147     5072.772  
5097.983   12.250     56.215     0.003      0.297      0.002      0.000      0.007      0.111      0.000      39.231     31.223     12.313     0.002      0.385      0.865      2.683      1.465      0.670      0.073      0.044      0.073      0.088      3.647      519.102    2.701      335.423    429.248    115.652    5072.923  
