~Version
 VERS              .         2.0                           : CWLS LOG ASCII STANDARD - VERSION 2.0
 WRAP              .         NO                            : ONE LINE PER DEPTH STEP
 DLM               .         SPACE                         : DELIMITING CHARACTER(SPACE TAB OR COMMA)
~Well Information
#_______________________________________________________________________________
#
#PARAMETER_NAME    .UNIT     VALUE                         : DESCRIPTION
#_______________________________________________________________________________
STRT               .M        2228.000                      : First reference value
STOP               .M        5446.688                      : Last reference value
STEP               .M        0.152                         : Step increment
NULL               .         -9999                         : Missing value
COMP               .         Petrobras                     : Company
WELL               .         8-SPH-13-SPS                  : Well name
FLD                .         Sapinhoa                      : Field
LOC                .                                       : Location
CNTY               .                                       : County
STAT               .         SAO PAULO                     : State
CTRY               .         BRASIL                        : Country
SRVC               .                                       : Service Company
DATE               .                                       : Date
API                .         863160035500                  : API number
APD                .M        24                            : Above Permanent Datum
BHT                .degF     120                           : Bottom Hole Temperature
BLI                .M        5180.5                        : Bottom Log Interval
BS                 .in       12.25x14.75                   : Bit Size
DCS                .         07/04/2014                    : Date Ciculation Stopped
DFD                .lbm/gal  10.1                          : Drilling Fluid Density
DFT                .         BR-MUL                        : Drilling Fluid Type
DLAB               .         08/04/2014                    : Date Logger At Bottom
EDF                .M        24                            : Elevation of Derreck Floor
EGL                .M        -2119                         : Elevation of Ground Level
EKB                .M        -999.25                       : ELEVATION OF KELLY BUSHING
EPD                .M        0                             : Elevation Of Permanent Datum
GDAT               .         SIRGAS2000                    : Geodetic Datum
LMF                .         MR                            : Log Measured From
LUL                .         MCE                           : LOGGING UNIT LOCATION
LUN                .         -999.25                       : LOGGING UNIT NUMBER
LATI               .         -25_42_39.196                 : Latitude
LONG               .         -43_09_15.905                 : Longitude
MCST               .degF     -999.25                       : Mud Cake Sample Temperature
MFST               .degF     -999.25                       : Mud Filtrate Sample Temperature
MRT                .degF     120                           : Maximum Recorded Temperature
MST                .degF     -999.25                       : Mud Sample Temperature
ORIGINALWELLNAME   .         8SPH 0013  SPS                : 
PDAT               .         NM                            : Permanent Datum
PRODUCER-CODE      .         15                            : 
PRODUCER-NAME      .         INTEQ                         : 
RMB                .ohm.m    -999.25                       : RESISTIVITY OF MUD - BHT
RMCS               .ohm.m    -999.25                       : Resistivity Of Mud Cake Sample
RMFS               .ohm.m    -999.25                       : Mud Filtrate Sample Resistivity
RMS                .ohm.m    -999.25                       : Mud Sample Resistivity
RUN                .         1                             : Run
TCS                .h        15_00                         : Time Ciculation Stopped
TDD                .M        5184                          : Total Depht - Driller
TDL                .M        5184                          : Total Depht - Logger
TLAB               .h        11_00                         : Time Logger At Bottom
TLI                .M        3543                          : Top Log Interval
X                  .M        685128.30900000               : X COORDINATE N
Y                  .M        7155027.01100000              : Y COORDINATE E
~Parameter Information Block
#_______________________________________________________________________________
#
#PARAMETER_NAME    .UNIT     VALUE                         : DESCRIPTION
#_______________________________________________________________________________
SET                .         BASE                          : 
TLFamily_DT        .         Compressional Slowness        : 
TLFamily_GR        .         Gamma Ray                     : 
TLFamily_HCAL      .         Caliper                       : 
TLFamily_MD        .         Measured Depth                : 
TLFamily_NMRE_Final .         NMR Bound Fluid Volume Fraction: 
TLFamily_NMRFL_Final .         NMR Free Fluids               : 
TLFamily_NMRT_Final .         NMR Porosity                  : 
TLFamily_NPHI      .         Neutron Porosity              : 
TLFamily_RD        .         Resistivity - Deep            : 
TLFamily_RHOB      .         Bulk Density                  : 
TLFamily_RM        .         Resistivity - Medium          : 
TLFamily_RS        .         Resistivity - Shallow         : 
~Curve Information
#_______________________________________________________________________________
#
#LOGNAME           .UNIT     LOG_ID                        : DESCRIPTION
#_______________________________________________________________________________
DEPTH              .M                                      :  
DT                 .us/ft                                  : SONICO COMPRESSIONAL (COMPOSICAO DE CURVAS CABO E/OU LWD) 
GR                 .gAPI                                   : RAIOS GAMA (COMPOSICAO DE CURVAS CABO E/OU LWD) 
HCAL               .in                                     : CALIPER (COMPOSICAO DE CURVAS CABO E/OU LWD) 
NMRE_Final         .m3/m3                                  : 03/02 - MRIL (HALLIBURTON) - MRIL EFFECTIVE POROSITY 
NMRFL_Final        .unitless                               : 03/02 - MRIL (HALLIBURTON) - FREE FLUID INDEX T2 
NMRT_Final         .frac                                   : 03/02 - MRIL (HALLIBURTON) - MRIAN MRIL TOTAL POROSITY 
NPHI               .frac                                   : POROSIDADE NEUTRONICA (COMPOSICAO DE CURVAS CABO E/OU LWD) 
RD                 .ohm.m                                  : RESISTIVIDADE PROFUNDA (COMPOSICAO DE CURVAS CABO E/OU LWD) 
RHOB               .g/cm3                                  : DENSIDADE (COMPOSICAO DE CURVAS CABO E/OU LWD ) 
RM                 .ohm.m                                  : RESISTIVIDADE MEDIA (COMPOSICAO DE CURVAS CABO E/OU LWD) 
RS                 .ohm.m                                  : RESISTIVIDADE RASA (COMPOSICAO DE CURVAS CABO E/OU LWD) 
~Ascii
# ...
5184.255   60.745     28.601     12.391     0.087      0.060      0.092      0.131      4.700      2.589      4.730      4.730     
5184.408   60.902     27.758     12.367     0.084      0.061      0.089      0.129      4.885      2.589      5.327      5.327     
5184.560   60.527     25.053     12.347     0.083      0.062      0.088      0.133      5.166      2.581      6.112      6.112     
5184.712   59.710     22.264     12.346     0.088      0.063      0.090      0.141      5.515      2.566      6.483      6.483     
5184.865   58.862     20.068     12.342     0.094      0.063      0.095      0.148      5.879      2.551      6.666      6.666     
5185.017   58.107     19.461     12.348     0.099      0.062      0.099      0.148      6.268      2.555      6.956      6.956     
5185.170   57.546     17.768     12.364     0.094      0.057      0.094      0.133      6.532      2.590      8.359      8.359     
5185.322   57.228     17.689     12.353     0.088      0.052      0.089      0.117      6.805      2.623      9.900      9.900     
5185.474   57.173     18.970     12.335     0.082      0.045      0.084      0.118      7.352      2.623      10.824     10.824    
5185.627   57.487     18.424     12.340     0.080      0.049      0.086      0.126      7.550      2.614      11.313     11.313    
5185.779   57.782     17.097     12.351     0.080      0.054      0.088      0.133      7.675      2.611      11.880     11.880    
5185.932   57.694     17.373     12.359     0.079      0.055      0.087      0.131      7.747      2.609      11.801     11.801    
5186.084   57.563     19.438     12.370     0.077      0.055      0.085      0.127      7.769      2.615      11.210     11.210    
5186.236   57.836     21.074     12.353     0.074      0.054      0.082      0.126      7.716      2.629      10.900     10.900    
5186.389   58.489     24.298     12.362     0.072      0.049      0.085      0.127      7.489      2.634      9.636      9.636     
5186.541   58.956     26.403     12.372     0.074      0.044      0.088      0.132      7.183      2.629      7.331      7.331     
5186.694   59.031     26.694     12.370     0.080      0.037      0.089      0.143      6.942      2.620      6.119      6.119     
5186.846   58.958     26.265     12.374     0.086      0.039      0.090      0.154      6.601      2.610      6.123      6.123     
5186.998   58.978     26.513     12.365     0.091      0.046      0.091      0.153      6.121      2.606      6.946      6.946     
5187.151   59.258     29.865     12.349     0.086      0.044      0.097      0.139      5.893      2.609      7.110      7.110     
5187.303   59.607     36.104     12.364     0.081      0.044      0.103      0.122      5.409      2.614      6.554      6.554     
5187.456   59.667     35.812     12.363     0.074      0.044      0.108      0.117      5.150      2.612      6.305      6.305     
5187.608   59.746     28.581     12.356     0.076      0.047      0.105      0.128      4.844      2.598      6.036      6.036     
5187.760   60.219     25.004     12.360     0.082      0.051      0.100      0.142      4.568      2.585      5.585      5.585     
5187.913   60.950     25.058     12.356     0.086      0.051      0.099      0.149      4.351      2.582      4.995      4.995     
5188.065   61.718     27.005     12.365     0.091      0.051      0.098      0.158      4.142      2.580      4.429      4.429     
5188.218   62.508     25.142     12.377     0.096      0.054      0.099      0.167      3.938      2.571      3.979      3.979     
5188.370   63.265     20.311     12.356     0.100      0.064      0.101      0.172      3.770      2.550      3.687      3.687     
5188.522   63.849     18.736     12.328     0.104      0.075      0.104      0.167      3.636      2.529      3.465      3.465     
5188.675   64.250     17.300     12.344     0.107      0.081      0.107      0.160      3.535      2.523      3.286      3.286     
5188.827   64.425     16.133     12.379     0.111      0.090      0.114      0.159      3.463      2.527      3.164      3.164     
5188.980   64.571     14.975     12.373     0.117      0.099      0.124      0.163      3.349      2.538      2.941      2.941     
5189.132   64.823     15.328     12.379     0.126      0.106      0.134      0.172      3.273      2.541      2.720      2.720     
5189.284   65.024     17.060     12.415     0.134      0.111      0.142      0.184      3.243      2.521      2.620      2.620     
5189.437   65.005     19.443     12.438     0.139      0.115      0.143      0.195      3.211      2.492      2.646      2.646     
5189.589   64.460     21.894     12.430     0.139      0.116      0.142      0.198      3.219      2.474      2.764      2.764     
5189.742   63.339     21.785     12.404     0.137      0.116      0.139      0.196      3.291      2.465      2.942      2.942     
5189.894   61.900     20.618     12.384     0.125      0.106      0.132      0.190      3.359      2.465      3.227      3.227     
5190.046   60.630     20.007     12.378     0.114      0.097      0.125      0.183      3.431      2.479      3.744      3.744     
5190.199   59.758     18.933     12.355     0.108      0.087      0.116      0.168      3.531      2.522      4.298      4.298     
5190.351   59.491     19.234     12.336     0.108      0.082      0.116      0.150      3.703      2.574      4.411      4.411     
5190.504   60.100     22.761     12.353     0.111      0.080      0.120      0.151      3.850      2.591      4.108      4.108     
5190.656   61.019     25.501     12.369     0.108      0.071      0.127      0.166      3.999      2.576      3.925      3.925     
5190.808   61.401     29.296     12.365     0.105      0.064      0.126      0.171      4.223      2.550      3.976      3.976     
5190.961   61.150     29.584     12.379     0.102      0.058      0.116      0.165      4.476      2.541      4.340      4.340     
5191.113   60.237     27.885     12.385     0.097      0.053      0.104      0.156      4.768      2.554      4.823      4.823     
5191.266   59.141     23.454     12.381     0.090      0.049      0.091      0.141      5.121      2.578      5.635      5.635     
5191.418   58.392     21.182     12.364     0.083      0.044      0.084      0.129      5.360      2.608      6.462      6.462     
5191.570   58.029     20.784     12.355     0.075      0.040      0.079      0.128      5.640      2.621      7.230      7.230     
5191.723   57.766     21.532     12.337     0.067      0.037      0.075      0.134      6.076      2.612      8.177      8.177     
5191.875   57.320     21.292     12.338     0.065      0.037      0.070      0.139      6.518      2.600      8.582      8.582     
5192.028   56.895     20.675     12.386     0.063      0.038      0.065      0.135      6.841      2.615      9.097      9.097     
5192.180   56.853     19.829     12.413     0.060      0.033      0.062      0.121      7.219      2.645      9.668      9.668     
5192.332   57.140     19.924     12.424     0.057      0.029      0.060      0.110      7.549      2.661      10.233     10.233    
5192.485   57.861     21.520     12.393     0.054      0.026      0.059      0.115      8.090      2.648      9.918      9.918     
5192.637   59.039     21.633     12.361     0.060      0.032      0.064      0.126      8.378      2.629      9.644      9.644     
5192.790   60.085     20.410     12.360     0.067      0.039      0.071      0.135      8.881      2.613      9.157      9.157     
5192.942   60.400     19.926     12.347     0.071      0.046      0.079      0.138      9.571      2.604      8.482      8.482     
5193.094   60.088     19.908     12.343     0.071      0.049      0.082      0.137      10.141     2.602      8.245      8.245     
5193.247   59.500     21.219     12.340     0.068      0.051      0.083      0.143      10.576     2.605      8.648      8.648     
5193.399   59.016     22.555     12.335     0.072      0.053      0.089      0.149      10.909     2.624      10.120     10.120    
