~Version
 VERS              .         2.0                           : CWLS LOG ASCII STANDARD - VERSION 2.0
 WRAP              .         NO                            : ONE LINE PER DEPTH STEP
 DLM               .         SPACE                         : DELIMITING CHARACTER(SPACE TAB OR COMMA)
~Well Information
#_______________________________________________________________________________
#
#PARAMETER_NAME    .UNIT     VALUE                         : DESCRIPTION
#_______________________________________________________________________________
STRT               .M        2228.000                      : First reference value
STOP               .M        5446.688                      : Last reference value
STEP               .M        0.152                         : Step increment
NULL               .         -9999                         : Missing value
COMP               .         Petrobras                     : Company
WELL               .         8-SPH-13-SPS                  : Well name
FLD                .         Sapinhoa                      : Field
LOC                .                                       : Location
CNTY               .                                       : County
STAT               .         SAO PAULO                     : State
CTRY               .         BRASIL                        : Country
SRVC               .                                       : Service Company
DATE               .                                       : Date
API                .         863160035500                  : API number
APD                .M        24                            : Above Permanent Datum
BHT                .degF     120                           : Bottom Hole Temperature
BLI                .M        5180.5                        : Bottom Log Interval
BS                 .in       12.25x14.75                   : Bit Size
DCS                .         07/04/2014                    : Date Ciculation Stopped
DFD                .lbm/gal  10.1                          : Drilling Fluid Density
DFT                .         BR-MUL                        : Drilling Fluid Type
DLAB               .         08/04/2014                    : Date Logger At Bottom
EDF                .M        24                            : Elevation of Derreck Floor
EGL                .M        -2119                         : Elevation of Ground Level
EKB                .M        -999.25                       : ELEVATION OF KELLY BUSHING
EPD                .M        0                             : Elevation Of Permanent Datum
GDAT               .         SIRGAS2000                    : Geodetic Datum
LMF                .         MR                            : Log Measured From
LUL                .         MCE                           : LOGGING UNIT LOCATION
LUN                .         -999.25                       : LOGGING UNIT NUMBER
LATI               .         -25_42_39.196                 : Latitude
LONG               .         -43_09_15.905                 : Longitude
MCST               .degF     -999.25                       : Mud Cake Sample Temperature
MFST               .degF     -999.25                       : Mud Filtrate Sample Temperature
MRT                .degF     120                           : Maximum Recorded Temperature
MST                .degF     -999.25                       : Mud Sample Temperature
ORIGINALWELLNAME   .         8SPH 0013  SPS                : 
PDAT               .         NM                            : Permanent Datum
PRODUCER-CODE      .         15                            : 
PRODUCER-NAME      .         INTEQ                         : 
RMB                .ohm.m    -999.25                       : RESISTIVITY OF MUD - BHT
RMCS               .ohm.m    -999.25                       : Resistivity Of Mud Cake Sample
RMFS               .ohm.m    -999.25                       : Mud Filtrate Sample Resistivity
RMS                .ohm.m    -999.25                       : Mud Sample Resistivity
RUN                .         1                             : Run
TCS                .h        15_00                         : Time Ciculation Stopped
TDD                .M        5184                          : Total Depht - Driller
TDL                .M        5184                          : Total Depht - Logger
TLAB               .h        11_00                         : Time Logger At Bottom
TLI                .M        3543                          : Top Log Interval
X                  .M        685128.30900000               : X COORDINATE N
Y                  .M        7155027.01100000              : Y COORDINATE E
~Parameter Information Block
#_______________________________________________________________________________
#
#PARAMETER_NAME    .UNIT     VALUE                         : DESCRIPTION
#_______________________________________________________________________________
SET                .         BASE                          : 
TLFamily_DT        .         Compressional Slowness        : 
TLFamily_GR        .         Gamma Ray                     : 
TLFamily_HCAL      .         Caliper                       : 
TLFamily_MD        .         Measured Depth                : 
TLFamily_NMRE_Final .         NMR Bound Fluid Volume Fraction: 
TLFamily_NMRFL_Final .         NMR Free Fluids               : 
TLFamily_NMRT_Final .         NMR Porosity                  : 
TLFamily_NPHI      .         Neutron Porosity              : 
TLFamily_RD        .         Resistivity - Deep            : 
TLFamily_RHOB      .         Bulk Density                  : 
TLFamily_RM        .         Resistivity - Medium          : 
TLFamily_RS        .         Resistivity - Shallow         : 
~Curve Information
#_______________________________________________________________________________
#
#LOGNAME           .UNIT     LOG_ID                        : DESCRIPTION
#_______________________________________________________________________________
DEPTH              .M                                      :  
DT                 .us/ft                                  : SONICO COMPRESSIONAL (COMPOSICAO DE CURVAS CABO E/OU LWD) 
GR                 .gAPI                                   : RAIOS GAMA (COMPOSICAO DE CURVAS CABO E/OU LWD) 
HCAL               .in                                     : CALIPER (COMPOSICAO DE CURVAS CABO E/OU LWD) 
NMRE_Final         .m3/m3                                  : 03/02 - MRIL (HALLIBURTON) - MRIL EFFECTIVE POROSITY 
NMRFL_Final        .unitless                               : 03/02 - MRIL (HALLIBURTON) - FREE FLUID INDEX T2 
NMRT_Final         .frac                                   : 03/02 - MRIL (HALLIBURTON) - MRIAN MRIL TOTAL POROSITY 
NPHI               .frac                                   : POROSIDADE NEUTRONICA (COMPOSICAO DE CURVAS CABO E/OU LWD) 
RD                 .ohm.m                                  : RESISTIVIDADE PROFUNDA (COMPOSICAO DE CURVAS CABO E/OU LWD) 
RHOB               .g/cm3                                  : DENSIDADE (COMPOSICAO DE CURVAS CABO E/OU LWD ) 
RM                 .ohm.m                                  : RESISTIVIDADE MEDIA (COMPOSICAO DE CURVAS CABO E/OU LWD) 
RS                 .ohm.m                                  : RESISTIVIDADE RASA (COMPOSICAO DE CURVAS CABO E/OU LWD) 
~Ascii
# ...
3929.241   68.555     5.824      14.790     -9999.000  -9999.000  -9999.000  -0.032     1491.539   2.036      1797.189   1797.189  
3929.394   68.579     6.099      14.792     -9999.000  -9999.000  -9999.000  -0.032     1488.062   2.036      1839.957   1839.957  
3929.546   68.263     5.941      14.792     -9999.000  -9999.000  -9999.000  -0.032     1476.543   2.039      2069.161   2069.161  
3929.698   68.011     5.452      14.794     -9999.000  -9999.000  -9999.000  -0.032     1454.826   2.043      1576.261   1576.261  
3929.851   67.954     5.525      14.794     -9999.000  -9999.000  -9999.000  -0.032     1449.879   2.043      1797.189   1797.189  
3930.003   68.005     6.090      14.792     -9999.000  -9999.000  -9999.000  -0.032     1469.256   2.039      1797.189   1797.189  
3930.156   68.255     6.364      14.792     -9999.000  -9999.000  -9999.000  -0.032     1491.522   2.035      1765.107   1765.107  
3930.308   68.554     6.168      14.792     -9999.000  -9999.000  -9999.000  -0.032     1517.822   2.030      1544.886   1544.886  
3930.460   68.507     5.646      14.792     -9999.000  -9999.000  -9999.000  -0.032     1522.161   2.028      1622.302   1622.302  
3930.613   68.178     5.399      14.792     -9999.000  -9999.000  -9999.000  -0.032     1520.035   2.030      2021.704   2021.704  
3930.765   67.950     5.997      14.794     -9999.000  -9999.000  -9999.000  -0.032     1510.927   2.032      1250.055   1250.055  
3930.918   67.900     6.128      14.793     -9999.000  -9999.000  -9999.000  -0.032     1501.538   2.033      1577.827   1577.827  
3931.070   68.017     5.208      14.791     -9999.000  -9999.000  -9999.000  -0.032     1483.416   2.035      1764.147   1764.147  
3931.222   68.093     4.800      14.791     -9999.000  -9999.000  -9999.000  -0.031     1478.479   2.034      1544.886   1544.886  
3931.375   68.018     4.976      14.792     -9999.000  -9999.000  -9999.000  -0.031     1482.175   2.030      1544.886   1544.886  
3931.527   68.014     4.762      14.792     -9999.000  -9999.000  -9999.000  -0.032     1483.112   2.031      1578.180   1578.180  
3931.680   68.255     4.418      14.792     -9999.000  -9999.000  -9999.000  -0.032     1484.428   2.034      1763.389   1763.389  
3931.832   68.512     4.750      14.791     -9999.000  -9999.000  -9999.000  -0.032     1499.028   2.039      1625.298   1625.298  
3931.984   68.520     4.637      14.790     -9999.000  -9999.000  -9999.000  -0.032     1533.860   2.045      2061.731   2061.731  
3932.137   68.181     4.521      14.790     -9999.000  -9999.000  -9999.000  -0.032     1554.830   2.049      1544.886   1544.886  
3932.289   67.844     5.701      14.790     -9999.000  -9999.000  -9999.000  -0.032     1561.210   2.048      1544.886   1544.886  
3932.442   67.663     6.315      14.791     -9999.000  -9999.000  -9999.000  -0.032     1550.602   2.049      1579.545   1579.545  
3932.594   67.598     5.864      14.790     -9999.000  -9999.000  -9999.000  -0.032     1534.097   2.050      1762.429   1762.429  
3932.746   67.625     5.579      14.789     -9999.000  -9999.000  -9999.000  -0.032     1530.875   2.048      1518.543   1518.543  
3932.899   67.736     5.787      14.790     -9999.000  -9999.000  -9999.000  -0.032     1533.180   2.046      1415.610   1415.610  
3933.051   67.993     6.036      14.790     -9999.000  -9999.000  -9999.000  -0.032     1531.140   2.043      1797.189   1797.189  
3933.204   68.440     5.967      14.790     -9999.000  -9999.000  -9999.000  -0.032     1517.024   2.040      1797.189   1797.189  
3933.356   68.630     5.401      14.789     -9999.000  -9999.000  -9999.000  -0.032     1501.392   2.037      1761.166   1761.166  
3933.508   68.410     4.945      14.788     -9999.000  -9999.000  -9999.000  -0.032     1477.618   2.039      1580.605   1580.605  
3933.661   68.302     4.706      14.789     -9999.000  -9999.000  -9999.000  -0.032     1472.614   2.045      1797.189   1797.189  
3933.813   68.466     4.684      14.790     -9999.000  -9999.000  -9999.000  -0.032     1477.093   2.048      1797.189   1797.189  
3933.966   68.284     5.875      14.789     -9999.000  -9999.000  -9999.000  -0.032     1499.970   2.048      1797.189   1797.189  
3934.118   68.001     6.213      14.791     -9999.000  -9999.000  -9999.000  -0.032     1516.863   2.045      1797.189   1797.189  
3934.270   67.961     6.170      14.790     -9999.000  -9999.000  -9999.000  -0.032     1539.669   2.042      1847.374   1847.374  
3934.423   68.181     6.360      14.789     -9999.000  -9999.000  -9999.000  -0.032     1553.432   2.040      2092.464   2092.464  
3934.575   68.381     6.538      14.789     -9999.000  -9999.000  -9999.000  -0.032     1578.872   2.037      1731.905   1731.905  
3934.728   68.490     6.775      14.789     -9999.000  -9999.000  -9999.000  -0.032     1600.473   2.036      1382.405   1382.405  
3934.880   68.604     6.229      14.787     -9999.000  -9999.000  -9999.000  -0.032     1622.680   2.036      1582.273   1582.273  
3935.032   68.420     5.694      14.786     -9999.000  -9999.000  -9999.000  -0.032     1615.564   2.037      1797.189   1797.189  
3935.185   68.015     5.341      14.785     -9999.000  -9999.000  -9999.000  -0.032     1574.036   2.036      1849.245   1849.245  
3935.337   67.775     5.054      14.786     -9999.000  -9999.000  -9999.000  -0.033     1527.512   2.033      2091.147   2091.147  
3935.490   67.666     5.340      14.786     -9999.000  -9999.000  -9999.000  -0.033     1443.276   2.031      1797.189   1797.189  
3935.642   67.675     5.876      14.788     -9999.000  -9999.000  -9999.000  -0.032     1382.988   2.031      1797.189   1797.189  
3935.794   67.813     6.271      14.788     -9999.000  -9999.000  -9999.000  -0.032     1341.017   2.033      1797.189   1797.189  
3935.947   68.010     6.041      14.789     -9999.000  -9999.000  -9999.000  -0.032     1344.544   2.036      1797.189   1797.189  
3936.099   67.913     5.122      14.789     -9999.000  -9999.000  -9999.000  -0.032     1387.119   2.038      1728.889   1728.889  
3936.252   67.730     4.804      14.788     -9999.000  -9999.000  -9999.000  -0.032     1418.929   2.038      1422.706   1422.706  
3936.404   67.616     4.871      14.790     -9999.000  -9999.000  -9999.000  -0.032     1455.583   2.037      1928.581   1928.581  
3936.556   67.579     4.831      14.790     -9999.000  -9999.000  -9999.000  -0.032     1474.390   2.037      2442.296   2442.296  
3936.709   67.601     5.209      14.790     -9999.000  -9999.000  -9999.000  -0.032     1497.813   2.038      1423.239   1423.239  
3936.861   67.742     6.042      14.787     -9999.000  -9999.000  -9999.000  -0.032     1510.908   2.038      1757.781   1757.781  
3937.014   68.008     6.718      14.787     -9999.000  -9999.000  -9999.000  -0.032     1524.540   2.037      1584.748   1584.748  
3937.166   68.500     5.821      14.786     -9999.000  -9999.000  -9999.000  -0.032     1537.610   2.036      1797.189   1797.189  
3937.318   68.862     5.218      14.785     -9999.000  -9999.000  -9999.000  -0.032     1527.700   2.035      1756.720   1756.720  
3937.471   68.815     5.592      14.785     -9999.000  -9999.000  -9999.000  -0.032     1487.827   2.034      1585.051   1585.051  
3937.623   68.793     5.664      14.787     -9999.000  -9999.000  -9999.000  -0.031     1467.545   2.033      1852.434   1852.434  
3937.776   68.907     5.461      14.790     -9999.000  -9999.000  -9999.000  -0.032     1459.017   2.035      2087.404   2087.404  
3937.928   68.765     5.734      14.794     -9999.000  -9999.000  -9999.000  -0.032     1454.697   2.035      1756.316   1756.316  
3938.080   68.459     5.904      14.797     -9999.000  -9999.000  -9999.000  -0.032     1438.731   2.035      1641.955   1641.955  
3938.233   68.455     6.155      14.793     -9999.000  -9999.000  -9999.000  -0.032     1425.091   2.034      2046.033   2046.033  
3938.385   68.615     6.650      14.796     -9999.000  -9999.000  -9999.000  -0.031     1418.219   2.031      1586.416   1586.416  
