~Version
 VERS              .         2.0                           : CWLS LOG ASCII STANDARD - VERSION 2.0
 WRAP              .         NO                            : ONE LINE PER DEPTH STEP
 DLM               .         SPACE                         : DELIMITING CHARACTER(SPACE TAB OR COMMA)
~Well Information
#_______________________________________________________________________________
#
#PARAMETER_NAME    .UNIT     VALUE                         : DESCRIPTION
#_______________________________________________________________________________
STRT               .M        5060.036                      : First reference value
STOP               .M        5304.790                      : Last reference value
STEP               .M        0.152                         : Step increment
NULL               .         -9999                         : Missing value
COMP               .         PETROBRAS                     : Company
WELL               .         8-SPH-11-SPS                  : Well name
FLD                .         SAPINHOA                      : Field
LOC                .                                       : Location
PROV               .                                       : Province
SRVC               .                                       : Service Company
DATE               .         23/09/2015                    : Date
UWI                .         8-SPH-11-SPS                  : Unique Well ID
APD                .M        24                            : Elevation of Depth Reference (LMF) Above Permanent Datum
API                .                                       : API NUMBER
BHS                .         OPEN                          : Borehole Status (Open or Cased Hole)
BHT                .degF     135                           : Bottom Hole Temperature
BLI                .M        5299.5                        : Bottom Log Interval
BS                 .in       12.25                         : Bit Size
CBDR               .M        5086                          : Casing Bottom (Driller)
CBLO               .M        5084                          : Casing Bottom (Logger)
CSIZ               .in       14                            : Casing Outer Diameter
CWEI               .lbm/ft   115                           : Casing Weight
CTRY               .         BRASIL                        : Nation
DCS                .         22/09/2015                    : Date Circulation Stopped
DFD                .lb/gal   9.7                           : Drilling Fluid Density
DFT                .         Cationico Flex Drill(Base Agua): Drilling Fluid Type
DLAB               .         23/09/2015                    : Date Logging on Bottom
EDF                .M        24                            : Elevation of Drill Floor
EGL                .M        -2165                         : Elevation of Ground Level
EKB                .M        24                            : Elevation of Kelly Bushing
EPD                .M        0                             : Elevation of Permanent Datum (PDAT) above Mean Sea Level
LMF                .         MR                            : Logging Measured From (Name of Logging Elevation Reference)
LUL                .          BRMA                         : Logging Unit Location
LUN                .         OSU-PA 7032                   : Logging Unit Number
LONG               .         -43_13_56,159                 : Longitude
MCST               .degF     77.1                          : Mudcake Sample Temperature
MFST               .degF     78.3                          : Mud Filtrate Sample Temperature
MRT                .degF     135                           : Maximum Recorded Temperature
MST                .degF     77.9                          : Mud Sample Temperature
ORIGINALWELLNAME   .         P09                           : 
PDAT               .         NM                            : Permanent Datum
PRODUCER-CODE      .         440                           : 
PRODUCER-NAME      .         Schlumberger                  : 
RMB                .ohm.m    0.0430009                     : Resistivity of Mud at Bottom Hole Temperature
RMCS               .ohm.m    0.08                          : Resistivity of Mud Cake Sample
RMFS               .ohm.m    0.062                         : Resistivity of Mud Filtrate Sample
RMS                .ohm.m    0.072                         : Resistivity of Mud Sample
RUN                .         3                             : Run Number
STAT               .         SAO PAULO                     : State or Province
TCS                .h        10_30                         : Time Circulation Stopped
TDD                .M        5301                          : Total Depth (Driller)
TDL                .M        5301.5                        : Logger Total Depth
TLAB               .h        23_45                         : Time Logging on Bottom
TLI                .M        5084                          : Top Log Interval
X                  .M        677112.00000000               : 
Y                  .M        7136745.00000000              : 
~Parameter Information Block
#_______________________________________________________________________________
#
#PARAMETER_NAME    .UNIT     VALUE                         : DESCRIPTION
#_______________________________________________________________________________
SET                .         BASE                          : 
TLFamily_BS        .         Bit Size                      : 
TLFamily_DT        .         Compressional Slowness        : 
TLFamily_DWAL      .         Aluminum Weight Fraction      : 
TLFamily_DWCA      .         Calcium Weight Fraction       : 
TLFamily_DWFE      .         Iron Weight Fraction          : 
TLFamily_DWGD      .         Gadolinium Weight Fraction    : 
TLFamily_DWS       .         Sulfur Weight Fraction        : 
TLFamily_DWSI      .         Silicon Weight Fraction       : 
TLFamily_DWTI      .         Titanium Weight Fraction      : 
TLFamily_GR        .         Gamma Ray                     : 
TLFamily_GRt       .         Gamma Ray                     : 
TLFamily_HCAL      .         Caliper                       : 
TLFamily_HDRA      .         Bulk Density Correction       : 
TLFamily_HFK       .         Potassium Concentration       : 
TLFamily_HTHO      .         Thorium Concentration         : 
TLFamily_HURA      .         Uranium Concentration         : 
TLFamily_KSDR      .         NMR Permeability              : 
TLFamily_KTIM      .         NMR Permeability              : 
TLFamily_MD        .         Measured Depth                : 
TLFamily_NMRE_Final .         NMR Bound Fluid Volume Fraction: 
TLFamily_NMRFL_Final .         NMR Free Fluids               : 
TLFamily_NMRT_Final .         NMR Porosity                  : 
TLFamily_NPHI      .         Neutron Porosity              : 
TLFamily_PE        .         Photoelectric Factor          : 
TLFamily_RD        .         Resistivity - Deep            : 
TLFamily_RHOB      .         Bulk Density                  : 
TLFamily_RM        .         Resistivity - Medium          : 
TLFamily_RS        .         Resistivity - Shallow         : 
TLFamily_T2LM      .         NMR T2 Logarithmic Mean       : 
TLFamily_TVDSS     .         True Vertical Depth Sub Sea   : 
~Curve Information
#_______________________________________________________________________________
#
#LOGNAME           .UNIT     LOG_ID                        : DESCRIPTION
#_______________________________________________________________________________
DEPTH              .M                                      :  
BS                 .in                                     : Bit Size 
DT                 .us/ft                                  : Delta-T Compressional 
DWAL               .kg/kg                                  : Dry Weight Fraction Pseudo Aluminum (SpectroLith WALK2 Model) 
DWCA               .kg/kg                                  : Dry Weight Fraction Calcium (SpectroLith WALK2 Model) 
DWFE               .kg/kg                                  : Dry Weight Fraction Iron + 0.14 Aluminum (SpectroLith WALK2 Model) 
DWGD               .ppm                                    : Dry Weight Fraction Gadolinium (SpectroLith WALK2 Model) 
DWS                .kg/kg                                  : Dry Weight Fraction Sulfur (SpectroLith WALK2 Model) 
DWSI               .kg/kg                                  : Dry Weight Fraction Silicon (SpectroLith WALK2 Model) 
DWTI               .kg/kg                                  : Dry Weight Fraction Titanium (SpectroLith WALK2 Model) 
GR                 .gAPI                                   : Gamma Ray 
GRt                .gAPI                                   : HNGS Standard Gamma-Ray 
HCAL               .in                                     : HRCC Caliper Calibrated 
HDRA               .g/cm3                                  : Density Standoff Correction 
HFK                .%                                      : HNGS Formation Potassium Concentration 
HTHO               .ppm                                    : HNGS Formation Thorium Concentration 
HURA               .ppm                                    : HNGS Formation Uranium Concentration 
KSDR               .mD                                     : SDR Permeability 
KTIM               .mD                                     : Timur/Coates Permeability 
NMRE_Final         .m3/m3                                  :  
NMRFL_Final        .unitless                               :  
NMRT_Final         .frac                                   :  
NPHI               .frac                                   : Enhanced Thermal Neutron Porosity in Selected Lithology 
PE                 .b/e                                    : Standard Resolution Formation Photoelectric Factor 
RD                 .ohm.m                                  : Apparent Resistivity from Computed Focusing Mode 5 
RHOB               .g/cm3                                  : Standard Resolution Formation Density 
RM                 .ohm.m                                  : Apparent Resistivity from Computed Focusing Mode 4 
RS                 .ohm.m                                  : Apparent Resistivity from Computed Focusing Mode 3 
T2LM               .ms                                     : T2 Logarithmic Mean 
TVDSS              .M                                      :  
~Ascii
# ...
5250.536   12.250     86.212     0.002      0.290      0.001      0.000      0.016      0.118      0.000      31.906     29.555     12.380     -0.009     0.352      2.033      2.194      0.297      0.138      0.120      0.018      0.184      0.256      4.169      4.268      2.412      4.218      4.489      8.046      5224.767  
5250.688   12.250     84.042     0.005      0.274      0.004      0.000      0.011      0.131      0.000      33.102     29.763     12.365     -0.010     0.360      2.030      2.214      0.418      0.180      0.127      0.020      0.192      0.277      3.993      4.438      2.413      4.418      4.716      8.762      5224.919  
5250.840   12.250     80.966     0.006      0.277      0.005      0.000      0.010      0.127      0.000      32.704     28.531     12.352     -0.006     0.364      1.907      2.082      0.983      0.425      0.145      0.029      0.205      0.292      3.844      4.479      2.407      4.387      4.659      11.872     5225.071  
5250.993   12.250     79.422     0.005      0.300      0.004      0.000      0.008      0.103      0.000      30.872     25.397     12.333     -0.005     0.322      1.777      1.827      2.830      1.222      0.168      0.042      0.219      0.287      3.865      8.600      2.379      8.261      8.612      17.633     5225.222  
5251.145   12.250     79.653     0.002      0.326      0.002      0.000      0.008      0.078      0.000      28.050     22.721     12.323     -0.006     0.286      1.644      1.592      7.184      2.903      0.190      0.056      0.233      0.279      3.956      8.055      2.349      7.541      7.908      24.661     5225.374  
5251.298   12.250     80.215     0.000      0.346      0.000      0.000      0.013      0.056      0.000      25.648     20.762     12.305     -0.010     0.247      1.564      1.472      10.961     4.325      0.203      0.063      0.248      0.281      4.077      7.093      2.316      6.608      6.955      26.837     5225.526  
5251.450   12.250     80.380     0.000      0.354      0.000      0.763      0.018      0.044      0.000      24.674     20.360     12.301     -0.012     0.247      1.568      1.428      13.106     5.113      0.206      0.066      0.254      0.290      4.131      6.628      2.296      6.135      6.486      28.027     5225.678  
5251.602   12.250     80.445     0.000      0.361      0.000      2.068      0.015      0.038      0.000      24.357     20.232     12.306     -0.011     0.271      1.525      1.376      12.963     4.605      0.204      0.064      0.252      0.293      4.143      6.442      2.289      5.888      6.257      28.366     5225.829  
5251.755   12.250     80.625     0.000      0.363      0.000      2.730      0.008      0.039      0.000      24.156     20.814     12.306     -0.011     0.298      1.642      1.321      11.793     3.537      0.203      0.058      0.247      0.299      4.157      5.749      2.290      5.236      5.593      28.079     5225.981  
5251.907   12.250     80.940     0.000      0.369      0.000      5.585      0.000      0.037      0.000      23.178     21.347     12.303     -0.010     0.320      1.758      1.311      11.164     2.780      0.208      0.053      0.246      0.293      4.160      5.121      2.295      4.648      4.963      27.508     5226.133  
5252.060   12.250     81.410     0.000      0.372      0.000      8.375      0.000      0.033      0.000      22.760     21.508     12.305     -0.010     0.326      1.769      1.321      11.214     2.635      0.215      0.052      0.248      0.294      4.173      5.078      2.297      4.586      4.933      27.228     5226.285  
5252.212   12.250     81.874     0.000      0.375      0.000      11.512     0.001      0.029      0.000      23.590     20.747     12.308     -0.011     0.309      1.608      1.316      14.255     3.265      0.220      0.057      0.245      0.309      4.182      5.255      2.294      4.740      5.085      31.576     5226.436  
5252.364   12.250     81.964     0.000      0.367      0.000      10.954     0.005      0.036      0.000      23.995     20.271     12.305     -0.011     0.298      1.535      1.297      19.322     4.574      0.224      0.065      0.242      0.304      4.172      4.684      2.291      4.224      4.545      37.616     5226.588  
5252.517   12.250     81.677     0.000      0.358      0.000      9.152      0.005      0.047      0.000      24.549     20.171     12.297     -0.011     0.298      1.629      1.255      27.014     6.627      0.230      0.074      0.241      0.302      4.134      3.422      2.287      3.111      3.361      44.614     5226.740  
5252.669   12.250     81.655     0.000      0.351      0.000      7.087      0.001      0.057      0.000      24.187     20.084     12.301     -0.011     0.316      1.666      1.211      37.900     9.012      0.236      0.082      0.243      0.305      4.095      3.682      2.281      3.356      3.612      52.325     5226.892  
5252.822   12.250     80.063     0.000      0.345      0.000      5.285      0.000      0.064      0.000      24.582     19.805     12.310     -0.010     0.322      1.625      1.201      36.721     8.560      0.229      0.082      0.234      0.301      4.045      5.025      2.276      4.559      4.886      55.564     5227.043  
5252.974   12.250     77.418     0.000      0.333      0.000      3.429      0.000      0.079      0.000      24.311     19.313     12.316     -0.009     0.317      1.620      1.148      26.109     6.262      0.214      0.075      0.219      0.260      3.916      5.145      2.281      4.678      5.012      53.455     5227.195  
5253.126   12.250     76.327     0.000      0.305      0.000      0.919      0.000      0.111      0.000      23.378     18.757     12.318     -0.005     0.303      1.650      1.081      16.046     4.190      0.198      0.067      0.208      0.218      3.688      6.516      2.297      5.867      6.268      46.114     5227.347  
5253.279   12.250     76.479     0.000      0.275      0.000      0.000      0.000      0.146      0.000      22.429     18.014     12.330     -0.003     0.275      1.605      1.046      10.638     3.123      0.190      0.060      0.210      0.214      3.456      2.153      2.312      1.984      2.141      36.901     5227.499  
5253.431   12.250     77.767     0.000      0.255      0.000      0.000      0.000      0.169      0.000      22.091     17.623     12.313     -0.004     0.265      1.522      1.056      9.433      3.094      0.198      0.058      0.229      0.233      3.398      2.645      2.309      2.458      2.645      29.277     5227.650  
5253.584   12.250     79.694     0.000      0.263      0.000      0.372      0.000      0.160      0.000      22.469     18.578     12.320     -0.007     0.278      1.570      1.141      10.395     3.662      0.210      0.059      0.244      0.264      3.498      2.733      2.305      2.551      2.747      27.140     5227.802  
5253.736   12.250     81.214     0.000      0.293      0.000      1.212      0.000      0.126      0.000      22.613     20.376     12.324     -0.008     0.308      1.615      1.273      10.041     3.579      0.212      0.059      0.241      0.288      3.667      3.193      2.306      2.983      3.209      27.184     5227.954  
5253.888   12.250     81.057     0.000      0.322      0.000      0.939      0.000      0.092      0.000      23.371     21.661     12.369     -0.006     0.331      1.681      1.354      9.977      3.407      0.210      0.059      0.232      0.290      3.755      3.244      2.317      3.032      3.260      29.284     5228.105  
5254.041   12.250     81.191     0.001      0.330      0.000      0.000      0.004      0.079      0.000      24.666     22.593     12.413     -0.007     0.340      1.755      1.452      9.903      3.059      0.208      0.058      0.222      0.322      3.808      3.339      2.313      3.128      3.359      31.880     5228.257  
5254.193   12.250     81.013     0.003      0.326      0.002      0.000      0.014      0.075      0.000      26.923     22.814     12.419     -0.008     0.344      1.646      1.505      9.222      2.493      0.204      0.055      0.216      0.353      3.872      3.267      2.299      3.069      3.290      32.555     5228.409  
