~Version
 VERS              .         2.0                           : CWLS LOG ASCII STANDARD - VERSION 2.0
 WRAP              .         NO                            : ONE LINE PER DEPTH STEP
 DLM               .         SPACE                         : DELIMITING CHARACTER(SPACE TAB OR COMMA)
~Well Information
#_______________________________________________________________________________
#
#PARAMETER_NAME    .UNIT     VALUE                         : DESCRIPTION
#_______________________________________________________________________________
STRT               .M        5159.045                      : First reference value
STOP               .M        5591.861                      : Last reference value
STEP               .M        0.152                         : Step increment
NULL               .         -9999                         : Missing value
COMP               .         PETROBRAS                     : Company
WELL               .         8-SPH-19D-SPS                 : Well name
FLD                .         SAPINHOA                      : Field
LOC                .                                       : Location
PROV               .                                       : Province
SRVC               .                                       : Service Company
DATE               .         2020-11-17 00_10_26           : Date
UWI                .         8SPH0019DSPS                  : Unique Well ID
APD                .M        26                            : Above Permanent Datum
API                .                                       : API NUMBER
BHT                .degF     150                           : Bottom Hole Temperature
BLI                .M        5581.8                        : Bottom Log Interval
BS                 .in       12.25                         : Bit Size
CNTY               .                                       : County
CTRY               .         BRASIL                        : Nation
DCS                .         04/08/2015                    : Date Ciculation Stopped
DFD                .lbm/gal  9.5                           : Drilling Fluid Density
DFT                .         NAO AQUOSO (BASE OLEFINA)     : Drilling Fluid Type
DLAB               .         05/08/2015                    : Date Logger At Bottom
EDF                .M        26                            : Elevation of Derreck Floor
EGL                .M        -2132                         : Elevation of Ground Level
EKB                .M        -999.25                       : Elevation of Kelly Bushing
EPD                .M        0                             : Elevation Of Permanent Datum
GDAT               .         SIRGAS2000                    : Geodetic Datum
LMF                .         MR                            : Log Measured From
LATI               .         -25_46_45.710                 : Latitude
LONG               .         -43_12_21,306                 : Longitude
MCST               .degF     -999.25                       : Mud Cake Sample Temperature
MFST               .degF     -999.25                       : Mud Filtrate Sample Temperature
MRT                .degF     150                           : Maximum Recorded Temperature
MST                .degF     -999.25                       : Mud Sample Temperature
ORIGINALWELLNAME   .         8-sph-19d-sps_petrobras       : 
PDAT               .         NM                            : Permanent Datum
PRODUCER-CODE      .         150                           : 
PRODUCER-NAME      .         ATLAS                         : 
RMB                .ohm.m    -999.25                       : Resistivity Of Mud - BHT
RMCS               .ohm.m    -999.25                       : Resistivity Of Mud Cake Sample
RMFS               .ohm.m    -999.25                       : Mud Filtrate Sample Resistivity
RMS                .ohm.m    -999.25                       : Mud Sample Resistivity
RUN                .         2                             : Run Number
STAT               .         SAO PAULO                     : State
TCS                .h        02_00                         : Time Ciculation Stopped
TDD                .M        5583                          : Total Depht - Driller
TDL                .M        5585.4                        : Total Depht - Logger
TLAB               .h        18_45                         : Time Logger At Bottom
TLI                .M        5200                          : Top Log Interval
X                  .M        679908.00000000               : Surface X
Y                  .M        7148113.00000000              : Surface Y
~Parameter Information Block
#_______________________________________________________________________________
#
#PARAMETER_NAME    .UNIT     VALUE                         : DESCRIPTION
#_______________________________________________________________________________
SET                .         BASE                          : 
TLFamily_BS        .         Bit Size                      : 
TLFamily_DT        .         Compressional Slowness        : 
TLFamily_DWAL      .         Aluminum Weight Fraction      : 
TLFamily_DWCA      .         Calcium Weight Fraction       : 
TLFamily_DWFE      .         Iron Weight Fraction          : 
TLFamily_DWGD      .         Gadolinium Weight Fraction    : 
TLFamily_DWK       .         Potassium Weight Fraction     : 
TLFamily_DWMG      .         Magnesium Weight Fraction     : 
TLFamily_DWMN      .         Manganese Weight Fraction     : 
TLFamily_DWS       .         Sulfur Weight Fraction        : 
TLFamily_DWSI      .         Silicon Weight Fraction       : 
TLFamily_DWTI      .         Titanium Weight Fraction      : 
TLFamily_GR        .         Gamma Ray                     : 
TLFamily_GRt       .         Gamma Ray                     : 
TLFamily_HCAL      .         Caliper                       : 
TLFamily_HDRA      .         Bulk Density Correction       : 
TLFamily_HFK       .         Potassium Concentration       : 
TLFamily_HTHO      .         Thorium Concentration         : 
TLFamily_HURA      .         Uranium Concentration         : 
TLFamily_MD        .         Measured Depth                : 
TLFamily_MPERM     .         NMR Permeability              : 
TLFamily_NMRE_Final .         NMR Bound Fluid Volume Fraction: 
TLFamily_NMRFL_Final .         NMR Free Fluids               : 
TLFamily_NMRT_Final .         NMR Porosity                  : 
TLFamily_NPHI      .         Neutron Porosity              : 
TLFamily_PE        .         Photoelectric Factor          : 
TLFamily_RD        .         Resistivity - Deep            : 
TLFamily_RHOB      .         Bulk Density                  : 
TLFamily_RM        .         Resistivity - Medium          : 
TLFamily_RS        .         Resistivity - Shallow         : 
TLFamily_TVDSS     .         True Vertical Depth Sub Sea   : 
~Curve Information
#_______________________________________________________________________________
#
#LOGNAME           .UNIT     LOG_ID                        : DESCRIPTION
#_______________________________________________________________________________
DEPTH              .M                                      :  
BS                 .in                                     :  
DT                 .us/ft                                  : SONICO COMPRESSIONAL (COMPOSICAO DE CURVAS CABO E/OU LWD) 
DWAL               .kg/kg                                  :  
DWCA               .kg/kg                                  :  
DWFE               .kg/kg                                  :  
DWGD               .ppm                                    :  
DWK                .kg/kg                                  :  
DWMG               .kg/kg                                  :  
DWMN               .kg/kg                                  :  
DWS                .kg/kg                                  :  
DWSI               .kg/kg                                  :  
DWTI               .kg/kg                                  :  
GR                 .gAPI                                   :  
GRt                .gAPI                                   :  
HCAL               .in                                     : CALIPER (COMPOSICAO DE CURVAS CABO E/OU LWD) 
HDRA               .g/cm3                                  : Density Delta Rho Filtered 
HFK                .%                                      :  
HTHO               .ppm                                    :  
HURA               .ppm                                    :  
MPERM              .mD                                     :  
NMRE_Final         .m3/m3                                  :  
NMRFL_Final        .unitless                               :  
NMRT_Final         .frac                                   :  
NPHI               .frac                                   : Neutron Porosity Limestone Filtered 
PE                 .b/e                                    : Density PE Filtered 
RD                 .ohm.m                                  : Vertical 2-foot resolution matched resistivity, 90-inch DOI 
RHOB               .g/cm3                                  : Bulk Density Filtered 
RM                 .ohm.m                                  : Vertical 2-foot resolution matched resistivity, 30-inch DOI 
RS                 .ohm.m                                  : Vertical 2-foot resolution matched resistivity, 10-inch DOI 
TVDSS              .M                                      :  
~Ascii
# ...
5524.805   12.250     77.983     0.013      0.317      0.010      3.506      0.003      0.044      0.001      0.001      0.054      0.000      37.603     37.839     12.347     0.088      0.314      2.472      3.410      0.003      0.059      0.008      0.120      0.242      5.903      6.203      2.514      6.087      6.797      5345.410  
5524.957   12.250     78.485     0.014      0.300      0.011      3.543      0.004      0.048      0.001      0.001      0.071      0.000      45.449     45.721     12.336     0.088      0.361      2.593      3.832      0.000      0.030      0.005      0.107      0.238      5.789      6.230      2.523      6.102      6.796      5345.553  
5525.110   12.250     78.186     0.014      0.288      0.010      3.584      0.004      0.046      0.001      0.001      0.088      0.000      46.050     46.343     12.328     0.088      0.366      2.569      3.867      0.000      0.019      0.006      0.104      0.220      5.662      6.434      2.535      6.283      6.946      5345.695  
5525.262   12.250     77.450     0.013      0.284      0.009      3.687      0.002      0.041      0.001      0.001      0.102      0.000      40.802     41.086     12.329     0.084      0.354      2.400      3.721      0.001      0.026      0.007      0.104      0.217      5.600      6.500      2.531      6.329      6.898      5345.838  
5525.414   12.250     76.501     0.012      0.285      0.008      3.752      0.002      0.038      0.001      0.001      0.112      0.000      35.629     35.874     12.330     0.079      0.331      2.107      3.462      0.000      0.031      0.005      0.103      0.228      5.632      6.504      2.517      6.316      6.772      5345.981  
5525.567   12.250     76.174     0.011      0.289      0.007      3.662      0.003      0.035      0.001      0.001      0.118      0.000      32.724     32.933     12.331     0.080      0.309      1.875      3.207      0.001      0.037      0.007      0.116      0.241      5.735      6.685      2.509      6.476      6.835      5346.124  
5525.719   12.250     76.704     0.010      0.295      0.006      3.399      0.008      0.032      0.001      0.001      0.118      0.000      30.893     31.095     12.332     0.082      0.299      1.734      3.015      0.000      0.039      0.003      0.125      0.248      5.764      6.962      2.507      6.725      6.988      5346.267  
5525.872   12.250     77.545     0.009      0.296      0.007      3.082      0.012      0.031      0.001      0.001      0.114      0.000      29.125     29.338     12.333     0.083      0.299      1.639      2.886      0.000      0.036      0.001      0.126      0.251      5.807      6.856      2.504      6.626      6.775      5346.410  
5526.024   12.250     78.989     0.009      0.293      0.007      2.882      0.015      0.032      0.001      0.001      0.107      0.000      27.975     28.196     12.333     0.082      0.303      1.605      2.837      0.000      0.038      0.001      0.136      0.262      5.979      5.985      2.497      5.803      5.826      5346.553  
5526.176   12.250     81.113     0.009      0.284      0.008      2.874      0.015      0.035      0.001      0.001      0.103      0.000      28.634     28.856     12.339     0.082      0.306      1.620      2.863      0.000      0.036      0.000      0.135      0.273      6.085      4.649      2.490      4.516      4.485      5346.696  
5526.329   12.250     83.689     0.010      0.273      0.009      3.003      0.013      0.047      0.001      0.001      0.102      0.000      30.734     30.958     12.343     0.084      0.305      1.686      2.967      0.000      0.028      0.000      0.123      0.281      6.154      3.550      2.482      3.455      3.425      5346.839  
5526.481   12.250     85.009     0.010      0.261      0.010      3.170      0.011      0.066      0.001      0.001      0.105      0.000      32.703     32.934     12.340     0.090      0.297      1.783      3.091      0.000      0.021      0.002      0.122      0.278      6.074      3.055      2.484      2.979      2.957      5346.982  
5526.634   12.250     84.727     0.010      0.249      0.010      3.310      0.009      0.086      0.001      0.001      0.110      0.000      33.624     33.863     12.333     0.099      0.285      1.841      3.185      0.000      0.022      0.005      0.133      0.271      5.911      3.094      2.494      3.025      3.013      5347.125  
5526.786   12.250     83.286     0.010      0.242      0.009      3.373      0.009      0.096      0.001      0.001      0.118      0.000      33.639     33.877     12.354     0.103      0.276      1.838      3.273      0.000      0.025      0.005      0.141      0.250      5.821      3.492      2.502      3.420      3.411      5347.268  
5526.938   12.250     81.041     0.010      0.240      0.008      3.333      0.010      0.093      0.001      0.001      0.128      0.000      34.275     34.507     12.368     0.104      0.275      1.786      3.376      0.000      0.025      0.005      0.133      0.213      5.688      3.762      2.509      3.690      3.682      5347.411  
5527.091   12.250     78.510     0.010      0.244      0.007      3.226      0.009      0.079      0.001      0.001      0.137      0.000      36.314     36.546     12.349     0.095      0.279      1.687      3.515      0.001      0.026      0.007      0.109      0.212      5.494      3.682      2.509      3.617      3.613      5347.554  
5527.243   12.250     76.410     0.009      0.252      0.007      3.159      0.008      0.065      0.001      0.001      0.143      0.000      38.421     38.657     12.346     0.079      0.281      1.604      3.625      0.001      0.028      0.007      0.088      0.237      5.263      3.573      2.499      3.514      3.511      5347.697  
5527.396   12.250     75.827     0.010      0.260      0.007      3.191      0.006      0.062      0.001      0.001      0.143      0.000      38.421     38.653     12.304     0.075      0.283      1.603      3.637      0.000      0.034      0.005      0.095      0.268      5.361      3.591      2.485      3.538      3.524      5347.840  
5527.548   12.250     77.041     0.010      0.268      0.008      3.237      0.004      0.069      0.001      0.001      0.136      0.000      35.429     35.647     12.285     0.078      0.293      1.801      3.463      0.000      0.041      0.004      0.120      0.272      5.593      3.594      2.482      3.547      3.525      5347.983  
5527.700   12.250     79.337     0.012      0.275      0.008      3.180      0.003      0.078      0.001      0.001      0.124      0.000      31.328     31.520     12.288     0.083      0.309      2.092      3.206      0.000      0.039      0.002      0.138      0.273      5.942      3.427      2.484      3.387      3.369      5348.126  
5527.853   12.250     82.082     0.013      0.278      0.007      3.038      0.003      0.084      0.001      0.001      0.111      0.000      30.165     30.341     12.318     0.085      0.329      2.263      3.081      0.000      0.030      0.002      0.138      0.282      5.933      3.136      2.482      3.104      3.104      5348.269  
5528.005   12.250     85.122     0.014      0.273      0.005      2.949      0.004      0.088      0.001      0.001      0.101      0.000      33.878     34.078     12.323     0.087      0.415      2.518      3.040      0.000      0.025      0.003      0.137      0.299      5.723      2.932      2.474      2.906      2.922      5348.412  
5528.158   12.250     87.710     0.015      0.261      0.004      2.981      0.005      0.091      0.001      0.001      0.097      0.000      39.625     39.878     12.342     0.090      0.564      2.811      3.060      0.000      0.025      0.003      0.140      0.302      5.568      2.963      2.464      2.941      2.970      5348.555  
5528.310   12.250     89.529     0.015      0.247      0.004      3.092      0.006      0.094      0.001      0.001      0.099      0.000      43.494     43.788     12.348     0.092      0.658      2.860      3.115      0.000      0.025      0.002      0.144      0.299      5.513      3.325      2.460      3.302      3.349      5348.698  
