~Version
 VERS              .         2.0                           : CWLS LOG ASCII STANDARD - VERSION 2.0
 WRAP              .         NO                            : ONE LINE PER DEPTH STEP
 DLM               .         SPACE                         : DELIMITING CHARACTER(SPACE TAB OR COMMA)
~Well Information
#_______________________________________________________________________________
#
#PARAMETER_NAME    .UNIT     VALUE                         : DESCRIPTION
#_______________________________________________________________________________
STRT               .M        5027.447                      : First reference value
STOP               .M        5499.430                      : Last reference value
STEP               .M        0.152                         : Step increment
NULL               .         -9999                         : Missing value
COMP               .         PETROBRAS                     : Company
WELL               .         8-SPH-10-SPS                  : Well name
FLD                .         SAPINHOA                      : Field
LOC                .                                       : Location
PROV               .                                       : Province
SRVC               .                                       : Service Company
DATE               .         2021-09-13 11_18_58           : Date
UWI                .         8-SPH-10-SPS                  : Unique Well ID
APD                .M        24                            : Above Permanent Datum
API                .                                       : API NUMBER
BHT                .degF     153                           : Bottom Hole Temperature
BLI                .M        5494.8                        : Bottom Log Interval
BS                 .in       8.5                           : Bit Size
CTRY               .         BRASIL                        : Nation
DCS                .         15/06/2015                    : Date Ciculation Stopped
DFD                .lb/gal   9.7                           : Drilling Fluid Density
DFT                .         CATIONICO FLEX DRILL (BASE AGUA): Drilling Fluid Type
DLAB               .         18/06/2015                    : Date Logger At Bottom
EDF                .M        24                            : Elevation of Derreck Floor
EGL                .M        -2125                         : Elevation of Ground Level
EKB                .M        -999.25                       : Elevation of Kelly Bushing
EPD                .M        0                             : Elevation Of Permanent Datum
LMF                .         MR                            : Log Measured From
LONG               .         -43_10_14,760                 : Longitude
MCST               .degF     67                            : Mud Cake Sample Temperature
MFST               .degF     67                            : Mud Filtrate Sample Temperature
MRT                .degF     153                           : Maximum Recorded Temperature
MST                .degF     67                            : Mud Sample Temperature
ORIGINALWELLNAME   .         P08                           : 
PDAT               .         NM                            : Permanent Datum
PRODUCER-CODE      .         150                           : 
PRODUCER-NAME      .         ATLAS                         : 
RMB                .ohm.m    -999.25                       : Resistivity Of Mud - BHT
RMCS               .ohm.m    0.078                         : Resistivity Of Mud Cake Sample
RMFS               .ohm.m    0.064                         : Mud Filtrate Sample Resistivity
RMS                .ohm.m    0.071                         : Mud Sample Resistivity
RUN                .         3                             : Run Number
STAT               .         SAO PAULO                     : State
TCS                .h        22_00                         : Time Ciculation Stopped
TDD                .M        5496                          : Total Depht - Driller
TDL                .M        5495.5                        : Total Depht - Logger
TLAB               .h        10_45                         : Time Logger At Bottom
TLI                .M        5114                          : Top Log Interval
X                  .M        683623.00000000               : 
Y                  .M        7161727.00000000              : 
~Parameter Information Block
#_______________________________________________________________________________
#
#PARAMETER_NAME    .UNIT     VALUE                         : DESCRIPTION
#_______________________________________________________________________________
SET                .         BASE                          : 
TLFamily_BS        .         Bit Size                      : 
TLFamily_DT        .         Compressional Slowness        : 
TLFamily_DWAL      .         Aluminum Weight Fraction      : 
TLFamily_DWCA      .         Calcium Weight Fraction       : 
TLFamily_DWFE      .         Iron Weight Fraction          : 
TLFamily_DWGD      .         Gadolinium Weight Fraction    : 
TLFamily_DWK       .         Potassium Weight Fraction     : 
TLFamily_DWMG      .         Magnesium Weight Fraction     : 
TLFamily_DWMN      .         Manganese Weight Fraction     : 
TLFamily_DWS       .         Sulfur Weight Fraction        : 
TLFamily_DWSI      .         Silicon Weight Fraction       : 
TLFamily_DWTI      .         Titanium Weight Fraction      : 
TLFamily_GR        .         Gamma Ray                     : 
TLFamily_GRt       .         Gamma Ray                     : 
TLFamily_HCAL      .         Caliper                       : 
TLFamily_HDRA      .         Bulk Density Correction       : 
TLFamily_HFK       .         Potassium Concentration       : 
TLFamily_HTHO      .         Thorium Concentration         : 
TLFamily_HURA      .         Uranium Concentration         : 
TLFamily_MD        .         Measured Depth                : 
TLFamily_MPERM     .         NMR Permeability              : 
TLFamily_NMRE_Final .         NMR Bound Fluid Volume Fraction: 
TLFamily_NMRFL_Final .         NMR Free Fluids               : 
TLFamily_NMRT_Final .         NMR Porosity                  : 
TLFamily_NPHI      .         Neutron Porosity              : 
TLFamily_PE        .         Photoelectric Factor          : 
TLFamily_RD        .         Resistivity - Deep            : 
TLFamily_RHOB      .         Bulk Density                  : 
TLFamily_RS        .         Resistivity - Shallow         : 
TLFamily_TVDSS     .         True Vertical Depth Sub Sea   : 
~Curve Information
#_______________________________________________________________________________
#
#LOGNAME           .UNIT     LOG_ID                        : DESCRIPTION
#_______________________________________________________________________________
DEPTH              .M                                      :  
BS                 .in                                     : Bit size 
DT                 .us/ft                                  : Slowness over 24-inch interval 
DWAL               .kg/kg                                  : Weight fraction of aluminum derived from thorium in dry rock 
DWCA               .kg/kg                                  : Weight fraction of calcium in dry rock 
DWFE               .kg/kg                                  : Weight fraction of iron in dry rock 
DWGD               .ppm                                    : Weight fraction of gadolinium in dry rock 
DWK                .kg/kg                                  : Weight fraction of potassium in dry rock 
DWMG               .kg/kg                                  : Weight fraction of magnesium in dry rock 
DWMN               .kg/kg                                  : Weight fraction of manganese in dry rock 
DWS                .kg/kg                                  : Weight fraction of sulfur in dry rock 
DWSI               .kg/kg                                  : Weight fraction of silicon in dry rock 
DWTI               .kg/kg                                  : Weight fraction of titanium in dry rock 
GR                 .gAPI                                   : Gamma ray 
GRt                .gAPI                                   : Gamma ray from 1329 spectrum 
HCAL               .in                                     : Caliper 
HDRA               .g/cm3                                  : Density correction 
HFK                .%                                      : Potassium content 
HTHO               .ppm                                    : Thorium concentration 
HURA               .ppm                                    : Uranium content 
MPERM              .mD                                     : MR permeability 
NMRE_Final         .m3/m3                                  : MR effective porosity 
NMRFL_Final        .unitless                               : MR moveable fluids 
NMRT_Final         .frac                                   : MR total porosity 
NPHI               .frac                                   : Borehole size corrected compensated neutron porosity 
PE                 .b/e                                    : Photo electric cross-section 
RD                 .ohm.m                                  : Deep resistivity 
RHOB               .g/cm3                                  : Formation bulk density 
RS                 .ohm.m                                  : Shallow resistivity 
TVDSS              .M                                      :  
~Ascii
# ...
5484.647   8.500      -9999.000  0.000      0.100      0.032      0.001      0.001      0.032      0.001      0.001      0.204      0.008      -9999.000  -9999.000  8.668      0.142      -9999.000  -9999.000  -9999.000  0.000      0.032      -0.000     0.049      0.061      4.208      2844.141   2.679      72.365     5460.269  
5484.800   8.500      -9999.000  0.000      0.103      0.033      0.001      0.001      0.034      0.001      0.001      0.199      0.009      -9999.000  -9999.000  8.524      0.137      -9999.000  -9999.000  -9999.000  0.000      0.030      -0.000     0.056      0.057      4.201      2904.967   2.731      68.840     5460.422  
5484.952   8.500      -9999.000  0.000      0.103      0.034      0.001      0.001      0.035      0.001      0.001      0.194      0.009      -9999.000  -9999.000  8.423      0.151      -9999.000  -9999.000  -9999.000  -9999.000  0.010      0.000      0.053      0.052      4.454      2999.344   2.767      79.583     5460.574  
5485.105   8.500      -9999.000  0.000      0.101      0.034      0.001      0.001      0.033      0.001      0.001      0.192      0.009      -9999.000  -9999.000  8.380      0.179      -9999.000  -9999.000  -9999.000  0.000      -0.001     -0.000     0.048      0.047      4.642      3184.965   2.748      708.554    5460.726  
5485.257   8.500      -9999.000  0.000      0.098      0.035      0.001      0.001      0.031      0.001      0.001      0.192      0.009      -9999.000  -9999.000  8.373      0.216      -9999.000  -9999.000  -9999.000  0.000      0.003      0.001      0.045      0.049      4.699      4507.299   2.704      10413.935  5460.879  
5485.409   8.500      -9999.000  0.000      0.096      0.035      0.001      0.001      0.032      0.001      0.001      0.193      0.008      -9999.000  -9999.000  8.373      0.258      -9999.000  -9999.000  -9999.000  0.000      0.011      0.004      0.040      0.059      4.829      12680.254  2.685      36583.949  5461.031  
5485.562   8.500      -9999.000  0.000      0.096      0.036      0.001      0.001      0.036      0.001      0.001      0.194      0.008      -9999.000  -9999.000  8.372      0.290      -9999.000  -9999.000  -9999.000  0.000      0.013      0.006      0.035      0.069      5.067      31823.016  2.695      67178.227  5461.183  
5485.714   8.500      -9999.000  -9999.000  -9999.000  -9999.000  -9999.000  -9999.000  -9999.000  -9999.000  -9999.000  -9999.000  -9999.000  -9999.000  -9999.000  8.371      0.306      -9999.000  -9999.000  -9999.000  0.000      0.008      0.004      0.033      0.068      5.197      53304.656  2.704      84014.469  5461.336  
5485.867   8.500      -9999.000  -9999.000  -9999.000  -9999.000  -9999.000  -9999.000  -9999.000  -9999.000  -9999.000  -9999.000  -9999.000  -9999.000  -9999.000  8.371      0.309      -9999.000  -9999.000  -9999.000  0.000      0.002      0.001      0.037      0.062      5.128      63369.305  2.696      86996.211  5461.488  
5486.019   8.500      -9999.000  -9999.000  -9999.000  -9999.000  -9999.000  -9999.000  -9999.000  -9999.000  -9999.000  -9999.000  -9999.000  -9999.000  -9999.000  8.371      0.308      -9999.000  -9999.000  -9999.000  0.000      -0.000     -0.000     0.048      0.062      5.009      54802.820  2.675      86999.078  5461.640  
5486.171   8.500      -9999.000  -9999.000  -9999.000  -9999.000  -9999.000  -9999.000  -9999.000  -9999.000  -9999.000  -9999.000  -9999.000  -9999.000  -9999.000  8.370      0.304      -9999.000  -9999.000  -9999.000  0.000      -0.000     -0.000     0.054      0.065      4.979      33545.133  2.644      87000.984  5461.793  
5486.324   8.500      -9999.000  -9999.000  -9999.000  -9999.000  -9999.000  -9999.000  -9999.000  -9999.000  -9999.000  -9999.000  -9999.000  -9999.000  -9999.000  8.371      0.297      -9999.000  -9999.000  -9999.000  0.000      -0.001     -0.000     0.052      0.068      5.030      13482.747  2.621      86999.461  5461.945  
5486.476   8.500      -9999.000  -9999.000  -9999.000  -9999.000  -9999.000  -9999.000  -9999.000  -9999.000  -9999.000  -9999.000  -9999.000  -9999.000  -9999.000  8.371      0.292      -9999.000  -9999.000  -9999.000  0.000      0.003      -0.000     0.051      0.069      5.059      4152.914   2.630      86996.688  5462.097  
5486.629   8.500      -9999.000  -9999.000  -9999.000  -9999.000  -9999.000  -9999.000  -9999.000  -9999.000  -9999.000  -9999.000  -9999.000  -9999.000  -9999.000  8.371      0.287      -9999.000  -9999.000  -9999.000  0.000      0.010      0.001      0.052      0.067      4.981      2088.719   2.666      84033.930  5462.250  
5486.781   8.500      -9999.000  -9999.000  -9999.000  -9999.000  -9999.000  -9999.000  -9999.000  -9999.000  -9999.000  -9999.000  -9999.000  -9999.000  -9999.000  8.371      0.273      -9999.000  -9999.000  -9999.000  0.000      0.012      0.005      0.048      0.065      4.785      1568.510   2.696      67298.781  5462.402  
5486.933   8.500      -9999.000  -9999.000  -9999.000  -9999.000  -9999.000  -9999.000  -9999.000  -9999.000  -9999.000  -9999.000  -9999.000  -9999.000  -9999.000  8.371      0.254      -9999.000  -9999.000  -9999.000  0.000      0.016      0.003      0.050      0.063      4.542      1416.883   2.703      36834.730  5462.554  
5487.086   8.500      -9999.000  -9999.000  -9999.000  -9999.000  -9999.000  -9999.000  -9999.000  -9999.000  -9999.000  -9999.000  -9999.000  -9999.000  -9999.000  8.370      0.233      -9999.000  -9999.000  -9999.000  0.000      0.013      0.001      0.046      0.060      4.377      1365.614   2.691      10684.970  5462.707  
5487.238   8.500      -9999.000  -9999.000  -9999.000  -9999.000  -9999.000  -9999.000  -9999.000  -9999.000  -9999.000  -9999.000  -9999.000  -9999.000  -9999.000  8.370      0.211      -9999.000  -9999.000  -9999.000  0.000      0.005      -0.000     0.039      0.062      4.342      1329.275   2.674      901.866    5462.859  
5487.391   8.500      -9999.000  -9999.000  -9999.000  -9999.000  -9999.000  -9999.000  -9999.000  -9999.000  -9999.000  -9999.000  -9999.000  -9999.000  -9999.000  -9999.000  0.194      -9999.000  -9999.000  -9999.000  -9999.000  0.001      0.000      0.037      0.071      4.411      1280.741   2.673      955.882    5463.011  
5487.543   8.500      -9999.000  -9999.000  -9999.000  -9999.000  -9999.000  -9999.000  -9999.000  -9999.000  -9999.000  -9999.000  -9999.000  -9999.000  -9999.000  -9999.000  0.190      -9999.000  -9999.000  -9999.000  -9999.000  0.000      0.000      0.034      0.082      4.544      1195.492   2.691      10982.938  5463.164  
5487.695   8.500      -9999.000  -9999.000  -9999.000  -9999.000  -9999.000  -9999.000  -9999.000  -9999.000  -9999.000  -9999.000  -9999.000  -9999.000  -9999.000  -9999.000  0.195      -9999.000  -9999.000  -9999.000  0.000      0.007      -0.000     0.034      0.086      4.651      1088.400   2.697      37135.918  5463.316  
5487.848   8.500      -9999.000  -9999.000  -9999.000  -9999.000  -9999.000  -9999.000  -9999.000  -9999.000  -9999.000  -9999.000  -9999.000  -9999.000  -9999.000  -9999.000  0.198      -9999.000  -9999.000  -9999.000  0.000      0.012      0.001      0.037      0.083      4.676      990.571    2.661      67155.586  5463.468  
5488.000   8.500      -9999.000  -9999.000  -9999.000  -9999.000  -9999.000  -9999.000  -9999.000  -9999.000  -9999.000  -9999.000  -9999.000  -9999.000  -9999.000  -9999.000  0.202      -9999.000  -9999.000  -9999.000  0.000      0.013      0.003      0.045      0.079      4.695      932.534    2.618      83442.750  5463.621  
5488.153   8.500      -9999.000  -9999.000  -9999.000  -9999.000  -9999.000  -9999.000  -9999.000  -9999.000  -9999.000  -9999.000  -9999.000  -9999.000  -9999.000  -9999.000  0.219      -9999.000  -9999.000  -9999.000  0.000      0.016      0.004      0.059      0.080      4.809      929.973    2.620      85795.125  5463.773  
5488.305   8.500      -9999.000  -9999.000  -9999.000  -9999.000  -9999.000  -9999.000  -9999.000  -9999.000  -9999.000  -9999.000  -9999.000  -9999.000  -9999.000  -9999.000  0.246      -9999.000  -9999.000  -9999.000  0.000      0.026      0.003      0.074      0.084      4.968      969.368    2.659      77196.914  5463.925  
