~Version
 VERS              .         2.0                           : CWLS LOG ASCII STANDARD - VERSION 2.0
 WRAP              .         NO                            : ONE LINE PER DEPTH STEP
 DLM               .         SPACE                         : DELIMITING CHARACTER(SPACE TAB OR COMMA)
~Well Information
#_______________________________________________________________________________
#
#PARAMETER_NAME    .UNIT     VALUE                         : DESCRIPTION
#_______________________________________________________________________________
STRT               .M        2228.000                      : First reference value
STOP               .M        5446.688                      : Last reference value
STEP               .M        0.152                         : Step increment
NULL               .         -9999                         : Missing value
COMP               .         Petrobras                     : Company
WELL               .         8-SPH-13-SPS                  : Well name
FLD                .         Sapinhoa                      : Field
LOC                .                                       : Location
CNTY               .                                       : County
STAT               .         SAO PAULO                     : State
CTRY               .         BRASIL                        : Country
SRVC               .                                       : Service Company
DATE               .                                       : Date
API                .         863160035500                  : API number
APD                .M        24                            : Above Permanent Datum
BHT                .degF     120                           : Bottom Hole Temperature
BLI                .M        5180.5                        : Bottom Log Interval
BS                 .in       12.25x14.75                   : Bit Size
DCS                .         07/04/2014                    : Date Ciculation Stopped
DFD                .lbm/gal  10.1                          : Drilling Fluid Density
DFT                .         BR-MUL                        : Drilling Fluid Type
DLAB               .         08/04/2014                    : Date Logger At Bottom
EDF                .M        24                            : Elevation of Derreck Floor
EGL                .M        -2119                         : Elevation of Ground Level
EKB                .M        -999.25                       : ELEVATION OF KELLY BUSHING
EPD                .M        0                             : Elevation Of Permanent Datum
GDAT               .         SIRGAS2000                    : Geodetic Datum
LMF                .         MR                            : Log Measured From
LUL                .         MCE                           : LOGGING UNIT LOCATION
LUN                .         -999.25                       : LOGGING UNIT NUMBER
LATI               .         -25_42_39.196                 : Latitude
LONG               .         -43_09_15.905                 : Longitude
MCST               .degF     -999.25                       : Mud Cake Sample Temperature
MFST               .degF     -999.25                       : Mud Filtrate Sample Temperature
MRT                .degF     120                           : Maximum Recorded Temperature
MST                .degF     -999.25                       : Mud Sample Temperature
ORIGINALWELLNAME   .         8SPH 0013  SPS                : 
PDAT               .         NM                            : Permanent Datum
PRODUCER-CODE      .         15                            : 
PRODUCER-NAME      .         INTEQ                         : 
RMB                .ohm.m    -999.25                       : RESISTIVITY OF MUD - BHT
RMCS               .ohm.m    -999.25                       : Resistivity Of Mud Cake Sample
RMFS               .ohm.m    -999.25                       : Mud Filtrate Sample Resistivity
RMS                .ohm.m    -999.25                       : Mud Sample Resistivity
RUN                .         1                             : Run
TCS                .h        15_00                         : Time Ciculation Stopped
TDD                .M        5184                          : Total Depht - Driller
TDL                .M        5184                          : Total Depht - Logger
TLAB               .h        11_00                         : Time Logger At Bottom
TLI                .M        3543                          : Top Log Interval
X                  .M        685128.30900000               : X COORDINATE N
Y                  .M        7155027.01100000              : Y COORDINATE E
~Parameter Information Block
#_______________________________________________________________________________
#
#PARAMETER_NAME    .UNIT     VALUE                         : DESCRIPTION
#_______________________________________________________________________________
SET                .         BASE                          : 
TLFamily_DT        .         Compressional Slowness        : 
TLFamily_GR        .         Gamma Ray                     : 
TLFamily_HCAL      .         Caliper                       : 
TLFamily_MD        .         Measured Depth                : 
TLFamily_NMRE_Final .         NMR Bound Fluid Volume Fraction: 
TLFamily_NMRFL_Final .         NMR Free Fluids               : 
TLFamily_NMRT_Final .         NMR Porosity                  : 
TLFamily_NPHI      .         Neutron Porosity              : 
TLFamily_RD        .         Resistivity - Deep            : 
TLFamily_RHOB      .         Bulk Density                  : 
TLFamily_RM        .         Resistivity - Medium          : 
TLFamily_RS        .         Resistivity - Shallow         : 
~Curve Information
#_______________________________________________________________________________
#
#LOGNAME           .UNIT     LOG_ID                        : DESCRIPTION
#_______________________________________________________________________________
DEPTH              .M                                      :  
DT                 .us/ft                                  : SONICO COMPRESSIONAL (COMPOSICAO DE CURVAS CABO E/OU LWD) 
GR                 .gAPI                                   : RAIOS GAMA (COMPOSICAO DE CURVAS CABO E/OU LWD) 
HCAL               .in                                     : CALIPER (COMPOSICAO DE CURVAS CABO E/OU LWD) 
NMRE_Final         .m3/m3                                  : 03/02 - MRIL (HALLIBURTON) - MRIL EFFECTIVE POROSITY 
NMRFL_Final        .unitless                               : 03/02 - MRIL (HALLIBURTON) - FREE FLUID INDEX T2 
NMRT_Final         .frac                                   : 03/02 - MRIL (HALLIBURTON) - MRIAN MRIL TOTAL POROSITY 
NPHI               .frac                                   : POROSIDADE NEUTRONICA (COMPOSICAO DE CURVAS CABO E/OU LWD) 
RD                 .ohm.m                                  : RESISTIVIDADE PROFUNDA (COMPOSICAO DE CURVAS CABO E/OU LWD) 
RHOB               .g/cm3                                  : DENSIDADE (COMPOSICAO DE CURVAS CABO E/OU LWD ) 
RM                 .ohm.m                                  : RESISTIVIDADE MEDIA (COMPOSICAO DE CURVAS CABO E/OU LWD) 
RS                 .ohm.m                                  : RESISTIVIDADE RASA (COMPOSICAO DE CURVAS CABO E/OU LWD) 
~Ascii
# ...
4933.252   68.285     4.881      14.691     -9999.000  -9999.000  -9999.000  -0.028     1891.463   2.049      989.339    989.339   
4933.405   68.399     4.560      14.695     -9999.000  -9999.000  -9999.000  -0.028     1994.560   2.044      951.872    951.872   
4933.557   68.530     4.590      14.696     -9999.000  -9999.000  -9999.000  -0.028     2000.000   2.044      945.433    945.433   
4933.710   68.375     5.957      14.695     -9999.000  -9999.000  -9999.000  -0.027     2000.000   2.043      989.339    989.339   
4933.862   68.299     6.484      14.692     -9999.000  -9999.000  -9999.000  -0.026     2000.000   2.036      1091.352   1091.352  
4934.014   68.422     6.073      14.691     -9999.000  -9999.000  -9999.000  -0.025     2000.000   2.031      1366.661   1366.661  
4934.167   67.893     5.122      14.689     -9999.000  -9999.000  -9999.000  -0.023     2000.000   2.032      2446.724   2446.724  
4934.319   67.195     5.190      14.687     -9999.000  -9999.000  -9999.000  -0.016     1918.770   2.038      2323.802   2323.802  
4934.472   66.894     6.071      14.690     -9999.000  -9999.000  -9999.000  -0.000     1240.393   2.087      855.210    855.210   
4934.624   66.915     6.447      14.693     -9999.000  -9999.000  -9999.000  0.023      812.618    2.210      587.674    587.674   
4934.776   67.121     7.082      14.691     -9999.000  -9999.000  -9999.000  0.036      563.353    2.350      878.736    878.736   
4934.929   67.503     6.939      14.678     -9999.000  -9999.000  -9999.000  0.036      622.967    2.417      1277.799   1277.799  
4935.081   68.079     6.287      14.673     -9999.000  -9999.000  -9999.000  0.029      854.597    2.364      1047.835   1047.835  
4935.234   68.357     6.346      14.693     -9999.000  -9999.000  -9999.000  0.028      977.829    2.316      649.597    649.597   
4935.386   68.342     6.402      14.715     -9999.000  -9999.000  -9999.000  0.039      951.383    2.374      571.093    571.093   
4935.538   68.220     6.620      14.720     -9999.000  -9999.000  -9999.000  0.051      815.676    2.478      674.226    674.226   
4935.691   68.195     7.275      14.727     -9999.000  -9999.000  -9999.000  0.052      636.298    2.538      807.762    807.762   
4935.843   68.235     7.623      14.740     -9999.000  -9999.000  -9999.000  0.043      618.804    2.541      948.376    948.376   
4935.996   68.196     7.130      14.742     -9999.000  -9999.000  -9999.000  0.023      887.815    2.437      989.339    989.339   
4936.148   68.239     6.360      14.733     -9999.000  -9999.000  -9999.000  0.001      1222.736   2.260      1037.434   1037.434  
4936.300   68.435     5.575      14.726     -9999.000  -9999.000  -9999.000  -0.015     1658.037   2.128      999.096    999.096   
4936.453   68.782     5.606      14.720     -9999.000  -9999.000  -9999.000  -0.024     1828.747   2.062      907.705    907.705   
4936.605   68.875     5.521      14.717     -9999.000  -9999.000  -9999.000  -0.027     1929.832   2.053      1052.227   1052.227  
4936.758   68.867     5.224      14.715     -9999.000  -9999.000  -9999.000  -0.028     1929.418   2.052      1101.668   1101.668  
4936.910   68.846     5.141      14.712     -9999.000  -9999.000  -9999.000  -0.029     1842.355   2.052      1036.105   1036.105  
4937.062   68.775     5.261      14.710     -9999.000  -9999.000  -9999.000  -0.029     1761.056   2.054      1143.575   1143.575  
4937.215   68.883     5.370      14.708     -9999.000  -9999.000  -9999.000  -0.029     1685.989   2.057      1149.241   1149.241  
4937.367   68.843     4.888      14.706     -9999.000  -9999.000  -9999.000  -0.028     1600.835   2.058      1040.755   1040.755  
4937.520   68.868     4.874      14.706     -9999.000  -9999.000  -9999.000  -0.028     1559.152   2.051      1035.323   1035.323  
4937.672   68.772     5.731      14.704     -9999.000  -9999.000  -9999.000  -0.029     1507.844   2.044      1041.303   1041.303  
4937.824   68.739     5.841      14.706     -9999.000  -9999.000  -9999.000  -0.028     1486.826   2.043      989.339    989.339   
4937.977   68.443     6.093      14.706     -9999.000  -9999.000  -9999.000  -0.028     1466.409   2.047      1090.138   1090.138  
4938.129   68.079     6.206      14.708     -9999.000  -9999.000  -9999.000  -0.028     1443.871   2.050      1151.337   1151.337  
4938.282   67.878     5.639      14.709     -9999.000  -9999.000  -9999.000  -0.028     1396.489   2.052      1141.288   1141.288  
4938.434   67.868     5.302      14.709     -9999.000  -9999.000  -9999.000  -0.029     1354.621   2.053      1152.004   1152.004  
4938.586   67.991     5.313      14.708     -9999.000  -9999.000  -9999.000  -0.029     1303.821   2.052      1086.974   1086.974  
4938.739   68.181     5.264      14.707     -9999.000  -9999.000  -9999.000  -0.029     1282.174   2.051      1140.621   1140.621  
4938.891   68.086     5.480      14.708     -9999.000  -9999.000  -9999.000  -0.029     1276.548   2.053      1272.454   1272.454  
4939.044   67.905     5.805      14.708     -9999.000  -9999.000  -9999.000  -0.029     1285.690   2.053      1236.064   1236.064  
4939.196   67.905     5.553      14.706     -9999.000  -9999.000  -9999.000  -0.029     1304.163   2.045      1086.974   1086.974  
4939.348   68.157     5.611      14.705     -9999.000  -9999.000  -9999.000  -0.029     1317.513   2.034      1086.974   1086.974  
4939.501   68.239     6.477      14.705     -9999.000  -9999.000  -9999.000  -0.029     1345.252   2.030      1086.974   1086.974  
4939.653   68.087     6.600      14.705     -9999.000  -9999.000  -9999.000  -0.029     1375.045   2.029      1138.620   1138.620  
4939.806   67.972     5.998      14.704     -9999.000  -9999.000  -9999.000  -0.029     1441.263   2.031      1112.598   1112.598  
4939.958   67.957     5.765      14.705     -9999.000  -9999.000  -9999.000  -0.029     1495.125   2.033      1031.178   1031.178  
4940.110   68.014     6.017      14.706     -9999.000  -9999.000  -9999.000  -0.028     1582.079   2.037      1045.134   1045.134  
4940.263   68.208     5.835      14.707     -9999.000  -9999.000  -9999.000  -0.028     1625.503   2.041      1333.584   1333.584  
4940.415   68.182     5.350      14.705     -9999.000  -9999.000  -9999.000  -0.029     1660.903   2.045      1547.136   1547.136  
4940.568   67.995     5.315      14.702     -9999.000  -9999.000  -9999.000  -0.029     1707.336   2.049      1205.937   1205.937  
4940.720   67.934     5.611      14.700     -9999.000  -9999.000  -9999.000  -0.028     1735.342   2.049      1156.673   1156.673  
4940.872   68.083     5.196      14.700     -9999.000  -9999.000  -9999.000  -0.028     1778.736   2.045      1197.861   1197.861  
4941.025   68.368     4.991      14.701     -9999.000  -9999.000  -9999.000  -0.028     1809.385   2.043      1204.001   1204.001  
4941.177   68.307     4.897      14.700     -9999.000  -9999.000  -9999.000  -0.029     1853.824   2.045      955.926    955.926   
4941.330   68.182     4.843      14.699     -9999.000  -9999.000  -9999.000  -0.029     1880.634   2.048      833.542    833.542   
4941.482   68.290     4.605      14.703     -9999.000  -9999.000  -9999.000  -0.029     1905.315   2.050      831.763    831.763   
4941.634   68.633     4.296      14.705     -9999.000  -9999.000  -9999.000  -0.029     1906.799   2.053      956.645    956.645   
4941.787   68.770     4.550      14.706     -9999.000  -9999.000  -9999.000  -0.028     1883.875   2.059      907.705    907.705   
4941.939   68.619     4.881      14.708     -9999.000  -9999.000  -9999.000  -0.028     1841.536   2.061      774.781    774.781   
4942.092   68.361     5.074      14.708     -9999.000  -9999.000  -9999.000  -0.026     1687.037   2.056      540.338    540.338   
4942.244   68.246     5.511      14.710     -9999.000  -9999.000  -9999.000  -0.022     1457.764   2.055      511.928    511.928   
4942.396   68.282     6.887      14.711     -9999.000  -9999.000  -9999.000  -0.011     951.504    2.088      579.881    579.881   
