~Version
 VERS              .         2.0                           : CWLS LOG ASCII STANDARD - VERSION 2.0
 WRAP              .         NO                            : ONE LINE PER DEPTH STEP
 DLM               .         SPACE                         : DELIMITING CHARACTER(SPACE TAB OR COMMA)
~Well Information
#_______________________________________________________________________________
#
#PARAMETER_NAME    .UNIT     VALUE                         : DESCRIPTION
#_______________________________________________________________________________
STRT               .M        5038.900                      : First reference value
STOP               .M        5526.275                      : Last reference value
STEP               .M        0.152                         : Step increment
NULL               .         -9999                         : Missing value
COMP               .         PETROBRAS                     : Company
WELL               .         8-SPH-23-SPS                  : Well name
FLD                .         SAPINHOA                      : Field
LOC                .                                       : Location
PROV               .                                       : Province
SRVC               .                                       : Service Company
DATE               .         2021-09-13 11_18_58           : Date
UWI                .         8-SPH-23-SPS                  : Unique Well ID
APD                .M        24.0                          : ABOVE PERMANENT DATUM
API                .         863160047300                  : API Code
BHT                .degF     160                           : BOTTOMHOLE TEMPERATURE
BLI                .M        5511.3                        : BOTTOM LOGGED INTERVAL
BS                 .in       12.25                         : BIT SIZE
CTRY               .         BRASIL                        : Nation
DCS                .         10/04/2016                    : DATE CIRCULATION STOPPED
DFD                .lb/gal   9.4                           : DRILLING FLUID DENSITY
DFT                .         OLEDRILL (BASE OLEFINA)       : DRILLING FLUID TYPE
DLAB               .         12/04/2016                    : DATE LOGGING ON BOTTOM
EDF                .M        24.0                          : ELEVATION OF DRILLING FLOOR
EGL                .M        -2146.0                       : ELEVATION OF GROUND LEVEL
EKB                .M        24.0                          : ELEVATION OF KELLY BUSHING
EPD                .M        0.0                           : ELEVATATION OF PERMANENT DATUM
GDAT               .         SIRGAS2000                    : Geodetic Datum
LMF                .         MR                            : LOG MEASURED FROM
LUL                .         MCE                           : LOGGING UNIT LOCATION
LUN                .         12247255                      : LOGGING UNIT NUMBER
LATI               .         -25_42_01.290                 : Latitude
LONG               .         -43_11_39,303                 : LONGITUDE
MCST               .degF     -999.25                       : MUDCAKE SAMPLE TEMPERATURE
MFST               .degF     -999.25                       : MUD FILTRATE SAMPLE TEMPERATURE
MRT                .degF     160.0                         : MAXIMUM RECORDED TEMPERATURE
MST                .degF     -999.25                       : MUD SAMPLE TEMPERATURE
ORIGINALWELLNAME   .         8SPH 0023  SPS                : 
PDAT               .         NM                            : PERMANENT DATUM
PRODUCER-CODE      .         280                           : 
PRODUCER-NAME      .         Halliburton                   : 
RMB                .ohm.m    -999.25                       : RESISTIVITY OF MUD - BHT
RMCS               .ohm.m    -999.25                       : RESISTIVITY OF MUDCAKE SAMPLE
RMFS               .ohm.m    -999.25                       : RESISTIVITY OF MUD FILTRATE SAMPLE
RMS                .ohm.m    -999.25                       : RESISTIVITY OF MUD SAMPLE
RUN                .         02                            : RUN NUMBER 1
STAT               .         SAO PAULO                     : STATE
TCS                .h        03_30                         : TIME CIRCULATION STOPPED
TDD                .M        5517.0                        : DRILLERS DEPTH
TDL                .M        5520.0                        : LOGGERS DEPTH
TLAB               .h        07_30                         : TIME LOGGING ON BOTTOM
TLI                .M        5070.0                        : TOP LOGGED INTERVAL
X                  .M        681190.00000000               : X UTM Coordinate
Y                  .M        7156260.00000000              : Y UTM Coordinate
~Parameter Information Block
#_______________________________________________________________________________
#
#PARAMETER_NAME    .UNIT     VALUE                         : DESCRIPTION
#_______________________________________________________________________________
SET                .         BASE                          : 
TLFamily_BS        .         Bit Size                      : 
TLFamily_DT        .         Compressional Slowness        : 
TLFamily_DWAL      .         Aluminum Weight Fraction      : 
TLFamily_DWCA      .         Calcium Weight Fraction       : 
TLFamily_DWFE      .         Iron Weight Fraction          : 
TLFamily_DWK       .         Potassium Weight Fraction     : 
TLFamily_DWMG      .         Magnesium Weight Fraction     : 
TLFamily_DWMN      .         Manganese Weight Fraction     : 
TLFamily_DWS       .         Sulfur Weight Fraction        : 
TLFamily_DWSI      .         Silicon Weight Fraction       : 
TLFamily_DWTI      .         Titanium Weight Fraction      : 
TLFamily_GR        .         Gamma Ray                     : 
TLFamily_GRt       .         Gamma Ray                     : 
TLFamily_HCAL      .         Caliper                       : 
TLFamily_HFK       .         Potassium Concentration       : 
TLFamily_HTHO      .         Thorium Concentration         : 
TLFamily_HURA      .         Uranium Concentration         : 
TLFamily_MD        .         Measured Depth                : 
TLFamily_MPERM     .         NMR Permeability              : 
TLFamily_NMRE_Final .         NMR Bound Fluid Volume Fraction: 
TLFamily_NMRFL_Final .         NMR Free Fluids               : 
TLFamily_NMRT_Final .         NMR Porosity                  : 
TLFamily_NPHI      .         Neutron Porosity              : 
TLFamily_PE        .         Photoelectric Factor          : 
TLFamily_RD        .         Resistivity - Deep            : 
TLFamily_RHOB      .         Bulk Density                  : 
TLFamily_RM        .         Resistivity - Medium          : 
TLFamily_RS        .         Resistivity - Shallow         : 
TLFamily_T2LM      .         NMR T2 Logarithmic Mean       : 
TLFamily_TVDSS     .         True Vertical Depth Sub Sea   : 
~Curve Information
#_______________________________________________________________________________
#
#LOGNAME           .UNIT     LOG_ID                        : DESCRIPTION
#_______________________________________________________________________________
DEPTH              .M                                      :  
BS                 .in                                     : BS/Bit Size 
DT                 .us/ft                                  : DTC/MonoDeltaT 
DWAL               .kg/kg                                  : DAL/DryrockAlWF 
DWCA               .kg/kg                                  : DCA/DryrockCaWF 
DWFE               .kg/kg                                  : DFE/DryrockFeWF 
DWK                .kg/kg                                  : DK/DryrockKWF 
DWMG               .kg/kg                                  : DMG/DryrockMgWF 
DWMN               .kg/kg                                  : DMN/DryrockMnWF 
DWS                .kg/kg                                  : DSUL/DryrockSuWF 
DWSI               .kg/kg                                  : DSI/DryrockSiWF 
DWTI               .kg/kg                                  : DTI/DryrockTiWF 
GR                 .gAPI                                   : GR/Gamma API 
GRt                .gAPI                                   : GKUT/GammaKUT 
HCAL               .in                                     : CALI/Caliper 
HFK                .%                                      : POTA/Potassium 
HTHO               .ppm                                    : THOR/Thorium 
HURA               .ppm                                    : URAN/Uranium 
MPERM              .mD                                     : MPERMT2/MrilT2KCoat 
NMRE_Final         .m3/m3                                  : MPHIT2/TA-grp T2 Effective Por 
NMRFL_Final        .unitless                               : MFFIT2/TA-grp T2 FreeFluid Ind 
NMRT_Final         .frac                                   : MSIGT2/TA-grp T2 Total Por. 
NPHI               .frac                                   : POROSIDADE NEUTRONICA (COMPOSICAO DE CURVAS CABO E/OU LWD) 
PE                 .b/e                                    : Density PE Filtered 
RD                 .ohm.m                                  : RT90/90in Resistivity 2ft Res 
RHOB               .g/cm3                                  : DENSIDADE (COMPOSICAO DE CURVAS CABO E/OU LWD ) 
RM                 .ohm.m                                  : RT30/30in Resistivity 2ft Res 
RS                 .ohm.m                                  : RT10/10in Resistivity 2ft Res 
T2LM               .ms                                     : T2LM/T2 Log Mean 
TVDSS              .M                                      :  
~Ascii
# ...
5107.480   12.250     61.166     0.019      0.280      0.000      0.024      0.002      0.000      0.006      0.105      0.001      34.334     42.035     12.075     0.175      0.835      4.072      3.293      0.104      0.066      0.112      0.103      5.450      952.820    2.537      943.417    961.003    137.034    5049.092  
5107.632   12.250     63.622     0.021      0.301      0.000      0.026      0.001      0.000      0.005      0.081      0.001      27.022     36.929     12.061     0.181      1.060      3.412      14.703     0.128      0.091      0.134      0.136      5.594      881.003    2.467      901.456    1011.947   188.622    5049.244  
5107.785   12.250     64.770     0.022      0.322      0.000      0.027      0.000      0.000      0.004      0.056      0.001      23.518     33.283     12.058     0.218      1.315      2.848      73.866     0.151      0.120      0.153      0.176      6.040      831.856    2.405      873.316    1021.664   256.767    5049.396  
5107.937   12.250     64.801     0.021      0.342      0.000      0.025      0.000      0.001      0.003      0.035      0.001      22.361     30.501     12.046     0.315      1.786      2.200      119.694    0.156      0.129      0.159      0.199      6.437      770.461    2.381      836.457    1004.199   259.322    5049.549  
5108.089   12.250     63.286     0.021      0.343      0.000      0.024      0.000      0.001      0.003      0.035      0.000      23.541     30.474     12.046     0.367      1.943      2.049      53.967     0.148      0.118      0.157      0.206      6.676      742.326    2.390      818.205    993.245    184.494    5049.701  
5108.242   12.250     61.751     0.024      0.319      0.001      0.022      0.010      0.001      0.004      0.043      0.000      25.918     31.815     12.048     0.451      1.863      2.082      19.590     0.131      0.100      0.150      0.194      6.747      709.883    2.432      795.427    978.084    105.841    5049.854  
5108.394   12.250     59.826     0.028      0.302      0.002      0.018      0.015      0.001      0.007      0.048      0.000      26.795     32.955     12.052     0.457      1.644      2.277      6.414      0.108      0.079      0.137      0.168      6.736      698.142    2.499      786.659    971.722    59.376     5050.006  
5108.547   12.250     56.820     0.026      0.278      0.003      0.014      0.023      0.001      0.011      0.063      0.000      26.461     34.706     12.075     0.426      1.088      2.729      1.101      0.081      0.052      0.108      0.142      6.698      698.987    2.571      787.288    970.718    35.104     5050.158  
5108.699   12.250     54.430     0.018      0.262      0.004      0.014      0.031      0.000      0.012      0.077      0.000      25.744     36.024     12.097     0.393      0.801      3.039      0.255      0.065      0.035      0.087      0.114      6.646      711.197    2.637      796.889    976.070    24.579     5050.311  
5108.851   12.250     53.382     0.013      0.235      0.004      0.016      0.042      0.000      0.010      0.096      0.001      27.194     39.656     12.087     0.338      0.526      3.638      0.097      0.053      0.027      0.076      0.095      6.585      746.694    2.667      825.316    993.156    20.217     5050.463  
5109.004   12.250     52.792     0.013      0.232      0.004      0.016      0.031      0.000      0.012      0.116      0.001      29.756     42.729     12.086     0.302      0.497      4.053      0.085      0.052      0.026      0.071      0.084      6.510      775.182    2.665      848.026    1006.721   28.443     5050.616  
5109.156   12.250     52.969     0.014      0.226      0.004      0.018      0.012      0.000      0.013      0.152      0.001      35.891     48.206     12.081     0.279      0.517      4.695      0.084      0.054      0.027      0.063      0.083      6.350      826.828    2.641      888.536    1029.027   71.155     5050.768  
5109.309   12.250     53.156     0.016      0.214      0.003      0.020      0.013      0.000      0.011      0.164      0.001      41.123     50.426     12.061     0.271      0.511      4.959      0.075      0.054      0.026      0.055      0.095      6.095      868.125    2.599      921.250    1048.001   144.134    5050.920  
5109.461   12.250     53.818     0.017      0.211      0.003      0.021      0.013      0.000      0.009      0.168      0.001      45.783     49.100     12.075     0.301      0.638      4.713      0.057      0.051      0.024      0.051      0.104      5.740      932.760    2.584      971.484    1060.603   166.799    5051.073  
5109.613   12.250     53.969     0.017      0.213      0.003      0.021      0.015      0.000      0.008      0.163      0.001      43.684     44.888     12.098     0.333      0.765      4.141      0.031      0.047      0.021      0.047      0.096      5.559      988.830    2.609      1014.257   1025.869   157.741    5051.225  
5109.766   12.250     54.346     0.017      0.222      0.003      0.021      0.017      0.000      0.008      0.148      0.000      30.587     36.193     12.109     0.367      0.964      3.043      0.019      0.042      0.019      0.042      0.081      5.533      1027.831   2.635      1040.748   1076.692   144.242    5051.378  
5109.918   12.250     54.248     0.018      0.234      0.002      0.023      0.019      0.000      0.007      0.131      0.000      19.796     28.611     12.112     0.369      1.119      2.138      0.026      0.037      0.020      0.037      0.072      5.626      1090.528   2.652      1090.115   1130.596   172.684    5051.530  
5110.071   12.250     53.857     0.019      0.248      0.001      0.024      0.023      0.000      0.006      0.108      0.000      15.321     22.328     12.101     0.335      1.104      1.504      0.030      0.036      0.021      0.036      0.074      6.002      1204.844   2.651      1182.990   1205.421   204.959    5051.682  
5110.223   12.250     53.461     0.019      0.250      0.001      0.023      0.030      0.001      0.006      0.095      0.000      14.394     19.422     12.097     0.290      1.064      1.273      0.020      0.035      0.019      0.035      0.078      6.337      1257.013   2.650      1218.508   1231.138   163.206    5051.835  
5110.375   12.250     53.218     0.018      0.239      0.001      0.022      0.042      0.001      0.007      0.089      0.000      14.963     19.143     12.092     0.265      1.146      1.255      0.016      0.035      0.018      0.035      0.079      6.508      1288.055   2.657      1238.464   1239.007   95.717     5051.987  
5110.528   12.250     53.041     0.017      0.229      0.001      0.021      0.049      0.001      0.008      0.090      0.000      16.630     19.645     12.105     0.275      1.203      1.272      0.012      0.035      0.016      0.038      0.075      6.517      1305.321   2.671      1250.802   1244.593   54.087     5052.139  
5110.680   12.250     52.789     0.017      0.229      0.001      0.021      0.046      0.001      0.010      0.093      0.000      18.633     20.143     12.109     0.357      1.611      1.036      0.011      0.034      0.015      0.048      0.072      6.469      1313.688   2.683      1258.844   1250.117   23.767     5052.292  
5110.833   12.250     52.548     0.016      0.229      0.002      0.020      0.044      0.001      0.013      0.096      0.000      19.010     20.184     12.100     0.420      1.784      0.869      0.018      0.032      0.017      0.055      0.072      6.396      1308.379   2.680      1256.184   1250.048   14.073     5052.444  
5110.985   12.250     52.404     0.015      0.222      0.002      0.019      0.051      0.001      0.013      0.093      0.000      18.061     19.851     12.103     0.449      1.759      0.790      0.015      0.034      0.016      0.051      0.074      6.311      1294.330   2.670      1246.867   1246.672   18.485     5052.597  
5111.137   12.250     52.155     0.017      0.217      0.001      0.021      0.057      0.001      0.012      0.089      0.000      15.978     19.551     12.095     0.431      1.530      0.873      0.010      0.037      0.015      0.043      0.076      6.171      1252.318   2.667      1216.801   1233.123   45.741     5052.749  
