~Version
 VERS              .         2.0                           : CWLS LOG ASCII STANDARD - VERSION 2.0
 WRAP              .         NO                            : ONE LINE PER DEPTH STEP
 DLM               .         SPACE                         : DELIMITING CHARACTER(SPACE TAB OR COMMA)
~Well Information
#_______________________________________________________________________________
#
#PARAMETER_NAME    .UNIT     VALUE                         : DESCRIPTION
#_______________________________________________________________________________
STRT               .M        5027.447                      : First reference value
STOP               .M        5499.430                      : Last reference value
STEP               .M        0.152                         : Step increment
NULL               .         -9999                         : Missing value
COMP               .         PETROBRAS                     : Company
WELL               .         8-SPH-10-SPS                  : Well name
FLD                .         SAPINHOA                      : Field
LOC                .                                       : Location
PROV               .                                       : Province
SRVC               .                                       : Service Company
DATE               .         2021-09-13 11_18_58           : Date
UWI                .         8-SPH-10-SPS                  : Unique Well ID
APD                .M        24                            : Above Permanent Datum
API                .                                       : API NUMBER
BHT                .degF     153                           : Bottom Hole Temperature
BLI                .M        5494.8                        : Bottom Log Interval
BS                 .in       8.5                           : Bit Size
CTRY               .         BRASIL                        : Nation
DCS                .         15/06/2015                    : Date Ciculation Stopped
DFD                .lb/gal   9.7                           : Drilling Fluid Density
DFT                .         CATIONICO FLEX DRILL (BASE AGUA): Drilling Fluid Type
DLAB               .         18/06/2015                    : Date Logger At Bottom
EDF                .M        24                            : Elevation of Derreck Floor
EGL                .M        -2125                         : Elevation of Ground Level
EKB                .M        -999.25                       : Elevation of Kelly Bushing
EPD                .M        0                             : Elevation Of Permanent Datum
LMF                .         MR                            : Log Measured From
LONG               .         -43_10_14,760                 : Longitude
MCST               .degF     67                            : Mud Cake Sample Temperature
MFST               .degF     67                            : Mud Filtrate Sample Temperature
MRT                .degF     153                           : Maximum Recorded Temperature
MST                .degF     67                            : Mud Sample Temperature
ORIGINALWELLNAME   .         P08                           : 
PDAT               .         NM                            : Permanent Datum
PRODUCER-CODE      .         150                           : 
PRODUCER-NAME      .         ATLAS                         : 
RMB                .ohm.m    -999.25                       : Resistivity Of Mud - BHT
RMCS               .ohm.m    0.078                         : Resistivity Of Mud Cake Sample
RMFS               .ohm.m    0.064                         : Mud Filtrate Sample Resistivity
RMS                .ohm.m    0.071                         : Mud Sample Resistivity
RUN                .         3                             : Run Number
STAT               .         SAO PAULO                     : State
TCS                .h        22_00                         : Time Ciculation Stopped
TDD                .M        5496                          : Total Depht - Driller
TDL                .M        5495.5                        : Total Depht - Logger
TLAB               .h        10_45                         : Time Logger At Bottom
TLI                .M        5114                          : Top Log Interval
X                  .M        683623.00000000               : 
Y                  .M        7161727.00000000              : 
~Parameter Information Block
#_______________________________________________________________________________
#
#PARAMETER_NAME    .UNIT     VALUE                         : DESCRIPTION
#_______________________________________________________________________________
SET                .         BASE                          : 
TLFamily_BS        .         Bit Size                      : 
TLFamily_DT        .         Compressional Slowness        : 
TLFamily_DWAL      .         Aluminum Weight Fraction      : 
TLFamily_DWCA      .         Calcium Weight Fraction       : 
TLFamily_DWFE      .         Iron Weight Fraction          : 
TLFamily_DWGD      .         Gadolinium Weight Fraction    : 
TLFamily_DWK       .         Potassium Weight Fraction     : 
TLFamily_DWMG      .         Magnesium Weight Fraction     : 
TLFamily_DWMN      .         Manganese Weight Fraction     : 
TLFamily_DWS       .         Sulfur Weight Fraction        : 
TLFamily_DWSI      .         Silicon Weight Fraction       : 
TLFamily_DWTI      .         Titanium Weight Fraction      : 
TLFamily_GR        .         Gamma Ray                     : 
TLFamily_GRt       .         Gamma Ray                     : 
TLFamily_HCAL      .         Caliper                       : 
TLFamily_HDRA      .         Bulk Density Correction       : 
TLFamily_HFK       .         Potassium Concentration       : 
TLFamily_HTHO      .         Thorium Concentration         : 
TLFamily_HURA      .         Uranium Concentration         : 
TLFamily_MD        .         Measured Depth                : 
TLFamily_MPERM     .         NMR Permeability              : 
TLFamily_NMRE_Final .         NMR Bound Fluid Volume Fraction: 
TLFamily_NMRFL_Final .         NMR Free Fluids               : 
TLFamily_NMRT_Final .         NMR Porosity                  : 
TLFamily_NPHI      .         Neutron Porosity              : 
TLFamily_PE        .         Photoelectric Factor          : 
TLFamily_RD        .         Resistivity - Deep            : 
TLFamily_RHOB      .         Bulk Density                  : 
TLFamily_RS        .         Resistivity - Shallow         : 
TLFamily_TVDSS     .         True Vertical Depth Sub Sea   : 
~Curve Information
#_______________________________________________________________________________
#
#LOGNAME           .UNIT     LOG_ID                        : DESCRIPTION
#_______________________________________________________________________________
DEPTH              .M                                      :  
BS                 .in                                     : Bit size 
DT                 .us/ft                                  : Slowness over 24-inch interval 
DWAL               .kg/kg                                  : Weight fraction of aluminum derived from thorium in dry rock 
DWCA               .kg/kg                                  : Weight fraction of calcium in dry rock 
DWFE               .kg/kg                                  : Weight fraction of iron in dry rock 
DWGD               .ppm                                    : Weight fraction of gadolinium in dry rock 
DWK                .kg/kg                                  : Weight fraction of potassium in dry rock 
DWMG               .kg/kg                                  : Weight fraction of magnesium in dry rock 
DWMN               .kg/kg                                  : Weight fraction of manganese in dry rock 
DWS                .kg/kg                                  : Weight fraction of sulfur in dry rock 
DWSI               .kg/kg                                  : Weight fraction of silicon in dry rock 
DWTI               .kg/kg                                  : Weight fraction of titanium in dry rock 
GR                 .gAPI                                   : Gamma ray 
GRt                .gAPI                                   : Gamma ray from 1329 spectrum 
HCAL               .in                                     : Caliper 
HDRA               .g/cm3                                  : Density correction 
HFK                .%                                      : Potassium content 
HTHO               .ppm                                    : Thorium concentration 
HURA               .ppm                                    : Uranium content 
MPERM              .mD                                     : MR permeability 
NMRE_Final         .m3/m3                                  : MR effective porosity 
NMRFL_Final        .unitless                               : MR moveable fluids 
NMRT_Final         .frac                                   : MR total porosity 
NPHI               .frac                                   : Borehole size corrected compensated neutron porosity 
PE                 .b/e                                    : Photo electric cross-section 
RD                 .ohm.m                                  : Deep resistivity 
RHOB               .g/cm3                                  : Formation bulk density 
RS                 .ohm.m                                  : Shallow resistivity 
TVDSS              .M                                      :  
~Ascii
# ...
5336.057   8.500      83.536     0.001      0.085      0.004      1.494      0.001      0.028      0.001      0.001      0.304      0.003      23.191     23.290     8.710      0.000      0.034      0.141      2.858      6.739      0.122      0.078      0.143      0.134      2.382      6.393      2.470      14.642     5311.716  
5336.210   8.500      83.613     0.001      0.089      0.004      1.456      0.001      0.019      0.001      0.001      0.313      0.002      23.222     23.320     8.709      -0.004     0.030      0.138      2.937      6.592      0.118      0.077      0.141      0.126      2.209      6.366      2.477      14.449     5311.868  
5336.362   8.500      83.384     0.001      0.091      0.004      1.425      0.001      0.013      0.001      0.001      0.323      0.002      23.331     23.425     8.709      -0.008     0.028      0.136      2.996      5.163      0.117      0.073      0.134      0.114      2.117      6.661      2.490      15.076     5312.021  
5336.515   8.500      82.283     0.001      0.091      0.004      1.376      0.001      0.011      0.001      0.001      0.331      0.002      23.602     23.696     8.709      -0.008     0.034      0.130      3.007      3.912      0.116      0.069      0.126      0.106      2.049      7.360      2.505      16.595     5312.173  
5336.667   8.500      79.932     0.001      0.093      0.005      1.329      0.001      0.012      0.001      0.001      0.334      0.002      23.816     23.913     8.709      -0.007     0.046      0.123      2.955      3.365      0.110      0.066      0.120      0.101      1.987      8.662      2.515      19.459     5312.325  
5336.819   8.500      76.922     0.001      0.099      0.005      1.267      0.001      0.014      0.001      0.001      0.331      0.001      23.862     23.960     8.710      -0.006     0.061      0.122      2.863      3.044      0.095      0.063      0.107      0.100      1.973      10.698     2.521      24.030     5312.478  
5336.972   8.500      74.642     0.001      0.105      0.005      1.148      0.002      0.014      0.001      0.001      0.324      0.001      23.754     23.849     8.709      -0.004     0.075      0.123      2.754      2.552      0.082      0.058      0.087      0.101      2.043      13.338     2.528      30.103     5312.630  
5337.124   8.500      74.353     0.001      0.108      0.004      1.027      0.003      0.013      0.001      0.001      0.317      0.001      23.251     23.337     8.709      -0.002     0.087      0.121      2.641      1.679      0.075      0.052      0.076      0.100      2.183      16.244     2.538      36.875     5312.783  
5337.277   8.500      76.420     0.001      0.108      0.003      0.989      0.003      0.014      0.001      0.001      0.314      0.001      22.393     22.472     8.709      0.001      0.093      0.121      2.543      0.876      0.077      0.047      0.078      0.097      2.310      19.063     2.546      43.371     5312.935  
5337.429   8.500      80.213     0.001      0.104      0.002      1.000      0.001      0.019      0.001      0.001      0.313      0.002      21.771     21.852     8.710      0.002      0.091      0.123      2.490      0.506      0.086      0.042      0.087      0.090      2.344      21.396     2.552      48.520     5313.087  
5337.581   8.500      84.553     0.001      0.097      0.001      0.982      0.001      0.026      0.001      0.001      0.311      0.002      21.680     21.767     8.710      0.003      0.085      0.126      2.476      0.324      0.090      0.037      0.098      0.086      2.294      22.788     2.560      51.568     5313.240  
5337.734   8.500      88.170     0.001      0.091      0.001      0.927      0.001      0.030      0.001      0.001      0.309      0.002      21.890     21.979     8.709      0.001      0.078      0.127      2.481      0.238      0.083      0.034      0.087      0.087      2.211      23.112     2.567      52.490     5313.392  
5337.886   8.500      90.003     0.001      0.088      0.000      0.841      0.001      0.031      0.001      0.001      0.306      0.002      22.416     22.508     8.710      -0.002     0.070      0.127      2.506      0.279      0.079      0.036      0.079      0.090      2.099      22.653     2.570      51.978     5313.544  
5338.039   8.500      89.571     0.001      0.087      0.000      0.732      0.001      0.029      0.001      0.001      0.304      0.002      22.793     22.886     8.709      -0.004     0.064      0.126      2.541      0.425      0.084      0.040      0.085      0.092      1.992      21.758     2.566      50.553     5313.697  
5338.191   8.500      87.295     0.001      0.088      0.001      0.642      0.001      0.027      0.001      0.001      0.303      0.002      22.345     22.435     8.709      -0.004     0.059      0.126      2.579      0.524      0.094      0.042      0.098      0.093      1.956      20.913     2.560      48.969     5313.849  
5338.343   8.500      84.472     0.001      0.089      0.001      0.600      0.001      0.025      0.001      0.001      0.304      0.002      21.472     21.560     8.709      -0.003     0.054      0.129      2.624      0.461      0.094      0.041      0.109      0.093      1.975      20.537     2.554      48.137     5314.002  
5338.496   8.500      82.715     0.001      0.091      0.002      0.597      0.001      0.022      0.001      0.001      0.306      0.002      21.210     21.301     8.709      -0.003     0.051      0.138      2.651      0.614      0.089      0.044      0.109      0.092      1.978      20.684     2.554      48.400     5314.154  
5338.648   8.500      82.890     0.001      0.092      0.004      0.623      0.001      0.020      0.001      0.001      0.310      0.002      21.590     21.687     8.709      -0.002     0.053      0.155      2.634      1.041      0.086      0.050      0.103      0.090      1.964      21.296     2.558      49.810     5314.306  
5338.801   8.500      84.383     0.001      0.094      0.005      0.679      0.001      0.018      0.001      0.001      0.317      0.002      21.848     21.942     8.710      -0.003     0.057      0.174      2.582      1.368      0.086      0.053      0.092      0.087      1.956      22.223     2.560      51.963     5314.459  
5338.953   8.500      85.553     0.001      0.097      0.006      0.746      0.001      0.016      0.001      0.001      0.325      0.002      21.590     21.678     8.711      -0.004     0.062      0.191      2.510      0.876      0.078      0.047      0.079      0.087      1.941      23.006     2.556      53.670     5314.611  
5339.105   8.500      84.987     0.001      0.098      0.006      0.782      0.001      0.013      0.001      0.001      0.331      0.001      21.180     21.266     8.711      -0.005     0.068      0.210      2.427      0.504      0.068      0.041      0.072      0.089      1.949      23.305     2.553      54.097     5314.763  
5339.258   8.500      82.548     0.001      0.099      0.005      0.743      0.001      0.009      0.001      0.001      0.337      0.001      20.897     20.985     8.711      -0.005     0.071      0.219      2.364      0.572      0.060      0.041      0.071      0.089      2.000      23.394     2.555      53.836     5314.916  
5339.410   8.500      79.359     0.001      0.098      0.004      0.621      0.001      0.006      0.001      0.001      0.342      0.000      20.786     20.872     8.710      -0.005     0.069      0.211      2.352      1.269      0.057      0.044      0.069      0.087      2.044      24.008     2.558      54.520     5315.068  
5339.563   8.500      76.772     0.001      0.097      0.004      0.474      0.001      0.005      0.001      0.001      0.345      0.000      20.677     20.761     8.711      -0.006     0.064      0.199      2.379      1.754      0.060      0.047      0.068      0.089      2.044      25.568     2.554      57.038     5315.221  
5339.715   8.500      75.365     0.001      0.096      0.004      0.377      0.001      0.004      0.001      0.001      0.348      0.000      20.548     20.630     8.710      -0.008     0.056      0.189      2.441      0.752      0.077      0.046      0.081      0.092      2.019      27.849     2.545      60.886     5315.373  
