~Version
 VERS              .         2.0                           : CWLS LOG ASCII STANDARD - VERSION 2.0
 WRAP              .         NO                            : ONE LINE PER DEPTH STEP
 DLM               .         SPACE                         : DELIMITING CHARACTER(SPACE TAB OR COMMA)
~Well Information
#_______________________________________________________________________________
#
#PARAMETER_NAME    .UNIT     VALUE                         : DESCRIPTION
#_______________________________________________________________________________
STRT               .M        5159.045                      : First reference value
STOP               .M        5591.861                      : Last reference value
STEP               .M        0.152                         : Step increment
NULL               .         -9999                         : Missing value
COMP               .         PETROBRAS                     : Company
WELL               .         8-SPH-19D-SPS                 : Well name
FLD                .         SAPINHOA                      : Field
LOC                .                                       : Location
PROV               .                                       : Province
SRVC               .                                       : Service Company
DATE               .         2020-11-17 00_10_26           : Date
UWI                .         8SPH0019DSPS                  : Unique Well ID
APD                .M        26                            : Above Permanent Datum
API                .                                       : API NUMBER
BHT                .degF     150                           : Bottom Hole Temperature
BLI                .M        5581.8                        : Bottom Log Interval
BS                 .in       12.25                         : Bit Size
CNTY               .                                       : County
CTRY               .         BRASIL                        : Nation
DCS                .         04/08/2015                    : Date Ciculation Stopped
DFD                .lbm/gal  9.5                           : Drilling Fluid Density
DFT                .         NAO AQUOSO (BASE OLEFINA)     : Drilling Fluid Type
DLAB               .         05/08/2015                    : Date Logger At Bottom
EDF                .M        26                            : Elevation of Derreck Floor
EGL                .M        -2132                         : Elevation of Ground Level
EKB                .M        -999.25                       : Elevation of Kelly Bushing
EPD                .M        0                             : Elevation Of Permanent Datum
GDAT               .         SIRGAS2000                    : Geodetic Datum
LMF                .         MR                            : Log Measured From
LATI               .         -25_46_45.710                 : Latitude
LONG               .         -43_12_21,306                 : Longitude
MCST               .degF     -999.25                       : Mud Cake Sample Temperature
MFST               .degF     -999.25                       : Mud Filtrate Sample Temperature
MRT                .degF     150                           : Maximum Recorded Temperature
MST                .degF     -999.25                       : Mud Sample Temperature
ORIGINALWELLNAME   .         8-sph-19d-sps_petrobras       : 
PDAT               .         NM                            : Permanent Datum
PRODUCER-CODE      .         150                           : 
PRODUCER-NAME      .         ATLAS                         : 
RMB                .ohm.m    -999.25                       : Resistivity Of Mud - BHT
RMCS               .ohm.m    -999.25                       : Resistivity Of Mud Cake Sample
RMFS               .ohm.m    -999.25                       : Mud Filtrate Sample Resistivity
RMS                .ohm.m    -999.25                       : Mud Sample Resistivity
RUN                .         2                             : Run Number
STAT               .         SAO PAULO                     : State
TCS                .h        02_00                         : Time Ciculation Stopped
TDD                .M        5583                          : Total Depht - Driller
TDL                .M        5585.4                        : Total Depht - Logger
TLAB               .h        18_45                         : Time Logger At Bottom
TLI                .M        5200                          : Top Log Interval
X                  .M        679908.00000000               : Surface X
Y                  .M        7148113.00000000              : Surface Y
~Parameter Information Block
#_______________________________________________________________________________
#
#PARAMETER_NAME    .UNIT     VALUE                         : DESCRIPTION
#_______________________________________________________________________________
SET                .         BASE                          : 
TLFamily_BS        .         Bit Size                      : 
TLFamily_DT        .         Compressional Slowness        : 
TLFamily_DWAL      .         Aluminum Weight Fraction      : 
TLFamily_DWCA      .         Calcium Weight Fraction       : 
TLFamily_DWFE      .         Iron Weight Fraction          : 
TLFamily_DWGD      .         Gadolinium Weight Fraction    : 
TLFamily_DWK       .         Potassium Weight Fraction     : 
TLFamily_DWMG      .         Magnesium Weight Fraction     : 
TLFamily_DWMN      .         Manganese Weight Fraction     : 
TLFamily_DWS       .         Sulfur Weight Fraction        : 
TLFamily_DWSI      .         Silicon Weight Fraction       : 
TLFamily_DWTI      .         Titanium Weight Fraction      : 
TLFamily_GR        .         Gamma Ray                     : 
TLFamily_GRt       .         Gamma Ray                     : 
TLFamily_HCAL      .         Caliper                       : 
TLFamily_HDRA      .         Bulk Density Correction       : 
TLFamily_HFK       .         Potassium Concentration       : 
TLFamily_HTHO      .         Thorium Concentration         : 
TLFamily_HURA      .         Uranium Concentration         : 
TLFamily_MD        .         Measured Depth                : 
TLFamily_MPERM     .         NMR Permeability              : 
TLFamily_NMRE_Final .         NMR Bound Fluid Volume Fraction: 
TLFamily_NMRFL_Final .         NMR Free Fluids               : 
TLFamily_NMRT_Final .         NMR Porosity                  : 
TLFamily_NPHI      .         Neutron Porosity              : 
TLFamily_PE        .         Photoelectric Factor          : 
TLFamily_RD        .         Resistivity - Deep            : 
TLFamily_RHOB      .         Bulk Density                  : 
TLFamily_RM        .         Resistivity - Medium          : 
TLFamily_RS        .         Resistivity - Shallow         : 
TLFamily_TVDSS     .         True Vertical Depth Sub Sea   : 
~Curve Information
#_______________________________________________________________________________
#
#LOGNAME           .UNIT     LOG_ID                        : DESCRIPTION
#_______________________________________________________________________________
DEPTH              .M                                      :  
BS                 .in                                     :  
DT                 .us/ft                                  : SONICO COMPRESSIONAL (COMPOSICAO DE CURVAS CABO E/OU LWD) 
DWAL               .kg/kg                                  :  
DWCA               .kg/kg                                  :  
DWFE               .kg/kg                                  :  
DWGD               .ppm                                    :  
DWK                .kg/kg                                  :  
DWMG               .kg/kg                                  :  
DWMN               .kg/kg                                  :  
DWS                .kg/kg                                  :  
DWSI               .kg/kg                                  :  
DWTI               .kg/kg                                  :  
GR                 .gAPI                                   :  
GRt                .gAPI                                   :  
HCAL               .in                                     : CALIPER (COMPOSICAO DE CURVAS CABO E/OU LWD) 
HDRA               .g/cm3                                  : Density Delta Rho Filtered 
HFK                .%                                      :  
HTHO               .ppm                                    :  
HURA               .ppm                                    :  
MPERM              .mD                                     :  
NMRE_Final         .m3/m3                                  :  
NMRFL_Final        .unitless                               :  
NMRT_Final         .frac                                   :  
NPHI               .frac                                   : Neutron Porosity Limestone Filtered 
PE                 .b/e                                    : Density PE Filtered 
RD                 .ohm.m                                  : Vertical 2-foot resolution matched resistivity, 90-inch DOI 
RHOB               .g/cm3                                  : Bulk Density Filtered 
RM                 .ohm.m                                  : Vertical 2-foot resolution matched resistivity, 30-inch DOI 
RS                 .ohm.m                                  : Vertical 2-foot resolution matched resistivity, 10-inch DOI 
TVDSS              .M                                      :  
~Ascii
# ...
5404.104   12.250     76.201     0.012      0.221      0.004      3.788      0.003      0.035      0.001      0.001      0.094      0.007      31.734     31.912     12.386     0.088      0.204      2.134      3.200      0.119      0.107      0.025      0.141      0.281      6.210      2.942      2.459      3.024      3.300      5232.743  
5404.256   12.250     76.044     0.012      0.227      0.004      3.419      0.006      0.034      0.001      0.001      0.097      0.007      31.257     31.436     12.384     0.089      0.221      2.151      3.009      0.235      0.124      0.030      0.154      0.275      6.157      3.016      2.458      3.094      3.322      5232.885  
5404.409   12.250     75.689     0.011      0.226      0.005      3.161      0.008      0.041      0.001      0.001      0.102      0.007      30.655     30.830     12.379     0.091      0.232      2.067      2.885      0.334      0.143      0.032      0.167      0.269      6.111      3.085      2.462      3.159      3.355      5233.027  
5404.561   12.250     75.169     0.011      0.214      0.004      3.114      0.008      0.058      0.001      0.001      0.108      0.006      30.102     30.270     12.367     0.093      0.230      1.893      2.836      0.215      0.143      0.026      0.169      0.275      6.109      3.138      2.467      3.208      3.393      5233.169  
5404.714   12.250     75.033     0.010      0.197      0.003      3.219      0.006      0.077      0.001      0.001      0.115      0.005      29.726     29.887     12.357     0.093      0.226      1.696      2.790      0.082      0.132      0.019      0.161      0.285      6.097      3.115      2.468      3.179      3.364      5233.311  
5404.866   12.250     75.329     0.009      0.185      0.002      3.360      0.005      0.089      0.001      0.001      0.120      0.005      29.128     29.283     12.346     0.091      0.222      1.532      2.718      0.059      0.129      0.016      0.155      0.287      6.053      3.020      2.466      3.076      3.269      5233.453  
5405.018   12.250     75.588     0.008      0.181      0.001      3.466      0.004      0.096      0.001      0.001      0.120      0.004      28.389     28.537     12.342     0.091      0.213      1.413      2.652      0.072      0.134      0.017      0.161      0.284      6.020      2.941      2.466      2.991      3.199      5233.595  
5405.171   12.250     75.585     0.008      0.182      0.001      3.522      0.003      0.101      0.001      0.001      0.114      0.004      28.209     28.365     12.328     0.089      0.204      1.321      2.617      0.064      0.136      0.016      0.163      0.282      5.974      2.935      2.474      2.980      3.211      5233.737  
5405.323   12.250     75.583     0.007      0.186      0.001      3.547      0.002      0.103      0.001      0.001      0.106      0.004      28.416     28.590     12.315     0.086      0.202      1.275      2.595      0.038      0.134      0.013      0.158      0.282      5.874      3.006      2.480      3.050      3.307      5233.879  
5405.476   12.250     75.733     0.007      0.193      0.002      3.566      0.001      0.101      0.001      0.001      0.101      0.003      28.347     28.526     12.302     0.082      0.204      1.271      2.590      0.019      0.119      0.011      0.150      0.278      5.740      3.140      2.480      3.183      3.469      5234.021  
5405.628   12.250     76.030     0.007      0.201      0.003      3.558      0.001      0.096      0.001      0.001      0.103      0.003      28.292     28.455     12.302     0.079      0.207      1.260      2.637      0.016      0.102      0.011      0.141      0.272      5.662      3.308      2.479      3.351      3.663      5234.163  
5405.780   12.250     76.222     0.007      0.205      0.004      3.512      0.002      0.093      0.001      0.001      0.110      0.003      29.167     29.327     12.305     0.078      0.212      1.237      2.734      0.024      0.103      0.013      0.140      0.272      5.693      3.429      2.476      3.468      3.789      5234.305  
5405.933   12.250     76.274     0.007      0.205      0.003      3.488      0.004      0.090      0.001      0.001      0.118      0.004      30.774     30.953     12.309     0.077      0.217      1.223      2.833      0.035      0.108      0.015      0.148      0.276      5.730      3.409      2.469      3.441      3.738      5234.447  
5406.085   12.250     76.112     0.007      0.202      0.002      3.536      0.005      0.088      0.001      0.001      0.123      0.005      31.544     31.725     12.320     0.075      0.216      1.207      2.893      0.042      0.107      0.016      0.150      0.285      5.779      3.296      2.454      3.320      3.578      5234.589  
5406.238   12.250     75.849     0.007      0.200      0.002      3.579      0.007      0.088      0.001      0.001      0.124      0.006      30.606     30.774     12.327     0.076      0.209      1.162      2.920      0.040      0.112      0.015      0.149      0.300      5.866      3.193      2.435      3.209      3.434      5234.731  
5406.390   12.250     75.612     0.006      0.198      0.001      3.502      0.009      0.092      0.001      0.001      0.119      0.006      28.844     29.010     12.329     0.078      0.198      1.082      2.913      0.039      0.122      0.014      0.159      0.309      5.922      3.078      2.422      3.085      3.282      5234.873  
5406.542   12.250     75.432     0.006      0.197      0.001      3.351      0.012      0.099      0.001      0.001      0.112      0.007      27.312     27.484     12.361     0.082      0.188      1.022      2.837      0.047      0.139      0.014      0.176      0.316      5.959      2.946      2.411      2.944      3.118      5235.015  
5406.695   12.250     75.346     0.006      0.196      0.001      3.288      0.012      0.104      0.001      0.001      0.106      0.007      26.008     26.168     12.371     0.086      0.181      1.012      2.693      0.057      0.150      0.014      0.182      0.324      6.008      2.906      2.401      2.895      3.061      5235.157  
5406.847   12.250     75.353     0.006      0.198      0.001      3.396      0.010      0.104      0.001      0.001      0.101      0.008      24.565     24.697     12.418     0.093      0.178      1.061      2.496      0.067      0.148      0.016      0.179      0.331      6.141      3.031      2.393      3.008      3.188      5235.299  
5407.000   12.250     75.452     0.007      0.201      0.002      3.623      0.006      0.103      0.001      0.001      0.096      0.008      23.129     23.245     12.425     0.100      0.177      1.194      2.265      0.134      0.145      0.022      0.180      0.337      6.316      3.286      2.387      3.245      3.455      5235.441  
5407.152   12.250     75.428     0.008      0.202      0.003      3.875      0.003      0.103      0.001      0.001      0.092      0.008      22.060     22.181     12.457     0.105      0.178      1.379      2.048      0.358      0.148      0.032      0.182      0.340      6.421      3.578      2.386      3.514      3.756      5235.583  
5407.304   12.250     75.355     0.009      0.197      0.004      4.097      0.001      0.105      0.001      0.001      0.090      0.007      21.404     21.536     12.485     0.107      0.182      1.550      1.882      0.445      0.153      0.034      0.179      0.342      6.454      3.880      2.384      3.791      4.071      5235.725  
5407.457   12.250     75.792     0.009      0.189      0.004      4.277      0.001      0.105      0.001      0.001      0.092      0.007      20.986     21.125     12.508     0.108      0.188      1.687      1.757      0.295      0.157      0.028      0.179      0.339      6.421      4.261      2.377      4.143      4.475      5235.867  
5407.609   12.250     76.481     0.010      0.185      0.004      4.415      0.001      0.105      0.001      0.001      0.096      0.007      20.582     20.724     12.528     0.109      0.192      1.792      1.648      0.339      0.167      0.029      0.189      0.330      6.371      4.761      2.372      4.607      5.012      5236.009  
