~Version
 VERS              .         2.0                           : CWLS LOG ASCII STANDARD - VERSION 2.0
 WRAP              .         NO                            : ONE LINE PER DEPTH STEP
 DLM               .         SPACE                         : DELIMITING CHARACTER(SPACE TAB OR COMMA)
~Well Information
#_______________________________________________________________________________
#
#PARAMETER_NAME    .UNIT     VALUE                         : DESCRIPTION
#_______________________________________________________________________________
STRT               .M        2228.000                      : First reference value
STOP               .M        5446.688                      : Last reference value
STEP               .M        0.152                         : Step increment
NULL               .         -9999                         : Missing value
COMP               .         Petrobras                     : Company
WELL               .         8-SPH-13-SPS                  : Well name
FLD                .         Sapinhoa                      : Field
LOC                .                                       : Location
CNTY               .                                       : County
STAT               .         SAO PAULO                     : State
CTRY               .         BRASIL                        : Country
SRVC               .                                       : Service Company
DATE               .                                       : Date
API                .         863160035500                  : API number
APD                .M        24                            : Above Permanent Datum
BHT                .degF     120                           : Bottom Hole Temperature
BLI                .M        5180.5                        : Bottom Log Interval
BS                 .in       12.25x14.75                   : Bit Size
DCS                .         07/04/2014                    : Date Ciculation Stopped
DFD                .lbm/gal  10.1                          : Drilling Fluid Density
DFT                .         BR-MUL                        : Drilling Fluid Type
DLAB               .         08/04/2014                    : Date Logger At Bottom
EDF                .M        24                            : Elevation of Derreck Floor
EGL                .M        -2119                         : Elevation of Ground Level
EKB                .M        -999.25                       : ELEVATION OF KELLY BUSHING
EPD                .M        0                             : Elevation Of Permanent Datum
GDAT               .         SIRGAS2000                    : Geodetic Datum
LMF                .         MR                            : Log Measured From
LUL                .         MCE                           : LOGGING UNIT LOCATION
LUN                .         -999.25                       : LOGGING UNIT NUMBER
LATI               .         -25_42_39.196                 : Latitude
LONG               .         -43_09_15.905                 : Longitude
MCST               .degF     -999.25                       : Mud Cake Sample Temperature
MFST               .degF     -999.25                       : Mud Filtrate Sample Temperature
MRT                .degF     120                           : Maximum Recorded Temperature
MST                .degF     -999.25                       : Mud Sample Temperature
ORIGINALWELLNAME   .         8SPH 0013  SPS                : 
PDAT               .         NM                            : Permanent Datum
PRODUCER-CODE      .         15                            : 
PRODUCER-NAME      .         INTEQ                         : 
RMB                .ohm.m    -999.25                       : RESISTIVITY OF MUD - BHT
RMCS               .ohm.m    -999.25                       : Resistivity Of Mud Cake Sample
RMFS               .ohm.m    -999.25                       : Mud Filtrate Sample Resistivity
RMS                .ohm.m    -999.25                       : Mud Sample Resistivity
RUN                .         1                             : Run
TCS                .h        15_00                         : Time Ciculation Stopped
TDD                .M        5184                          : Total Depht - Driller
TDL                .M        5184                          : Total Depht - Logger
TLAB               .h        11_00                         : Time Logger At Bottom
TLI                .M        3543                          : Top Log Interval
X                  .M        685128.30900000               : X COORDINATE N
Y                  .M        7155027.01100000              : Y COORDINATE E
~Parameter Information Block
#_______________________________________________________________________________
#
#PARAMETER_NAME    .UNIT     VALUE                         : DESCRIPTION
#_______________________________________________________________________________
SET                .         BASE                          : 
TLFamily_DT        .         Compressional Slowness        : 
TLFamily_GR        .         Gamma Ray                     : 
TLFamily_HCAL      .         Caliper                       : 
TLFamily_MD        .         Measured Depth                : 
TLFamily_NMRE_Final .         NMR Bound Fluid Volume Fraction: 
TLFamily_NMRFL_Final .         NMR Free Fluids               : 
TLFamily_NMRT_Final .         NMR Porosity                  : 
TLFamily_NPHI      .         Neutron Porosity              : 
TLFamily_RD        .         Resistivity - Deep            : 
TLFamily_RHOB      .         Bulk Density                  : 
TLFamily_RM        .         Resistivity - Medium          : 
TLFamily_RS        .         Resistivity - Shallow         : 
~Curve Information
#_______________________________________________________________________________
#
#LOGNAME           .UNIT     LOG_ID                        : DESCRIPTION
#_______________________________________________________________________________
DEPTH              .M                                      :  
DT                 .us/ft                                  : SONICO COMPRESSIONAL (COMPOSICAO DE CURVAS CABO E/OU LWD) 
GR                 .gAPI                                   : RAIOS GAMA (COMPOSICAO DE CURVAS CABO E/OU LWD) 
HCAL               .in                                     : CALIPER (COMPOSICAO DE CURVAS CABO E/OU LWD) 
NMRE_Final         .m3/m3                                  : 03/02 - MRIL (HALLIBURTON) - MRIL EFFECTIVE POROSITY 
NMRFL_Final        .unitless                               : 03/02 - MRIL (HALLIBURTON) - FREE FLUID INDEX T2 
NMRT_Final         .frac                                   : 03/02 - MRIL (HALLIBURTON) - MRIAN MRIL TOTAL POROSITY 
NPHI               .frac                                   : POROSIDADE NEUTRONICA (COMPOSICAO DE CURVAS CABO E/OU LWD) 
RD                 .ohm.m                                  : RESISTIVIDADE PROFUNDA (COMPOSICAO DE CURVAS CABO E/OU LWD) 
RHOB               .g/cm3                                  : DENSIDADE (COMPOSICAO DE CURVAS CABO E/OU LWD ) 
RM                 .ohm.m                                  : RESISTIVIDADE MEDIA (COMPOSICAO DE CURVAS CABO E/OU LWD) 
RS                 .ohm.m                                  : RESISTIVIDADE RASA (COMPOSICAO DE CURVAS CABO E/OU LWD) 
~Ascii
# ...
4431.247   69.157     7.029      14.670     -9999.000  -9999.000  -9999.000  -0.031     1355.891   2.064      1474.790   1474.790  
4431.399   69.129     6.452      14.672     -9999.000  -9999.000  -9999.000  -0.031     1342.384   2.066      1424.401   1424.401  
4431.552   68.825     5.808      14.673     -9999.000  -9999.000  -9999.000  -0.031     1353.608   2.065      1544.886   1544.886  
4431.704   68.585     5.353      14.672     -9999.000  -9999.000  -9999.000  -0.031     1386.496   2.060      1474.027   1474.027  
4431.856   68.563     5.208      14.670     -9999.000  -9999.000  -9999.000  -0.032     1405.181   2.055      1354.229   1354.229  
4432.009   68.334     5.505      14.670     -9999.000  -9999.000  -9999.000  -0.031     1426.303   2.053      1354.229   1354.229  
4432.161   68.026     5.602      14.671     -9999.000  -9999.000  -9999.000  -0.031     1435.295   2.052      1354.229   1354.229  
4432.314   67.921     5.498      14.673     -9999.000  -9999.000  -9999.000  -0.031     1439.000   2.046      1354.229   1354.229  
4432.466   68.048     5.715      14.674     -9999.000  -9999.000  -9999.000  -0.032     1424.109   2.042      1298.343   1298.343  
4432.618   68.291     5.454      14.671     -9999.000  -9999.000  -9999.000  -0.031     1407.645   2.045      1332.724   1332.724  
4432.771   68.104     4.767      14.668     -9999.000  -9999.000  -9999.000  -0.031     1394.822   2.048      1473.492   1473.492  
4432.923   67.766     4.374      14.667     -9999.000  -9999.000  -9999.000  -0.031     1404.093   2.048      1354.229   1354.229  
4433.076   67.583     4.334      14.666     -9999.000  -9999.000  -9999.000  -0.032     1438.533   2.042      1426.386   1426.386  
4433.228   67.520     4.835      14.666     -9999.000  -9999.000  -9999.000  -0.032     1470.741   2.036      1640.475   1640.475  
4433.380   67.524     5.308      14.668     -9999.000  -9999.000  -9999.000  -0.031     1516.810   2.038      1572.947   1572.947  
4433.533   67.584     4.870      14.668     -9999.000  -9999.000  -9999.000  -0.031     1538.801   2.044      1334.625   1334.625  
4433.685   67.718     4.690      14.667     -9999.000  -9999.000  -9999.000  -0.031     1543.474   2.045      1472.500   1472.500  
4433.838   67.919     4.787      14.665     -9999.000  -9999.000  -9999.000  -0.031     1528.857   2.040      1426.692   1426.692  
4433.990   68.170     4.579      14.663     -9999.000  -9999.000  -9999.000  -0.030     1491.409   2.036      1472.347   1472.347  
4434.142   68.100     4.970      14.661     -9999.000  -9999.000  -9999.000  -0.030     1458.678   2.036      1426.844   1426.844  
4434.295   67.920     6.054      14.661     -9999.000  -9999.000  -9999.000  -0.031     1422.859   2.037      1544.886   1544.886  
4434.447   67.862     6.132      14.663     -9999.000  -9999.000  -9999.000  -0.031     1413.036   2.040      1414.433   1414.433  
4434.600   67.933     5.261      14.663     -9999.000  -9999.000  -9999.000  -0.031     1422.441   2.043      1433.731   1433.731  
4434.752   68.086     4.821      14.661     -9999.000  -9999.000  -9999.000  -0.031     1429.556   2.043      1699.882   1699.882  
4434.904   68.034     4.924      14.663     -9999.000  -9999.000  -9999.000  -0.031     1430.943   2.041      1544.886   1544.886  
4435.057   67.911     5.024      14.664     -9999.000  -9999.000  -9999.000  -0.030     1431.982   2.043      1412.804   1412.804  
4435.209   67.872     4.760      14.663     -9999.000  -9999.000  -9999.000  -0.031     1444.671   2.046      1338.154   1338.154  
4435.362   67.969     4.618      14.663     -9999.000  -9999.000  -9999.000  -0.031     1459.388   2.046      1471.049   1471.049  
4435.514   68.182     4.917      14.662     -9999.000  -9999.000  -9999.000  -0.030     1474.120   2.042      1354.229   1354.229  
4435.666   68.208     5.904      14.664     -9999.000  -9999.000  -9999.000  -0.030     1480.353   2.039      1525.955   1525.955  
4435.819   67.971     6.285      14.666     -9999.000  -9999.000  -9999.000  -0.031     1467.687   2.038      1565.843   1565.843  
4435.971   67.794     6.052      14.665     -9999.000  -9999.000  -9999.000  -0.031     1438.571   2.039      1264.020   1264.020  
4436.124   67.759     5.468      14.667     -9999.000  -9999.000  -9999.000  -0.031     1424.990   2.040      1354.229   1354.229  
4436.276   67.820     4.465      14.668     -9999.000  -9999.000  -9999.000  -0.031     1412.857   2.040      1429.059   1429.059  
4436.428   68.002     4.143      14.669     -9999.000  -9999.000  -9999.000  -0.031     1405.059   2.043      1544.886   1544.886  
4436.581   68.073     4.747      14.670     -9999.000  -9999.000  -9999.000  -0.031     1398.233   2.048      1544.886   1544.886  
4436.733   67.886     4.780      14.671     -9999.000  -9999.000  -9999.000  -0.031     1401.387   2.050      1544.886   1544.886  
4436.886   67.685     4.741      14.670     -9999.000  -9999.000  -9999.000  -0.031     1413.355   2.048      1544.886   1544.886  
4437.038   67.577     5.633      14.667     -9999.000  -9999.000  -9999.000  -0.031     1425.406   2.045      1544.886   1544.886  
4437.190   67.501     6.314      14.667     -9999.000  -9999.000  -9999.000  -0.031     1443.373   2.040      1469.598   1469.598  
4437.343   67.486     5.648      14.667     -9999.000  -9999.000  -9999.000  -0.031     1453.829   2.031      1430.204   1430.204  
4437.495   67.528     4.887      14.665     -9999.000  -9999.000  -9999.000  -0.030     1459.884   2.025      1544.886   1544.886  
4437.648   67.597     4.907      14.662     -9999.000  -9999.000  -9999.000  -0.030     1457.290   2.026      1468.835   1468.835  
4437.800   67.724     5.170      14.662     -9999.000  -9999.000  -9999.000  -0.030     1442.183   2.034      1354.229   1354.229  
4437.952   67.957     5.362      14.662     -9999.000  -9999.000  -9999.000  -0.031     1425.010   2.044      1429.822   1429.822  
4438.105   68.273     6.866      14.662     -9999.000  -9999.000  -9999.000  -0.031     1393.743   2.047      1544.886   1544.886  
4438.257   68.190     7.409      14.661     -9999.000  -9999.000  -9999.000  -0.031     1376.550   2.043      1544.886   1544.886  
4438.410   67.984     6.521      14.660     -9999.000  -9999.000  -9999.000  -0.031     1367.339   2.037      1361.312   1361.312  
4438.562   68.000     6.229      14.661     -9999.000  -9999.000  -9999.000  -0.032     1372.912   2.036      1194.222   1194.222  
4438.714   68.175     6.005      14.663     -9999.000  -9999.000  -9999.000  -0.032     1381.750   2.038      1431.426   1431.426  
4438.867   68.409     4.758      14.663     -9999.000  -9999.000  -9999.000  -0.031     1399.956   2.045      1407.510   1407.510  
4439.019   68.401     4.620      14.661     -9999.000  -9999.000  -9999.000  -0.031     1416.471   2.058      1342.362   1342.362  
4439.172   68.429     5.148      14.662     -9999.000  -9999.000  -9999.000  -0.030     1446.994   2.070      1468.071   1468.071  
4439.324   68.226     5.230      14.662     -9999.000  -9999.000  -9999.000  -0.031     1459.201   2.079      1431.120   1431.120  
4439.476   67.925     4.801      14.662     -9999.000  -9999.000  -9999.000  -0.031     1453.248   2.085      1467.308   1467.308  
4439.629   67.732     4.485      14.661     -9999.000  -9999.000  -9999.000  -0.031     1440.048   2.091      1293.889   1293.889  
4439.781   67.686     5.454      14.663     -9999.000  -9999.000  -9999.000  -0.030     1422.526   2.087      1266.337   1266.337  
4439.934   67.778     5.438      14.665     -9999.000  -9999.000  -9999.000  -0.030     1413.935   2.078      1354.229   1354.229  
4440.086   68.101     4.767      14.663     -9999.000  -9999.000  -9999.000  -0.030     1401.513   2.072      1432.037   1432.037  
4440.238   68.248     4.729      14.663     -9999.000  -9999.000  -9999.000  -0.030     1398.603   2.066      1405.338   1405.338  
4440.391   67.975     5.463      14.662     -9999.000  -9999.000  -9999.000  -0.030     1416.809   2.054      1345.620   1345.620  
