~Version
 VERS              .         2.0                           : CWLS LOG ASCII STANDARD - VERSION 2.0
 WRAP              .         NO                            : ONE LINE PER DEPTH STEP
 DLM               .         SPACE                         : DELIMITING CHARACTER(SPACE TAB OR COMMA)
~Well Information
#_______________________________________________________________________________
#
#PARAMETER_NAME    .UNIT     VALUE                         : DESCRIPTION
#_______________________________________________________________________________
STRT               .M        5060.036                      : First reference value
STOP               .M        5304.790                      : Last reference value
STEP               .M        0.152                         : Step increment
NULL               .         -9999                         : Missing value
COMP               .         PETROBRAS                     : Company
WELL               .         8-SPH-11-SPS                  : Well name
FLD                .         SAPINHOA                      : Field
LOC                .                                       : Location
PROV               .                                       : Province
SRVC               .                                       : Service Company
DATE               .         23/09/2015                    : Date
UWI                .         8-SPH-11-SPS                  : Unique Well ID
APD                .M        24                            : Elevation of Depth Reference (LMF) Above Permanent Datum
API                .                                       : API NUMBER
BHS                .         OPEN                          : Borehole Status (Open or Cased Hole)
BHT                .degF     135                           : Bottom Hole Temperature
BLI                .M        5299.5                        : Bottom Log Interval
BS                 .in       12.25                         : Bit Size
CBDR               .M        5086                          : Casing Bottom (Driller)
CBLO               .M        5084                          : Casing Bottom (Logger)
CSIZ               .in       14                            : Casing Outer Diameter
CWEI               .lbm/ft   115                           : Casing Weight
CTRY               .         BRASIL                        : Nation
DCS                .         22/09/2015                    : Date Circulation Stopped
DFD                .lb/gal   9.7                           : Drilling Fluid Density
DFT                .         Cationico Flex Drill(Base Agua): Drilling Fluid Type
DLAB               .         23/09/2015                    : Date Logging on Bottom
EDF                .M        24                            : Elevation of Drill Floor
EGL                .M        -2165                         : Elevation of Ground Level
EKB                .M        24                            : Elevation of Kelly Bushing
EPD                .M        0                             : Elevation of Permanent Datum (PDAT) above Mean Sea Level
LMF                .         MR                            : Logging Measured From (Name of Logging Elevation Reference)
LUL                .          BRMA                         : Logging Unit Location
LUN                .         OSU-PA 7032                   : Logging Unit Number
LONG               .         -43_13_56,159                 : Longitude
MCST               .degF     77.1                          : Mudcake Sample Temperature
MFST               .degF     78.3                          : Mud Filtrate Sample Temperature
MRT                .degF     135                           : Maximum Recorded Temperature
MST                .degF     77.9                          : Mud Sample Temperature
ORIGINALWELLNAME   .         P09                           : 
PDAT               .         NM                            : Permanent Datum
PRODUCER-CODE      .         440                           : 
PRODUCER-NAME      .         Schlumberger                  : 
RMB                .ohm.m    0.0430009                     : Resistivity of Mud at Bottom Hole Temperature
RMCS               .ohm.m    0.08                          : Resistivity of Mud Cake Sample
RMFS               .ohm.m    0.062                         : Resistivity of Mud Filtrate Sample
RMS                .ohm.m    0.072                         : Resistivity of Mud Sample
RUN                .         3                             : Run Number
STAT               .         SAO PAULO                     : State or Province
TCS                .h        10_30                         : Time Circulation Stopped
TDD                .M        5301                          : Total Depth (Driller)
TDL                .M        5301.5                        : Logger Total Depth
TLAB               .h        23_45                         : Time Logging on Bottom
TLI                .M        5084                          : Top Log Interval
X                  .M        677112.00000000               : 
Y                  .M        7136745.00000000              : 
~Parameter Information Block
#_______________________________________________________________________________
#
#PARAMETER_NAME    .UNIT     VALUE                         : DESCRIPTION
#_______________________________________________________________________________
SET                .         BASE                          : 
TLFamily_BS        .         Bit Size                      : 
TLFamily_DT        .         Compressional Slowness        : 
TLFamily_DWAL      .         Aluminum Weight Fraction      : 
TLFamily_DWCA      .         Calcium Weight Fraction       : 
TLFamily_DWFE      .         Iron Weight Fraction          : 
TLFamily_DWGD      .         Gadolinium Weight Fraction    : 
TLFamily_DWS       .         Sulfur Weight Fraction        : 
TLFamily_DWSI      .         Silicon Weight Fraction       : 
TLFamily_DWTI      .         Titanium Weight Fraction      : 
TLFamily_GR        .         Gamma Ray                     : 
TLFamily_GRt       .         Gamma Ray                     : 
TLFamily_HCAL      .         Caliper                       : 
TLFamily_HDRA      .         Bulk Density Correction       : 
TLFamily_HFK       .         Potassium Concentration       : 
TLFamily_HTHO      .         Thorium Concentration         : 
TLFamily_HURA      .         Uranium Concentration         : 
TLFamily_KSDR      .         NMR Permeability              : 
TLFamily_KTIM      .         NMR Permeability              : 
TLFamily_MD        .         Measured Depth                : 
TLFamily_NMRE_Final .         NMR Bound Fluid Volume Fraction: 
TLFamily_NMRFL_Final .         NMR Free Fluids               : 
TLFamily_NMRT_Final .         NMR Porosity                  : 
TLFamily_NPHI      .         Neutron Porosity              : 
TLFamily_PE        .         Photoelectric Factor          : 
TLFamily_RD        .         Resistivity - Deep            : 
TLFamily_RHOB      .         Bulk Density                  : 
TLFamily_RM        .         Resistivity - Medium          : 
TLFamily_RS        .         Resistivity - Shallow         : 
TLFamily_T2LM      .         NMR T2 Logarithmic Mean       : 
TLFamily_TVDSS     .         True Vertical Depth Sub Sea   : 
~Curve Information
#_______________________________________________________________________________
#
#LOGNAME           .UNIT     LOG_ID                        : DESCRIPTION
#_______________________________________________________________________________
DEPTH              .M                                      :  
BS                 .in                                     : Bit Size 
DT                 .us/ft                                  : Delta-T Compressional 
DWAL               .kg/kg                                  : Dry Weight Fraction Pseudo Aluminum (SpectroLith WALK2 Model) 
DWCA               .kg/kg                                  : Dry Weight Fraction Calcium (SpectroLith WALK2 Model) 
DWFE               .kg/kg                                  : Dry Weight Fraction Iron + 0.14 Aluminum (SpectroLith WALK2 Model) 
DWGD               .ppm                                    : Dry Weight Fraction Gadolinium (SpectroLith WALK2 Model) 
DWS                .kg/kg                                  : Dry Weight Fraction Sulfur (SpectroLith WALK2 Model) 
DWSI               .kg/kg                                  : Dry Weight Fraction Silicon (SpectroLith WALK2 Model) 
DWTI               .kg/kg                                  : Dry Weight Fraction Titanium (SpectroLith WALK2 Model) 
GR                 .gAPI                                   : Gamma Ray 
GRt                .gAPI                                   : HNGS Standard Gamma-Ray 
HCAL               .in                                     : HRCC Caliper Calibrated 
HDRA               .g/cm3                                  : Density Standoff Correction 
HFK                .%                                      : HNGS Formation Potassium Concentration 
HTHO               .ppm                                    : HNGS Formation Thorium Concentration 
HURA               .ppm                                    : HNGS Formation Uranium Concentration 
KSDR               .mD                                     : SDR Permeability 
KTIM               .mD                                     : Timur/Coates Permeability 
NMRE_Final         .m3/m3                                  :  
NMRFL_Final        .unitless                               :  
NMRT_Final         .frac                                   :  
NPHI               .frac                                   : Enhanced Thermal Neutron Porosity in Selected Lithology 
PE                 .b/e                                    : Standard Resolution Formation Photoelectric Factor 
RD                 .ohm.m                                  : Apparent Resistivity from Computed Focusing Mode 5 
RHOB               .g/cm3                                  : Standard Resolution Formation Density 
RM                 .ohm.m                                  : Apparent Resistivity from Computed Focusing Mode 4 
RS                 .ohm.m                                  : Apparent Resistivity from Computed Focusing Mode 3 
T2LM               .ms                                     : T2 Logarithmic Mean 
TVDSS              .M                                      :  
~Ascii
# ...
5220.056   12.250     69.580     0.000      0.333      0.000      6.476      0.000      0.079      0.000      30.287     24.311     12.348     -0.003     0.389      2.108      1.452      0.075      0.013      0.084      0.011      0.092      0.150      4.571      4.598      2.555      4.292      4.590      16.079     5194.421  
5220.208   12.250     70.250     0.001      0.315      0.001      2.824      0.000      0.098      0.000      31.195     24.131     12.357     -0.003     0.388      2.043      1.457      0.058      0.005      0.080      0.007      0.096      0.187      4.402      4.451      2.539      4.161      4.454      13.010     5194.573  
5220.360   12.250     71.083     0.003      0.296      0.001      0.000      0.000      0.117      0.000      32.663     23.577     12.357     -0.004     0.377      2.027      1.385      0.054      0.005      0.080      0.006      0.107      0.207      4.272      5.432      2.527      5.076      5.420      10.208     5194.725  
5220.513   12.250     73.539     0.004      0.287      0.002      0.000      0.000      0.126      0.000      34.170     23.354     12.354     -0.005     0.375      1.998      1.329      0.053      0.008      0.083      0.007      0.120      0.184      4.177      4.632      2.522      4.352      4.665      8.088      5194.876  
5220.665   12.250     77.116     0.002      0.294      0.001      0.858      0.000      0.121      0.000      34.156     23.323     12.350     -0.006     0.384      1.884      1.354      0.044      0.007      0.081      0.006      0.128      0.171      4.120      4.010      2.520      3.793      4.088      6.337      5195.028  
5220.818   12.250     79.556     0.000      0.306      0.000      2.911      0.000      0.110      0.000      34.224     24.455     12.366     -0.006     0.393      1.840      1.530      0.036      0.008      0.082      0.006      0.135      0.181      4.171      4.090      2.514      3.872      4.176      5.279      5195.180  
5220.970   12.250     78.667     0.000      0.320      0.000      3.316      0.000      0.094      0.000      33.536     25.173     12.370     -0.007     0.402      1.859      1.609      0.020      0.003      0.074      0.004      0.127      0.211      4.295      3.896      2.503      3.701      4.005      4.453      5195.332  
5221.122   12.250     75.439     0.000      0.324      0.000      2.068      0.000      0.088      0.000      33.398     27.053     12.367     -0.007     0.428      1.913      1.771      0.015      0.001      0.067      0.003      0.120      0.231      4.367      3.691      2.496      3.521      3.811      4.194      5195.483  
5221.275   12.250     71.677     0.001      0.312      0.001      1.040      0.000      0.100      0.000      33.302     28.141     12.361     -0.006     0.431      1.852      1.922      0.016      0.001      0.066      0.002      0.115      0.240      4.275      3.855      2.496      3.679      3.975      4.791      5195.635  
5221.427   12.250     69.529     0.005      0.283      0.002      1.586      0.000      0.130      0.000      34.732     28.343     12.434     -0.006     0.423      1.809      1.986      0.028      0.002      0.071      0.004      0.109      0.220      3.974      5.060      2.504      4.814      5.167      7.011      5195.787  
5221.580   12.250     69.686     0.008      0.245      0.004      2.120      0.000      0.167      0.000      35.423     26.639     12.370     -0.005     0.376      1.626      1.927      0.071      0.010      0.078      0.009      0.105      0.184      3.588      3.698      2.508      3.539      3.803      12.130     5195.939  
5221.732   12.250     70.609     0.010      0.223      0.005      2.499      0.001      0.191      0.000      35.316     24.226     12.363     -0.004     0.325      1.425      1.781      0.157      0.048      0.093      0.017      0.119      0.160      3.265      3.647      2.508      3.496      3.745      14.040     5196.090  
5221.884   12.250     71.322     0.008      0.209      0.004      0.470      0.003      0.207      0.000      33.698     22.941     12.376     -0.007     0.292      1.443      1.703      0.239      0.082      0.101      0.019      0.127      0.150      3.152      3.675      2.495      3.528      3.778      15.244     5196.242  
5222.037   12.250     71.194     0.004      0.211      0.002      0.000      0.007      0.211      0.001      31.385     22.361     12.389     -0.009     0.289      1.402      1.701      0.323      0.082      0.104      0.020      0.122      0.165      3.204      3.279      2.490      3.165      3.392      19.240     5196.394  
5222.189   12.250     70.126     0.002      0.207      0.000      0.000      0.011      0.218      0.002      29.303     21.759     12.405     -0.010     0.289      1.344      1.671      0.562      0.127      0.104      0.025      0.111      0.178      3.360      4.108      2.488      3.976      4.243      30.673     5196.545  
5222.342   12.250     68.834     0.001      0.210      0.000      0.000      0.009      0.215      0.002      28.828     20.620     12.408     -0.009     0.286      1.315      1.528      0.838      0.334      0.115      0.034      0.122      0.194      3.598      4.808      2.491      4.661      4.972      30.995     5196.697  
5222.494   12.250     67.329     0.001      0.213      0.000      0.000      0.000      0.218      0.001      30.000     20.546     12.389     0.002      0.311      1.430      1.392      0.705      0.371      0.120      0.033      0.140      0.195      3.824      5.082      2.509      4.938      5.269      21.692     5196.849  
5222.646   12.250     66.367     0.000      0.216      0.000      0.000      0.000      0.215      0.000      32.174     20.843     12.385     0.003      0.321      1.507      1.344      0.208      0.106      0.101      0.023      0.135      0.178      4.053      5.649      2.537      5.478      5.842      12.575     5197.001  
5222.799   12.250     65.863     0.000      0.217      0.000      0.000      0.002      0.213      0.000      33.626     21.189     12.414     0.003      0.326      1.608      1.299      0.055      0.025      0.075      0.013      0.110      0.150      4.271      5.278      2.567      5.112      5.454      9.982      5197.152  
5222.951   12.250     66.761     0.000      0.226      0.000      0.000      0.007      0.201      0.000      34.336     21.579     12.418     -0.008     0.326      1.748      1.294      0.046      0.023      0.073      0.015      0.082      0.133      4.456      4.360      2.582      4.245      4.563      16.098     5197.304  
5223.104   12.250     72.787     0.000      0.243      0.000      0.923      0.009      0.179      0.000      34.348     22.919     12.436     -0.007     0.335      1.767      1.462      0.038      0.019      0.076      0.012      0.097      0.133      4.456      4.323      2.579      4.208      4.526      10.416     5197.456  
5223.256   12.250     81.423     0.000      0.264      0.000      2.442      0.007      0.155      0.000      34.814     24.725     12.438     -0.004     0.355      1.734      1.677      0.036      0.025      0.076      0.014      0.101      0.147      4.216      3.719      2.555      3.635      3.926      9.262      5197.608  
5223.408   12.250     83.140     0.000      0.281      0.000      1.244      0.004      0.137      0.000      37.934     28.600     12.411     -0.001     0.421      1.903      1.962      0.029      0.016      0.076      0.011      0.113      0.172      3.973      3.103      2.498      3.020      3.272      6.728      5197.759  
5223.561   12.250     85.072     0.000      0.292      0.000      0.085      0.005      0.124      0.000      43.272     34.627     12.469     0.019      0.517      2.208      2.369      0.023      0.014      0.073      0.009      0.134      0.210      3.870      3.328      2.460      3.243      3.510      4.235      5197.911  
5223.713   12.250     87.989     0.001      0.298      0.001      0.000      0.007      0.114      0.000      48.284     40.689     12.523     0.045      0.593      2.465      2.840      0.024      0.069      0.066      0.015      0.160      0.249      3.899      3.404      2.441      3.302      3.574      3.034      5198.063  
