~Version
 VERS              .         2.0                           : CWLS LOG ASCII STANDARD - VERSION 2.0
 WRAP              .         NO                            : ONE LINE PER DEPTH STEP
 DLM               .         SPACE                         : DELIMITING CHARACTER(SPACE TAB OR COMMA)
~Well Information
#_______________________________________________________________________________
#
#PARAMETER_NAME    .UNIT     VALUE                         : DESCRIPTION
#_______________________________________________________________________________
STRT               .M        5038.900                      : First reference value
STOP               .M        5526.275                      : Last reference value
STEP               .M        0.152                         : Step increment
NULL               .         -9999                         : Missing value
COMP               .         PETROBRAS                     : Company
WELL               .         8-SPH-23-SPS                  : Well name
FLD                .         SAPINHOA                      : Field
LOC                .                                       : Location
PROV               .                                       : Province
SRVC               .                                       : Service Company
DATE               .         2021-09-13 11_18_58           : Date
UWI                .         8-SPH-23-SPS                  : Unique Well ID
APD                .M        24.0                          : ABOVE PERMANENT DATUM
API                .         863160047300                  : API Code
BHT                .degF     160                           : BOTTOMHOLE TEMPERATURE
BLI                .M        5511.3                        : BOTTOM LOGGED INTERVAL
BS                 .in       12.25                         : BIT SIZE
CTRY               .         BRASIL                        : Nation
DCS                .         10/04/2016                    : DATE CIRCULATION STOPPED
DFD                .lb/gal   9.4                           : DRILLING FLUID DENSITY
DFT                .         OLEDRILL (BASE OLEFINA)       : DRILLING FLUID TYPE
DLAB               .         12/04/2016                    : DATE LOGGING ON BOTTOM
EDF                .M        24.0                          : ELEVATION OF DRILLING FLOOR
EGL                .M        -2146.0                       : ELEVATION OF GROUND LEVEL
EKB                .M        24.0                          : ELEVATION OF KELLY BUSHING
EPD                .M        0.0                           : ELEVATATION OF PERMANENT DATUM
GDAT               .         SIRGAS2000                    : Geodetic Datum
LMF                .         MR                            : LOG MEASURED FROM
LUL                .         MCE                           : LOGGING UNIT LOCATION
LUN                .         12247255                      : LOGGING UNIT NUMBER
LATI               .         -25_42_01.290                 : Latitude
LONG               .         -43_11_39,303                 : LONGITUDE
MCST               .degF     -999.25                       : MUDCAKE SAMPLE TEMPERATURE
MFST               .degF     -999.25                       : MUD FILTRATE SAMPLE TEMPERATURE
MRT                .degF     160.0                         : MAXIMUM RECORDED TEMPERATURE
MST                .degF     -999.25                       : MUD SAMPLE TEMPERATURE
ORIGINALWELLNAME   .         8SPH 0023  SPS                : 
PDAT               .         NM                            : PERMANENT DATUM
PRODUCER-CODE      .         280                           : 
PRODUCER-NAME      .         Halliburton                   : 
RMB                .ohm.m    -999.25                       : RESISTIVITY OF MUD - BHT
RMCS               .ohm.m    -999.25                       : RESISTIVITY OF MUDCAKE SAMPLE
RMFS               .ohm.m    -999.25                       : RESISTIVITY OF MUD FILTRATE SAMPLE
RMS                .ohm.m    -999.25                       : RESISTIVITY OF MUD SAMPLE
RUN                .         02                            : RUN NUMBER 1
STAT               .         SAO PAULO                     : STATE
TCS                .h        03_30                         : TIME CIRCULATION STOPPED
TDD                .M        5517.0                        : DRILLERS DEPTH
TDL                .M        5520.0                        : LOGGERS DEPTH
TLAB               .h        07_30                         : TIME LOGGING ON BOTTOM
TLI                .M        5070.0                        : TOP LOGGED INTERVAL
X                  .M        681190.00000000               : X UTM Coordinate
Y                  .M        7156260.00000000              : Y UTM Coordinate
~Parameter Information Block
#_______________________________________________________________________________
#
#PARAMETER_NAME    .UNIT     VALUE                         : DESCRIPTION
#_______________________________________________________________________________
SET                .         BASE                          : 
TLFamily_BS        .         Bit Size                      : 
TLFamily_DT        .         Compressional Slowness        : 
TLFamily_DWAL      .         Aluminum Weight Fraction      : 
TLFamily_DWCA      .         Calcium Weight Fraction       : 
TLFamily_DWFE      .         Iron Weight Fraction          : 
TLFamily_DWK       .         Potassium Weight Fraction     : 
TLFamily_DWMG      .         Magnesium Weight Fraction     : 
TLFamily_DWMN      .         Manganese Weight Fraction     : 
TLFamily_DWS       .         Sulfur Weight Fraction        : 
TLFamily_DWSI      .         Silicon Weight Fraction       : 
TLFamily_DWTI      .         Titanium Weight Fraction      : 
TLFamily_GR        .         Gamma Ray                     : 
TLFamily_GRt       .         Gamma Ray                     : 
TLFamily_HCAL      .         Caliper                       : 
TLFamily_HFK       .         Potassium Concentration       : 
TLFamily_HTHO      .         Thorium Concentration         : 
TLFamily_HURA      .         Uranium Concentration         : 
TLFamily_MD        .         Measured Depth                : 
TLFamily_MPERM     .         NMR Permeability              : 
TLFamily_NMRE_Final .         NMR Bound Fluid Volume Fraction: 
TLFamily_NMRFL_Final .         NMR Free Fluids               : 
TLFamily_NMRT_Final .         NMR Porosity                  : 
TLFamily_NPHI      .         Neutron Porosity              : 
TLFamily_PE        .         Photoelectric Factor          : 
TLFamily_RD        .         Resistivity - Deep            : 
TLFamily_RHOB      .         Bulk Density                  : 
TLFamily_RM        .         Resistivity - Medium          : 
TLFamily_RS        .         Resistivity - Shallow         : 
TLFamily_T2LM      .         NMR T2 Logarithmic Mean       : 
TLFamily_TVDSS     .         True Vertical Depth Sub Sea   : 
~Curve Information
#_______________________________________________________________________________
#
#LOGNAME           .UNIT     LOG_ID                        : DESCRIPTION
#_______________________________________________________________________________
DEPTH              .M                                      :  
BS                 .in                                     : BS/Bit Size 
DT                 .us/ft                                  : DTC/MonoDeltaT 
DWAL               .kg/kg                                  : DAL/DryrockAlWF 
DWCA               .kg/kg                                  : DCA/DryrockCaWF 
DWFE               .kg/kg                                  : DFE/DryrockFeWF 
DWK                .kg/kg                                  : DK/DryrockKWF 
DWMG               .kg/kg                                  : DMG/DryrockMgWF 
DWMN               .kg/kg                                  : DMN/DryrockMnWF 
DWS                .kg/kg                                  : DSUL/DryrockSuWF 
DWSI               .kg/kg                                  : DSI/DryrockSiWF 
DWTI               .kg/kg                                  : DTI/DryrockTiWF 
GR                 .gAPI                                   : GR/Gamma API 
GRt                .gAPI                                   : GKUT/GammaKUT 
HCAL               .in                                     : CALI/Caliper 
HFK                .%                                      : POTA/Potassium 
HTHO               .ppm                                    : THOR/Thorium 
HURA               .ppm                                    : URAN/Uranium 
MPERM              .mD                                     : MPERMT2/MrilT2KCoat 
NMRE_Final         .m3/m3                                  : MPHIT2/TA-grp T2 Effective Por 
NMRFL_Final        .unitless                               : MFFIT2/TA-grp T2 FreeFluid Ind 
NMRT_Final         .frac                                   : MSIGT2/TA-grp T2 Total Por. 
NPHI               .frac                                   : POROSIDADE NEUTRONICA (COMPOSICAO DE CURVAS CABO E/OU LWD) 
PE                 .b/e                                    : Density PE Filtered 
RD                 .ohm.m                                  : RT90/90in Resistivity 2ft Res 
RHOB               .g/cm3                                  : DENSIDADE (COMPOSICAO DE CURVAS CABO E/OU LWD ) 
RM                 .ohm.m                                  : RT30/30in Resistivity 2ft Res 
RS                 .ohm.m                                  : RT10/10in Resistivity 2ft Res 
T2LM               .ms                                     : T2LM/T2 Log Mean 
TVDSS              .M                                      :  
~Ascii
# ...
5286.550   12.250     60.648     0.023      0.154      0.000      0.029      0.000      0.000      0.001      0.252      0.001      25.218     31.439     12.579     0.278      1.387      2.514      0.963      0.076      0.049      0.082      0.115      6.792      31.572     2.476      43.625     68.763     91.490     5228.148  
5286.702   12.250     61.699     0.024      0.160      0.000      0.030      0.000      0.000      0.002      0.243      0.001      25.981     32.360     12.588     0.288      1.607      2.517      1.022      0.075      0.049      0.078      0.118      6.873      30.760     2.472      42.261     65.487     104.209    5228.301  
5286.855   12.250     62.271     0.025      0.173      0.001      0.032      0.000      0.000      0.002      0.224      0.001      29.274     34.834     12.575     0.259      1.802      2.772      0.767      0.075      0.046      0.077      0.118      7.066      28.302     2.472      38.158     56.618     106.448    5228.453  
5287.007   12.250     63.543     0.026      0.182      0.001      0.032      0.000      0.000      0.003      0.212      0.001      31.292     36.762     12.506     0.232      1.879      3.005      0.485      0.080      0.042      0.080      0.116      7.256      26.742     2.474      35.680     51.809     103.886    5228.605  
5287.159   12.250     63.869     0.025      0.192      0.002      0.029      0.000      0.001      0.005      0.200      0.001      32.628     38.832     12.522     0.191      1.945      3.282      0.586      0.087      0.044      0.087      0.113      7.367      25.677     2.478      34.322     49.952     101.846    5228.758  
5287.312   12.250     63.343     0.024      0.194      0.003      0.028      0.000      0.001      0.006      0.199      0.001      32.638     39.268     12.601     0.171      1.913      3.378      0.998      0.090      0.050      0.090      0.109      7.406      25.774     2.484      34.863     51.932     110.568    5228.910  
5287.464   12.250     62.175     0.022      0.187      0.005      0.026      0.000      0.001      0.007      0.208      0.001      30.575     38.001     12.637     0.169      1.718      3.312      1.370      0.089      0.053      0.089      0.107      7.418      25.744     2.496      35.379     54.887     124.080    5229.062  
5287.617   12.250     61.509     0.020      0.178      0.006      0.024      0.000      0.001      0.009      0.220      0.000      28.419     36.312     12.679     0.189      1.575      3.141      1.924      0.087      0.056      0.087      0.108      7.340      25.177     2.504      34.802     55.398     135.003    5229.215  
5287.769   12.250     59.274     0.017      0.167      0.006      0.021      0.000      0.000      0.013      0.236      0.000      27.179     34.583     12.656     0.209      1.299      3.014      2.139      0.083      0.057      0.085      0.104      7.186      24.000     2.509      33.070     53.353     128.459    5229.367  
5287.921   12.250     58.861     0.015      0.161      0.005      0.019      0.000      0.000      0.016      0.244      0.001      27.434     33.665     12.542     0.235      1.255      2.883      0.766      0.074      0.046      0.083      0.104      7.063      23.052     2.511      31.615     51.291     97.566     5229.520  
5288.074   12.250     58.470     0.013      0.162      0.005      0.017      0.000      0.000      0.016      0.245      0.001      29.210     34.657     12.482     0.245      1.182      3.004      0.244      0.069      0.035      0.078      0.106      6.987      22.459     2.510      30.771     50.585     81.690     5229.672  
5288.226   12.250     59.104     0.013      0.168      0.004      0.016      0.000      0.000      0.015      0.241      0.001      30.703     36.156     12.430     0.245      1.010      3.233      0.170      0.069      0.032      0.074      0.108      6.920      22.320     2.507      30.640     51.061     82.876     5229.824  
5288.379   12.250     60.581     0.015      0.175      0.002      0.019      0.000      0.000      0.011      0.233      0.001      30.840     38.356     12.364     0.231      0.749      3.597      0.220      0.072      0.034      0.074      0.110      6.857      22.416     2.502      30.850     52.138     91.678     5229.977  
5288.531   12.250     61.855     0.017      0.179      0.001      0.021      0.000      0.000      0.008      0.227      0.001      30.329     39.460     12.381     0.234      0.514      3.800      0.268      0.074      0.036      0.077      0.112      6.866      22.628     2.495      31.192     53.193     92.715     5230.129  
5288.683   12.250     63.014     0.018      0.187      0.001      0.022      0.000      0.000      0.005      0.219      0.001      29.972     39.251     12.380     0.230      0.239      3.885      0.327      0.074      0.038      0.081      0.113      6.938      23.157     2.490      31.971     55.082     99.020     5230.281  
5288.836   12.250     63.644     0.017      0.194      0.002      0.021      0.000      0.000      0.005      0.211      0.001      30.046     38.346     12.381     0.245      0.164      3.784      0.514      0.075      0.042      0.080      0.110      6.991      23.680     2.493      32.717     56.705     126.475    5230.434  
5288.988   12.250     63.834     0.017      0.198      0.002      0.022      0.000      0.000      0.005      0.206      0.000      30.092     37.119     12.391     0.263      0.179      3.612      0.970      0.076      0.048      0.078      0.102      6.977      24.291     2.506      33.582     58.526     153.901    5230.586  
5289.141   12.250     64.031     0.018      0.201      0.003      0.022      0.000      0.001      0.005      0.201      0.000      29.067     35.453     12.373     0.277      0.429      3.311      0.971      0.075      0.048      0.078      0.095      6.938      25.656     2.517      35.528     62.816     144.601    5230.738  
5289.293   12.250     63.987     0.018      0.202      0.003      0.023      0.000      0.001      0.006      0.199      0.000      28.296     35.209     12.361     0.283      0.643      3.196      0.791      0.073      0.046      0.078      0.088      6.931      26.539     2.527      36.723     65.367     128.712    5230.891  
5289.445   12.250     62.815     0.018      0.200      0.003      0.022      0.000      0.001      0.011      0.199      0.000      28.623     35.736     12.340     0.297      0.980      3.107      0.596      0.071      0.043      0.075      0.087      6.936      27.706     2.530      37.985     67.129     144.718    5231.043  
5289.598   12.250     61.277     0.017      0.200      0.002      0.022      0.000      0.001      0.013      0.199      0.000      28.985     36.335     12.341     0.307      1.137      3.100      0.307      0.069      0.037      0.070      0.086      6.927      28.333     2.525      38.534     67.404     172.621    5231.196  
5289.750   12.250     60.129     0.018      0.199      0.003      0.022      0.003      0.000      0.012      0.196      0.000      28.436     37.578     12.336     0.335      1.339      3.114      0.104      0.065      0.028      0.065      0.084      6.939      29.513     2.522      39.632     68.494     151.751    5231.348  
5289.903   12.250     57.804     0.017      0.196      0.003      0.021      0.007      0.000      0.012      0.193      0.000      28.567     38.199     12.325     0.363      1.432      3.102      0.050      0.062      0.023      0.065      0.081      7.008      30.017     2.531      39.911     68.309     104.363    5231.500  
5290.055   12.250     57.057     0.014      0.185      0.004      0.018      0.026      0.000      0.010      0.178      0.000      29.065     39.554     12.354     0.383      1.574      3.167      0.031      0.056      0.019      0.064      0.078      7.082      29.670     2.542      38.491     63.699     70.481     5231.653  
5290.207   12.250     56.045     0.013      0.182      0.004      0.016      0.036      0.000      0.008      0.169      0.000      29.479     40.345     12.416     0.380      1.635      3.237      0.034      0.055      0.020      0.065      0.076      7.060      29.009     2.550      37.028     59.800     73.443     5231.805  
