~Version
 VERS              .         2.0                           : CWLS LOG ASCII STANDARD - VERSION 2.0
 WRAP              .         NO                            : ONE LINE PER DEPTH STEP
 DLM               .         SPACE                         : DELIMITING CHARACTER(SPACE TAB OR COMMA)
~Well Information
#_______________________________________________________________________________
#
#PARAMETER_NAME    .UNIT     VALUE                         : DESCRIPTION
#_______________________________________________________________________________
STRT               .M        5038.900                      : First reference value
STOP               .M        5526.275                      : Last reference value
STEP               .M        0.152                         : Step increment
NULL               .         -9999                         : Missing value
COMP               .         PETROBRAS                     : Company
WELL               .         8-SPH-23-SPS                  : Well name
FLD                .         SAPINHOA                      : Field
LOC                .                                       : Location
PROV               .                                       : Province
SRVC               .                                       : Service Company
DATE               .         2021-09-13 11_18_58           : Date
UWI                .         8-SPH-23-SPS                  : Unique Well ID
APD                .M        24.0                          : ABOVE PERMANENT DATUM
API                .         863160047300                  : API Code
BHT                .degF     160                           : BOTTOMHOLE TEMPERATURE
BLI                .M        5511.3                        : BOTTOM LOGGED INTERVAL
BS                 .in       12.25                         : BIT SIZE
CTRY               .         BRASIL                        : Nation
DCS                .         10/04/2016                    : DATE CIRCULATION STOPPED
DFD                .lb/gal   9.4                           : DRILLING FLUID DENSITY
DFT                .         OLEDRILL (BASE OLEFINA)       : DRILLING FLUID TYPE
DLAB               .         12/04/2016                    : DATE LOGGING ON BOTTOM
EDF                .M        24.0                          : ELEVATION OF DRILLING FLOOR
EGL                .M        -2146.0                       : ELEVATION OF GROUND LEVEL
EKB                .M        24.0                          : ELEVATION OF KELLY BUSHING
EPD                .M        0.0                           : ELEVATATION OF PERMANENT DATUM
GDAT               .         SIRGAS2000                    : Geodetic Datum
LMF                .         MR                            : LOG MEASURED FROM
LUL                .         MCE                           : LOGGING UNIT LOCATION
LUN                .         12247255                      : LOGGING UNIT NUMBER
LATI               .         -25_42_01.290                 : Latitude
LONG               .         -43_11_39,303                 : LONGITUDE
MCST               .degF     -999.25                       : MUDCAKE SAMPLE TEMPERATURE
MFST               .degF     -999.25                       : MUD FILTRATE SAMPLE TEMPERATURE
MRT                .degF     160.0                         : MAXIMUM RECORDED TEMPERATURE
MST                .degF     -999.25                       : MUD SAMPLE TEMPERATURE
ORIGINALWELLNAME   .         8SPH 0023  SPS                : 
PDAT               .         NM                            : PERMANENT DATUM
PRODUCER-CODE      .         280                           : 
PRODUCER-NAME      .         Halliburton                   : 
RMB                .ohm.m    -999.25                       : RESISTIVITY OF MUD - BHT
RMCS               .ohm.m    -999.25                       : RESISTIVITY OF MUDCAKE SAMPLE
RMFS               .ohm.m    -999.25                       : RESISTIVITY OF MUD FILTRATE SAMPLE
RMS                .ohm.m    -999.25                       : RESISTIVITY OF MUD SAMPLE
RUN                .         02                            : RUN NUMBER 1
STAT               .         SAO PAULO                     : STATE
TCS                .h        03_30                         : TIME CIRCULATION STOPPED
TDD                .M        5517.0                        : DRILLERS DEPTH
TDL                .M        5520.0                        : LOGGERS DEPTH
TLAB               .h        07_30                         : TIME LOGGING ON BOTTOM
TLI                .M        5070.0                        : TOP LOGGED INTERVAL
X                  .M        681190.00000000               : X UTM Coordinate
Y                  .M        7156260.00000000              : Y UTM Coordinate
~Parameter Information Block
#_______________________________________________________________________________
#
#PARAMETER_NAME    .UNIT     VALUE                         : DESCRIPTION
#_______________________________________________________________________________
SET                .         BASE                          : 
TLFamily_BS        .         Bit Size                      : 
TLFamily_DT        .         Compressional Slowness        : 
TLFamily_DWAL      .         Aluminum Weight Fraction      : 
TLFamily_DWCA      .         Calcium Weight Fraction       : 
TLFamily_DWFE      .         Iron Weight Fraction          : 
TLFamily_DWK       .         Potassium Weight Fraction     : 
TLFamily_DWMG      .         Magnesium Weight Fraction     : 
TLFamily_DWMN      .         Manganese Weight Fraction     : 
TLFamily_DWS       .         Sulfur Weight Fraction        : 
TLFamily_DWSI      .         Silicon Weight Fraction       : 
TLFamily_DWTI      .         Titanium Weight Fraction      : 
TLFamily_GR        .         Gamma Ray                     : 
TLFamily_GRt       .         Gamma Ray                     : 
TLFamily_HCAL      .         Caliper                       : 
TLFamily_HFK       .         Potassium Concentration       : 
TLFamily_HTHO      .         Thorium Concentration         : 
TLFamily_HURA      .         Uranium Concentration         : 
TLFamily_MD        .         Measured Depth                : 
TLFamily_MPERM     .         NMR Permeability              : 
TLFamily_NMRE_Final .         NMR Bound Fluid Volume Fraction: 
TLFamily_NMRFL_Final .         NMR Free Fluids               : 
TLFamily_NMRT_Final .         NMR Porosity                  : 
TLFamily_NPHI      .         Neutron Porosity              : 
TLFamily_PE        .         Photoelectric Factor          : 
TLFamily_RD        .         Resistivity - Deep            : 
TLFamily_RHOB      .         Bulk Density                  : 
TLFamily_RM        .         Resistivity - Medium          : 
TLFamily_RS        .         Resistivity - Shallow         : 
TLFamily_T2LM      .         NMR T2 Logarithmic Mean       : 
TLFamily_TVDSS     .         True Vertical Depth Sub Sea   : 
~Curve Information
#_______________________________________________________________________________
#
#LOGNAME           .UNIT     LOG_ID                        : DESCRIPTION
#_______________________________________________________________________________
DEPTH              .M                                      :  
BS                 .in                                     : BS/Bit Size 
DT                 .us/ft                                  : DTC/MonoDeltaT 
DWAL               .kg/kg                                  : DAL/DryrockAlWF 
DWCA               .kg/kg                                  : DCA/DryrockCaWF 
DWFE               .kg/kg                                  : DFE/DryrockFeWF 
DWK                .kg/kg                                  : DK/DryrockKWF 
DWMG               .kg/kg                                  : DMG/DryrockMgWF 
DWMN               .kg/kg                                  : DMN/DryrockMnWF 
DWS                .kg/kg                                  : DSUL/DryrockSuWF 
DWSI               .kg/kg                                  : DSI/DryrockSiWF 
DWTI               .kg/kg                                  : DTI/DryrockTiWF 
GR                 .gAPI                                   : GR/Gamma API 
GRt                .gAPI                                   : GKUT/GammaKUT 
HCAL               .in                                     : CALI/Caliper 
HFK                .%                                      : POTA/Potassium 
HTHO               .ppm                                    : THOR/Thorium 
HURA               .ppm                                    : URAN/Uranium 
MPERM              .mD                                     : MPERMT2/MrilT2KCoat 
NMRE_Final         .m3/m3                                  : MPHIT2/TA-grp T2 Effective Por 
NMRFL_Final        .unitless                               : MFFIT2/TA-grp T2 FreeFluid Ind 
NMRT_Final         .frac                                   : MSIGT2/TA-grp T2 Total Por. 
NPHI               .frac                                   : POROSIDADE NEUTRONICA (COMPOSICAO DE CURVAS CABO E/OU LWD) 
PE                 .b/e                                    : Density PE Filtered 
RD                 .ohm.m                                  : RT90/90in Resistivity 2ft Res 
RHOB               .g/cm3                                  : DENSIDADE (COMPOSICAO DE CURVAS CABO E/OU LWD ) 
RM                 .ohm.m                                  : RT30/30in Resistivity 2ft Res 
RS                 .ohm.m                                  : RT10/10in Resistivity 2ft Res 
T2LM               .ms                                     : T2LM/T2 Log Mean 
TVDSS              .M                                      :  
~Ascii
# ...
5198.920   12.250     69.440     0.028      0.354      0.000      0.034      0.000      0.000      0.000      0.011      0.003      34.735     41.706     11.926     0.108      0.588      4.242      208.109    0.158      0.135      0.158      0.215      8.379      6.222      2.395      8.777      19.416     277.034    5140.530  
5199.072   12.250     69.268     0.028      0.346      0.000      0.035      0.000      0.000      0.000      0.020      0.003      31.841     39.544     11.918     0.069      0.605      4.062      161.821    0.156      0.131      0.156      0.207      8.335      6.674      2.413      9.391      20.174     264.962    5140.683  
5199.225   12.250     68.211     0.028      0.336      0.000      0.034      0.000      0.000      0.001      0.032      0.003      29.551     37.271     11.915     0.061      0.653      3.806      104.155    0.150      0.123      0.150      0.191      8.297      7.295      2.437      10.368     22.229     257.760    5140.835  
5199.377   12.250     67.236     0.027      0.317      0.000      0.034      0.000      0.000      0.004      0.052      0.002      26.275     33.766     11.919     0.093      0.804      3.305      60.843     0.141      0.113      0.141      0.181      8.313      8.533      2.454      12.521     27.522     264.970    5140.987  
5199.529   12.250     66.746     0.026      0.305      0.000      0.032      0.000      0.000      0.006      0.068      0.002      23.574     31.090     11.919     0.136      0.894      2.900      47.408     0.134      0.106      0.134      0.176      8.415      9.713      2.462      14.718     33.146     250.164    5141.140  
5199.682   12.250     65.485     0.024      0.291      0.000      0.030      0.000      0.000      0.007      0.087      0.002      21.152     28.486     11.928     0.185      0.960      2.502      51.535     0.128      0.104      0.128      0.175      8.509      11.460     2.467      18.234     42.038     215.276    5141.292  
5199.834   12.250     65.112     0.023      0.282      0.000      0.028      0.000      0.000      0.009      0.098      0.002      20.282     27.093     11.931     0.201      1.017      2.298      48.625     0.125      0.102      0.125      0.170      8.520      12.691     2.473      20.879     48.286     209.570    5141.444  
5199.987   12.250     64.368     0.022      0.275      0.000      0.028      0.000      0.000      0.012      0.105      0.002      19.910     26.349     11.943     0.212      1.020      2.195      40.856     0.121      0.099      0.122      0.163      8.465      13.638     2.487      23.030     53.051     224.858    5141.597  
5200.139   12.250     64.204     0.019      0.276      0.000      0.024      0.000      0.000      0.016      0.107      0.002      19.511     25.868     11.935     0.220      1.100      2.099      44.559     0.119      0.099      0.120      0.165      8.326      14.486     2.491      25.001     56.060     238.471    5141.749  
5200.291   12.250     64.155     0.019      0.279      0.000      0.023      0.000      0.000      0.015      0.103      0.002      19.031     26.003     11.957     0.223      1.123      2.099      68.783     0.119      0.102      0.119      0.180      8.180      14.548     2.470      25.131     55.201     253.602    5141.902  
5200.444   12.250     64.262     0.021      0.289      0.000      0.026      0.000      0.000      0.012      0.090      0.002      19.992     26.127     11.946     0.223      1.283      2.055      92.833     0.119      0.104      0.119      0.183      7.964      13.977     2.453      23.793     50.669     267.409    5142.054  
5200.596   12.250     64.525     0.022      0.297      0.000      0.027      0.000      0.000      0.010      0.081      0.002      21.354     26.036     11.958     0.212      1.315      2.052      83.687     0.121      0.104      0.121      0.179      7.855      13.412     2.449      22.547     47.364     285.854    5142.206  
5200.749   12.250     64.740     0.023      0.308      0.000      0.029      0.000      0.000      0.004      0.070      0.002      21.534     26.029     11.945     0.174      1.238      2.145      103.287    0.126      0.109      0.126      0.181      7.820      12.535     2.447      20.863     43.983     292.183    5142.359  
5200.901   12.250     64.858     0.024      0.314      0.000      0.030      0.000      0.000      0.001      0.062      0.002      21.031     26.012     11.953     0.148      1.115      2.233      164.400    0.132      0.117      0.133      0.189      7.788      12.114     2.435      20.216     43.357     269.153    5142.511  
5201.053   12.250     65.674     0.026      0.318      0.000      0.033      0.000      0.000      0.000      0.055      0.002      21.029     26.644     11.937     0.139      0.897      2.399      192.389    0.138      0.123      0.140      0.195      7.786      11.317     2.422      18.932     41.023     250.366    5142.664  
5201.206   12.250     65.824     0.026      0.314      0.000      0.032      0.005      0.000      0.000      0.052      0.002      21.698     27.885     11.942     0.143      0.754      2.582      158.396    0.141      0.122      0.141      0.193      7.801      10.666     2.428      17.736     37.772     255.940    5142.816  
5201.358   12.250     65.885     0.024      0.308      0.000      0.030      0.014      0.000      0.000      0.048      0.002      24.173     30.545     11.922     0.161      0.770      2.841      85.948     0.138      0.115      0.139      0.182      7.892      9.677      2.446      15.951     33.081     267.689    5142.968  
5201.511   12.250     65.720     0.023      0.309      0.000      0.028      0.016      0.000      0.001      0.045      0.002      25.859     32.258     11.897     0.184      0.776      2.990      42.164     0.135      0.106      0.136      0.168      8.011      9.147      2.469      15.060     31.107     259.816    5143.121  
5201.663   12.250     65.413     0.022      0.317      0.000      0.027      0.008      0.000      0.003      0.050      0.002      26.123     33.577     11.894     0.204      0.829      3.083      29.720     0.133      0.101      0.133      0.164      8.086      8.513      2.474      14.090     29.681     234.128    5143.273  
5201.815   12.250     64.981     0.021      0.323      0.000      0.026      0.001      0.000      0.004      0.056      0.001      25.012     33.682     11.906     0.219      0.837      3.066      28.401     0.130      0.099      0.131      0.176      8.085      7.997      2.457      13.315     28.908     210.192    5143.426  
5201.968   12.250     64.794     0.020      0.321      0.000      0.025      0.000      0.000      0.004      0.060      0.001      23.376     32.749     11.922     0.242      0.761      2.950      30.859     0.130      0.100      0.131      0.188      8.093      7.339      2.437      12.207     27.527     213.108    5143.578  
5202.120   12.250     64.939     0.020      0.321      0.000      0.025      0.000      0.000      0.006      0.059      0.001      23.416     31.746     11.937     0.245      0.702      2.854      32.539     0.134      0.102      0.134      0.197      8.214      6.754      2.422      11.139     25.744     225.719    5143.730  
5202.273   12.250     65.124     0.021      0.325      0.000      0.027      0.000      0.000      0.006      0.052      0.001      25.416     31.276     11.955     0.216      0.773      2.826      25.051     0.138      0.100      0.138      0.202      8.327      6.018      2.412      9.720      22.894     229.105    5143.883  
5202.425   12.250     66.073     0.022      0.331      0.000      0.028      0.000      0.000      0.007      0.043      0.001      26.981     31.447     11.927     0.196      0.854      2.850      17.956     0.142      0.096      0.142      0.203      8.359      5.467      2.398      8.657      20.624     236.907    5144.035  
5202.577   12.250     66.515     0.022      0.333      0.000      0.027      0.000      0.000      0.008      0.040      0.002      27.884     32.306     11.896     0.189      1.078      2.876      14.836     0.149      0.094      0.149      0.195      8.326      4.806      2.383      7.385      17.597     245.847    5144.188  
