~Version
 VERS              .         2.0                           : CWLS LOG ASCII STANDARD - VERSION 2.0
 WRAP              .         NO                            : ONE LINE PER DEPTH STEP
 DLM               .         SPACE                         : DELIMITING CHARACTER(SPACE TAB OR COMMA)
~Well Information
#_______________________________________________________________________________
#
#PARAMETER_NAME    .UNIT     VALUE                         : DESCRIPTION
#_______________________________________________________________________________
STRT               .M        5060.036                      : First reference value
STOP               .M        5304.790                      : Last reference value
STEP               .M        0.152                         : Step increment
NULL               .         -9999                         : Missing value
COMP               .         PETROBRAS                     : Company
WELL               .         8-SPH-11-SPS                  : Well name
FLD                .         SAPINHOA                      : Field
LOC                .                                       : Location
PROV               .                                       : Province
SRVC               .                                       : Service Company
DATE               .         23/09/2015                    : Date
UWI                .         8-SPH-11-SPS                  : Unique Well ID
APD                .M        24                            : Elevation of Depth Reference (LMF) Above Permanent Datum
API                .                                       : API NUMBER
BHS                .         OPEN                          : Borehole Status (Open or Cased Hole)
BHT                .degF     135                           : Bottom Hole Temperature
BLI                .M        5299.5                        : Bottom Log Interval
BS                 .in       12.25                         : Bit Size
CBDR               .M        5086                          : Casing Bottom (Driller)
CBLO               .M        5084                          : Casing Bottom (Logger)
CSIZ               .in       14                            : Casing Outer Diameter
CWEI               .lbm/ft   115                           : Casing Weight
CTRY               .         BRASIL                        : Nation
DCS                .         22/09/2015                    : Date Circulation Stopped
DFD                .lb/gal   9.7                           : Drilling Fluid Density
DFT                .         Cationico Flex Drill(Base Agua): Drilling Fluid Type
DLAB               .         23/09/2015                    : Date Logging on Bottom
EDF                .M        24                            : Elevation of Drill Floor
EGL                .M        -2165                         : Elevation of Ground Level
EKB                .M        24                            : Elevation of Kelly Bushing
EPD                .M        0                             : Elevation of Permanent Datum (PDAT) above Mean Sea Level
LMF                .         MR                            : Logging Measured From (Name of Logging Elevation Reference)
LUL                .          BRMA                         : Logging Unit Location
LUN                .         OSU-PA 7032                   : Logging Unit Number
LONG               .         -43_13_56,159                 : Longitude
MCST               .degF     77.1                          : Mudcake Sample Temperature
MFST               .degF     78.3                          : Mud Filtrate Sample Temperature
MRT                .degF     135                           : Maximum Recorded Temperature
MST                .degF     77.9                          : Mud Sample Temperature
ORIGINALWELLNAME   .         P09                           : 
PDAT               .         NM                            : Permanent Datum
PRODUCER-CODE      .         440                           : 
PRODUCER-NAME      .         Schlumberger                  : 
RMB                .ohm.m    0.0430009                     : Resistivity of Mud at Bottom Hole Temperature
RMCS               .ohm.m    0.08                          : Resistivity of Mud Cake Sample
RMFS               .ohm.m    0.062                         : Resistivity of Mud Filtrate Sample
RMS                .ohm.m    0.072                         : Resistivity of Mud Sample
RUN                .         3                             : Run Number
STAT               .         SAO PAULO                     : State or Province
TCS                .h        10_30                         : Time Circulation Stopped
TDD                .M        5301                          : Total Depth (Driller)
TDL                .M        5301.5                        : Logger Total Depth
TLAB               .h        23_45                         : Time Logging on Bottom
TLI                .M        5084                          : Top Log Interval
X                  .M        677112.00000000               : 
Y                  .M        7136745.00000000              : 
~Parameter Information Block
#_______________________________________________________________________________
#
#PARAMETER_NAME    .UNIT     VALUE                         : DESCRIPTION
#_______________________________________________________________________________
SET                .         BASE                          : 
TLFamily_BS        .         Bit Size                      : 
TLFamily_DT        .         Compressional Slowness        : 
TLFamily_DWAL      .         Aluminum Weight Fraction      : 
TLFamily_DWCA      .         Calcium Weight Fraction       : 
TLFamily_DWFE      .         Iron Weight Fraction          : 
TLFamily_DWGD      .         Gadolinium Weight Fraction    : 
TLFamily_DWS       .         Sulfur Weight Fraction        : 
TLFamily_DWSI      .         Silicon Weight Fraction       : 
TLFamily_DWTI      .         Titanium Weight Fraction      : 
TLFamily_GR        .         Gamma Ray                     : 
TLFamily_GRt       .         Gamma Ray                     : 
TLFamily_HCAL      .         Caliper                       : 
TLFamily_HDRA      .         Bulk Density Correction       : 
TLFamily_HFK       .         Potassium Concentration       : 
TLFamily_HTHO      .         Thorium Concentration         : 
TLFamily_HURA      .         Uranium Concentration         : 
TLFamily_KSDR      .         NMR Permeability              : 
TLFamily_KTIM      .         NMR Permeability              : 
TLFamily_MD        .         Measured Depth                : 
TLFamily_NMRE_Final .         NMR Bound Fluid Volume Fraction: 
TLFamily_NMRFL_Final .         NMR Free Fluids               : 
TLFamily_NMRT_Final .         NMR Porosity                  : 
TLFamily_NPHI      .         Neutron Porosity              : 
TLFamily_PE        .         Photoelectric Factor          : 
TLFamily_RD        .         Resistivity - Deep            : 
TLFamily_RHOB      .         Bulk Density                  : 
TLFamily_RM        .         Resistivity - Medium          : 
TLFamily_RS        .         Resistivity - Shallow         : 
TLFamily_T2LM      .         NMR T2 Logarithmic Mean       : 
TLFamily_TVDSS     .         True Vertical Depth Sub Sea   : 
~Curve Information
#_______________________________________________________________________________
#
#LOGNAME           .UNIT     LOG_ID                        : DESCRIPTION
#_______________________________________________________________________________
DEPTH              .M                                      :  
BS                 .in                                     : Bit Size 
DT                 .us/ft                                  : Delta-T Compressional 
DWAL               .kg/kg                                  : Dry Weight Fraction Pseudo Aluminum (SpectroLith WALK2 Model) 
DWCA               .kg/kg                                  : Dry Weight Fraction Calcium (SpectroLith WALK2 Model) 
DWFE               .kg/kg                                  : Dry Weight Fraction Iron + 0.14 Aluminum (SpectroLith WALK2 Model) 
DWGD               .ppm                                    : Dry Weight Fraction Gadolinium (SpectroLith WALK2 Model) 
DWS                .kg/kg                                  : Dry Weight Fraction Sulfur (SpectroLith WALK2 Model) 
DWSI               .kg/kg                                  : Dry Weight Fraction Silicon (SpectroLith WALK2 Model) 
DWTI               .kg/kg                                  : Dry Weight Fraction Titanium (SpectroLith WALK2 Model) 
GR                 .gAPI                                   : Gamma Ray 
GRt                .gAPI                                   : HNGS Standard Gamma-Ray 
HCAL               .in                                     : HRCC Caliper Calibrated 
HDRA               .g/cm3                                  : Density Standoff Correction 
HFK                .%                                      : HNGS Formation Potassium Concentration 
HTHO               .ppm                                    : HNGS Formation Thorium Concentration 
HURA               .ppm                                    : HNGS Formation Uranium Concentration 
KSDR               .mD                                     : SDR Permeability 
KTIM               .mD                                     : Timur/Coates Permeability 
NMRE_Final         .m3/m3                                  :  
NMRFL_Final        .unitless                               :  
NMRT_Final         .frac                                   :  
NPHI               .frac                                   : Enhanced Thermal Neutron Porosity in Selected Lithology 
PE                 .b/e                                    : Standard Resolution Formation Photoelectric Factor 
RD                 .ohm.m                                  : Apparent Resistivity from Computed Focusing Mode 5 
RHOB               .g/cm3                                  : Standard Resolution Formation Density 
RM                 .ohm.m                                  : Apparent Resistivity from Computed Focusing Mode 4 
RS                 .ohm.m                                  : Apparent Resistivity from Computed Focusing Mode 3 
T2LM               .ms                                     : T2 Logarithmic Mean 
TVDSS              .M                                      :  
~Ascii
# ...
5120.996   12.250     64.301     0.007      0.339      0.005      0.842      0.005      0.056      0.001      21.246     15.208     12.446     -0.009     0.284      0.763      0.979      38.103     30.512     0.118      0.094      0.118      0.124      4.751      1758.652   2.517      599.281    1042.142   222.338    5095.816  
5121.148   12.250     64.544     0.009      0.329      0.006      0.342      0.002      0.065      0.000      23.323     16.149     12.452     -0.010     0.279      0.782      1.093      31.173     24.905     0.112      0.090      0.112      0.122      4.736      1357.198   2.518      534.740    852.460    221.945    5095.968  
5121.300   12.250     64.713     0.011      0.329      0.006      0.281      0.000      0.064      0.000      26.194     18.825     12.458     -0.009     0.295      0.800      1.392      26.088     14.981     0.107      0.082      0.107      0.118      4.636      1260.086   2.525      516.203    783.084    225.248    5096.119  
5121.453   12.250     64.952     0.010      0.336      0.006      1.265      0.000      0.057      0.000      28.917     23.296     12.443     -0.009     0.341      0.845      1.836      23.459     8.573      0.103      0.076      0.103      0.119      4.540      1069.753   2.536      475.187    703.797    228.726    5096.271  
5121.605   12.250     65.142     0.008      0.344      0.005      2.036      0.000      0.052      0.000      31.881     28.049     12.436     -0.010     0.415      0.973      2.237      23.297     6.824      0.103      0.073      0.103      0.126      4.468      1009.791   2.546      448.909    638.583    229.554    5096.423  
5121.758   12.250     64.490     0.004      0.338      0.002      1.264      0.000      0.066      0.000      34.082     29.766     12.444     -0.008     0.468      0.994      2.340      23.993     6.949      0.102      0.073      0.102      0.112      4.329      945.262    2.567      443.093    622.655    236.028    5096.574  
5121.910   12.250     63.288     0.000      0.323      0.000      0.000      0.000      0.090      0.000      36.453     29.966     12.453     -0.007     0.482      1.009      2.311      22.447     7.297      0.102      0.074      0.102      0.091      4.201      920.291    2.580      449.150    626.369    229.126    5096.726  
5122.062   12.250     61.931     0.000      0.314      0.000      0.000      0.001      0.101      0.000      37.441     29.480     12.461     -0.006     0.495      1.006      2.221      24.039     8.730      0.106      0.077      0.107      0.090      4.149      582.315    2.585      357.448    500.511    215.807    5096.878  
5122.215   12.250     61.531     0.000      0.320      0.000      0.000      0.002      0.093      0.000      35.887     28.088     12.458     -0.009     0.472      0.961      2.141      28.245     11.302     0.113      0.082      0.114      0.103      4.254      545.452    2.575      347.963    485.187    205.354    5097.029  
5122.367   12.250     61.495     0.000      0.337      0.000      0.910      0.001      0.074      0.000      32.369     25.212     12.486     -0.011     0.424      0.945      1.901      31.058     13.846     0.117      0.086      0.117      0.112      4.386      484.581    2.570      325.804    442.866    203.060    5097.181  
5122.520   12.250     60.770     0.000      0.352      0.000      3.241      0.000      0.057      0.000      29.334     22.185     12.492     -0.010     0.368      0.925      1.621      24.451     11.580     0.116      0.083      0.116      0.120      4.471      302.281    2.577      242.451    310.656    182.429    5097.332  
5122.672   12.250     60.031     0.000      0.356      0.000      4.026      0.000      0.052      0.000      28.577     20.952     12.500     -0.009     0.338      0.928      1.549      9.847      4.527      0.109      0.070      0.109      0.114      4.485      262.564    2.594      221.569    278.317    132.454    5097.484  
5122.824   12.250     59.318     0.000      0.343      0.000      3.036      0.000      0.067      0.000      29.394     21.263     12.501     -0.006     0.366      0.940      1.532      2.472      1.128      0.095      0.052      0.098      0.097      4.423      278.899    2.622      233.466    293.260    81.772     5097.636  
5122.977   12.250     59.361     0.000      0.314      0.000      1.634      0.000      0.101      0.000      30.731     21.629     12.497     -0.004     0.402      0.924      1.482      0.737      0.409      0.084      0.040      0.092      0.085      4.289      218.886    2.651      194.929    230.878    50.471     5097.787  
5123.129   12.250     59.584     0.000      0.287      0.000      1.306      0.000      0.132      0.000      31.847     22.632     12.508     -0.003     0.432      0.935      1.524      0.539      0.503      0.085      0.042      0.098      0.086      4.068      112.536    2.671      112.354    132.991    38.133     5097.939  
5123.282   12.250     59.941     0.000      0.276      0.000      2.464      0.002      0.144      0.000      32.716     23.096     12.500     -0.004     0.410      0.920      1.638      0.922      1.154      0.090      0.052      0.107      0.096      3.865      205.158    2.666      188.138    218.898    41.825     5098.091  
5123.434   12.250     60.341     0.000      0.282      0.000      2.359      0.006      0.134      0.000      32.603     23.657     12.426     -0.005     0.387      0.924      1.751      2.384      3.051      0.103      0.066      0.118      0.116      3.698      168.246    2.651      159.862    187.789    55.828     5098.242  
5123.586   12.250     60.354     0.001      0.290      0.001      0.678      0.002      0.126      0.000      32.728     24.092     12.362     -0.005     0.385      0.931      1.833      4.891      5.386      0.109      0.074      0.119      0.137      3.607      131.026    2.635      128.177    149.534    78.242     5098.394  
5123.739   12.250     60.725     0.000      0.288      0.000      0.000      0.000      0.132      0.000      33.728     26.054     12.353     -0.003     0.394      0.952      2.068      4.569      3.622      0.100      0.067      0.103      0.131      3.449      243.758    2.640      212.457    246.117    104.517    5098.546  
5123.891   12.250     59.834     0.000      0.269      0.000      0.000      0.000      0.154      0.000      36.977     30.454     12.344     0.003      0.460      1.095      2.413      1.592      0.750      0.070      0.045      0.071      0.100      3.260      317.600    2.657      260.042    314.442    124.677    5098.697  
5124.044   12.250     58.276     0.000      0.252      0.000      0.000      0.000      0.173      0.000      43.335     36.057     12.351     0.011      0.556      1.250      2.832      2.422      0.657      0.070      0.044      0.074      0.067      3.111      208.544    2.669      189.336    227.379    142.335    5098.849  
5124.196   12.250     58.153     0.001      0.253      0.000      0.000      0.000      0.171      0.000      50.219     39.056     12.336     0.013      0.603      1.292      3.095      13.718     3.306      0.094      0.065      0.096      0.075      3.217      122.500    2.631      119.657    138.452    206.482    5099.001  
5124.348   12.250     59.911     0.001      0.282      0.001      0.000      0.000      0.136      0.000      52.058     36.953     12.338     0.013      0.571      1.171      2.919      62.975     17.322     0.123      0.091      0.123      0.140      3.592      75.595     2.563      76.561     87.367     268.015    5099.152  
5124.501   12.250     63.742     0.001      0.320      0.001      0.329      0.002      0.091      0.000      45.830     30.125     12.313     0.004      0.459      0.943      2.367      156.281    54.508     0.143      0.112      0.143      0.175      4.075      83.778     2.490      83.126     95.120     305.694    5099.304  
5124.653   12.250     65.118     0.001      0.350      0.001      1.695      0.004      0.054      0.000      35.968     22.950     12.318     0.000      0.341      0.742      1.823      210.139    89.770     0.147      0.120      0.147      0.159      4.422      336.742    2.468      263.296    307.108    334.389    5099.455  
