~Version
 VERS              .         2.0                           : CWLS LOG ASCII STANDARD - VERSION 2.0
 WRAP              .         NO                            : ONE LINE PER DEPTH STEP
 DLM               .         SPACE                         : DELIMITING CHARACTER(SPACE TAB OR COMMA)
~Well Information
#_______________________________________________________________________________
#
#PARAMETER_NAME    .UNIT     VALUE                         : DESCRIPTION
#_______________________________________________________________________________
STRT               .M        2228.000                      : First reference value
STOP               .M        5446.688                      : Last reference value
STEP               .M        0.152                         : Step increment
NULL               .         -9999                         : Missing value
COMP               .         Petrobras                     : Company
WELL               .         8-SPH-13-SPS                  : Well name
FLD                .         Sapinhoa                      : Field
LOC                .                                       : Location
CNTY               .                                       : County
STAT               .         SAO PAULO                     : State
CTRY               .         BRASIL                        : Country
SRVC               .                                       : Service Company
DATE               .                                       : Date
API                .         863160035500                  : API number
APD                .M        24                            : Above Permanent Datum
BHT                .degF     120                           : Bottom Hole Temperature
BLI                .M        5180.5                        : Bottom Log Interval
BS                 .in       12.25x14.75                   : Bit Size
DCS                .         07/04/2014                    : Date Ciculation Stopped
DFD                .lbm/gal  10.1                          : Drilling Fluid Density
DFT                .         BR-MUL                        : Drilling Fluid Type
DLAB               .         08/04/2014                    : Date Logger At Bottom
EDF                .M        24                            : Elevation of Derreck Floor
EGL                .M        -2119                         : Elevation of Ground Level
EKB                .M        -999.25                       : ELEVATION OF KELLY BUSHING
EPD                .M        0                             : Elevation Of Permanent Datum
GDAT               .         SIRGAS2000                    : Geodetic Datum
LMF                .         MR                            : Log Measured From
LUL                .         MCE                           : LOGGING UNIT LOCATION
LUN                .         -999.25                       : LOGGING UNIT NUMBER
LATI               .         -25_42_39.196                 : Latitude
LONG               .         -43_09_15.905                 : Longitude
MCST               .degF     -999.25                       : Mud Cake Sample Temperature
MFST               .degF     -999.25                       : Mud Filtrate Sample Temperature
MRT                .degF     120                           : Maximum Recorded Temperature
MST                .degF     -999.25                       : Mud Sample Temperature
ORIGINALWELLNAME   .         8SPH 0013  SPS                : 
PDAT               .         NM                            : Permanent Datum
PRODUCER-CODE      .         15                            : 
PRODUCER-NAME      .         INTEQ                         : 
RMB                .ohm.m    -999.25                       : RESISTIVITY OF MUD - BHT
RMCS               .ohm.m    -999.25                       : Resistivity Of Mud Cake Sample
RMFS               .ohm.m    -999.25                       : Mud Filtrate Sample Resistivity
RMS                .ohm.m    -999.25                       : Mud Sample Resistivity
RUN                .         1                             : Run
TCS                .h        15_00                         : Time Ciculation Stopped
TDD                .M        5184                          : Total Depht - Driller
TDL                .M        5184                          : Total Depht - Logger
TLAB               .h        11_00                         : Time Logger At Bottom
TLI                .M        3543                          : Top Log Interval
X                  .M        685128.30900000               : X COORDINATE N
Y                  .M        7155027.01100000              : Y COORDINATE E
~Parameter Information Block
#_______________________________________________________________________________
#
#PARAMETER_NAME    .UNIT     VALUE                         : DESCRIPTION
#_______________________________________________________________________________
SET                .         BASE                          : 
TLFamily_DT        .         Compressional Slowness        : 
TLFamily_GR        .         Gamma Ray                     : 
TLFamily_HCAL      .         Caliper                       : 
TLFamily_MD        .         Measured Depth                : 
TLFamily_NMRE_Final .         NMR Bound Fluid Volume Fraction: 
TLFamily_NMRFL_Final .         NMR Free Fluids               : 
TLFamily_NMRT_Final .         NMR Porosity                  : 
TLFamily_NPHI      .         Neutron Porosity              : 
TLFamily_RD        .         Resistivity - Deep            : 
TLFamily_RHOB      .         Bulk Density                  : 
TLFamily_RM        .         Resistivity - Medium          : 
TLFamily_RS        .         Resistivity - Shallow         : 
~Curve Information
#_______________________________________________________________________________
#
#LOGNAME           .UNIT     LOG_ID                        : DESCRIPTION
#_______________________________________________________________________________
DEPTH              .M                                      :  
DT                 .us/ft                                  : SONICO COMPRESSIONAL (COMPOSICAO DE CURVAS CABO E/OU LWD) 
GR                 .gAPI                                   : RAIOS GAMA (COMPOSICAO DE CURVAS CABO E/OU LWD) 
HCAL               .in                                     : CALIPER (COMPOSICAO DE CURVAS CABO E/OU LWD) 
NMRE_Final         .m3/m3                                  : 03/02 - MRIL (HALLIBURTON) - MRIL EFFECTIVE POROSITY 
NMRFL_Final        .unitless                               : 03/02 - MRIL (HALLIBURTON) - FREE FLUID INDEX T2 
NMRT_Final         .frac                                   : 03/02 - MRIL (HALLIBURTON) - MRIAN MRIL TOTAL POROSITY 
NPHI               .frac                                   : POROSIDADE NEUTRONICA (COMPOSICAO DE CURVAS CABO E/OU LWD) 
RD                 .ohm.m                                  : RESISTIVIDADE PROFUNDA (COMPOSICAO DE CURVAS CABO E/OU LWD) 
RHOB               .g/cm3                                  : DENSIDADE (COMPOSICAO DE CURVAS CABO E/OU LWD ) 
RM                 .ohm.m                                  : RESISTIVIDADE MEDIA (COMPOSICAO DE CURVAS CABO E/OU LWD) 
RS                 .ohm.m                                  : RESISTIVIDADE RASA (COMPOSICAO DE CURVAS CABO E/OU LWD) 
~Ascii
# ...
5305.108   68.222     24.819     12.284     0.073      0.006      0.112      0.185      4.266      2.546      5.046      5.046     
5305.261   67.174     24.178     12.284     0.078      0.007      0.089      0.176      4.080      2.560      4.953      4.953     
5305.413   66.432     23.665     12.286     0.073      0.007      0.077      0.170      3.912      2.561      4.659      4.659     
5305.566   65.988     22.289     12.294     0.072      0.007      0.075      0.169      3.760      2.552      4.484      4.484     
5305.718   65.954     21.363     12.295     0.075      0.008      0.086      0.171      3.547      2.544      4.259      4.259     
5305.870   66.212     19.302     12.314     0.076      0.008      0.092      0.168      3.318      2.540      4.006      4.006     
5306.023   66.817     18.560     12.322     0.077      0.007      0.095      0.168      3.220      2.533      3.842      3.842     
5306.175   67.789     19.250     12.320     0.080      0.008      0.092      0.173      3.095      2.528      3.616      3.616     
5306.328   68.947     19.882     12.315     0.082      0.009      0.092      0.181      3.000      2.523      3.320      3.320     
5306.480   70.150     21.811     12.318     0.082      0.012      0.094      0.195      2.894      2.507      2.947      2.947     
5306.632   71.124     22.225     12.297     0.086      0.016      0.103      0.212      2.788      2.483      2.802      2.802     
5306.785   72.293     21.551     12.286     0.089      0.019      0.114      0.208      2.624      2.475      2.662      2.662     
5306.937   73.396     21.678     12.290     0.094      0.019      0.126      0.193      2.531      2.486      2.522      2.522     
5307.090   74.243     20.454     12.301     0.101      0.020      0.131      0.194      2.484      2.503      2.285      2.285     
5307.242   74.706     20.217     12.313     0.110      0.020      0.132      0.208      2.478      2.511      2.177      2.177     
5307.394   74.701     23.021     12.316     0.119      0.024      0.130      0.226      2.483      2.505      2.250      2.250     
5307.547   74.508     25.312     12.320     0.125      0.026      0.131      0.242      2.494      2.489      2.356      2.356     
5307.699   74.273     27.875     12.329     0.126      0.025      0.139      0.235      2.520      2.472      2.502      2.502     
5307.852   73.922     30.129     12.324     0.122      0.022      0.140      0.222      2.574      2.467      2.766      2.766     
5308.004   73.769     33.481     12.319     0.115      0.017      0.137      0.215      2.611      2.485      2.889      2.889     
5308.156   74.140     35.450     12.314     0.096      0.013      0.113      0.210      2.634      2.506      2.952      2.952     
5308.309   74.914     41.131     12.318     0.078      0.011      0.090      0.214      2.678      2.511      3.061      3.061     
5308.461   75.775     46.509     12.322     0.064      0.008      0.070      0.217      2.747      2.510      3.225      3.225     
5308.614   76.474     51.211     12.324     0.054      0.006      0.061      0.215      2.794      2.507      3.323      3.323     
5308.766   76.919     49.813     12.325     0.048      0.005      0.058      0.220      2.846      2.502      3.420      3.420     
5308.918   77.262     42.349     12.334     0.056      0.005      0.071      0.225      2.868      2.495      3.463      3.463     
5309.071   77.380     32.903     12.328     0.064      0.005      0.082      0.228      2.872      2.482      3.510      3.510     
5309.223   77.087     32.568     12.312     0.073      0.005      0.091      0.227      2.869      2.469      3.546      3.546     
5309.376   76.677     33.983     12.314     0.085      0.004      0.096      0.230      2.845      2.470      3.466      3.466     
5309.528   76.262     32.512     12.331     0.097      0.004      0.101      0.239      2.812      2.476      3.207      3.207     
5309.680   75.681     26.524     12.332     0.104      0.004      0.109      0.238      2.747      2.476      3.041      3.041     
5309.833   75.074     22.619     12.302     0.114      0.004      0.119      0.237      2.670      2.469      2.801      2.801     
5309.985   74.596     20.474     12.282     0.126      0.005      0.132      0.240      2.587      2.465      2.556      2.556     
5310.138   74.364     20.426     12.300     0.133      0.007      0.140      0.244      2.509      2.473      2.455      2.455     
5310.290   74.302     20.237     12.314     0.135      0.009      0.143      0.239      2.475      2.483      2.429      2.429     
5310.442   74.340     21.124     12.311     0.123      0.011      0.136      0.235      2.442      2.485      2.401      2.401     
5310.595   74.491     24.115     12.326     0.109      0.009      0.131      0.231      2.424      2.484      2.400      2.400     
5310.747   74.764     25.073     12.327     0.095      0.007      0.129      0.229      2.415      2.488      2.407      2.407     
5310.900   75.220     24.585     12.300     0.108      0.004      0.131      0.237      2.412      2.485      2.407      2.407     
5311.052   75.848     26.819     12.289     0.118      0.003      0.135      0.242      2.419      2.469      2.404      2.404     
5311.204   76.434     37.348     12.293     0.122      0.003      0.141      0.245      2.432      2.457      2.428      2.428     
5311.357   76.786     46.700     12.304     0.114      0.002      0.142      0.254      2.464      2.457      2.471      2.471     
5311.509   77.171     56.136     12.330     0.098      0.001      0.140      0.250      2.524      2.470      2.597      2.597     
5311.662   77.837     52.583     12.358     0.066      0.002      0.136      0.241      2.587      2.486      2.672      2.672     
5311.814   78.678     44.945     12.360     0.047      0.004      0.126      0.239      2.650      2.489      2.716      2.716     
5311.966   79.432     33.336     12.348     0.045      0.005      0.109      0.239      2.699      2.483      2.809      2.809     
5312.119   80.489     30.065     12.330     0.055      0.006      0.103      0.244      2.742      2.474      2.889      2.889     
5312.271   82.039     34.701     12.319     0.068      0.007      0.100      0.251      2.806      2.465      2.925      2.925     
5312.424   83.808     39.750     12.318     0.070      0.007      0.101      0.263      2.880      2.451      2.927      2.927     
5312.576   85.464     38.593     12.321     0.068      0.006      0.107      0.285      3.010      2.431      2.818      2.818     
5312.728   86.411     33.026     12.344     0.060      0.004      0.118      0.298      3.052      2.414      2.869      2.869     
5312.881   86.514     29.092     12.374     0.056      0.004      0.123      0.278      3.133      2.424      3.324      3.324     
5313.033   86.176     31.113     12.390     0.058      0.005      0.123      0.267      3.215      2.445      3.599      3.599     
5313.186   85.629     34.083     12.384     0.080      0.009      0.112      0.269      3.285      2.458      3.695      3.695     
5313.338   84.890     36.183     12.382     0.088      0.011      0.109      0.266      3.328      2.458      3.723      3.723     
5313.490   84.173     36.099     12.367     0.088      0.012      0.112      0.268      3.431      2.442      3.431      3.431     
5313.643   83.784     33.316     12.337     0.083      0.009      0.109      0.275      3.475      2.426      3.324      3.324     
5313.795   83.572     31.662     12.335     0.074      0.006      0.103      0.270      3.564      2.430      3.178      3.178     
5313.948   83.481     31.615     12.345     0.059      0.005      0.092      0.263      3.639      2.445      3.144      3.144     
5314.100   83.625     35.540     12.358     0.049      0.003      0.089      0.268      3.797      2.456      3.236      3.236     
5314.252   83.809     40.479     12.358     0.042      0.001      0.089      0.272      3.863      2.463      3.330      3.330     
