~Version
 VERS              .         2.0                           : CWLS LOG ASCII STANDARD - VERSION 2.0
 WRAP              .         NO                            : ONE LINE PER DEPTH STEP
 DLM               .         SPACE                         : DELIMITING CHARACTER(SPACE TAB OR COMMA)
~Well Information
#_______________________________________________________________________________
#
#PARAMETER_NAME    .UNIT     VALUE                         : DESCRIPTION
#_______________________________________________________________________________
STRT               .M        5060.036                      : First reference value
STOP               .M        5304.790                      : Last reference value
STEP               .M        0.152                         : Step increment
NULL               .         -9999                         : Missing value
COMP               .         PETROBRAS                     : Company
WELL               .         8-SPH-11-SPS                  : Well name
FLD                .         SAPINHOA                      : Field
LOC                .                                       : Location
PROV               .                                       : Province
SRVC               .                                       : Service Company
DATE               .         23/09/2015                    : Date
UWI                .         8-SPH-11-SPS                  : Unique Well ID
APD                .M        24                            : Elevation of Depth Reference (LMF) Above Permanent Datum
API                .                                       : API NUMBER
BHS                .         OPEN                          : Borehole Status (Open or Cased Hole)
BHT                .degF     135                           : Bottom Hole Temperature
BLI                .M        5299.5                        : Bottom Log Interval
BS                 .in       12.25                         : Bit Size
CBDR               .M        5086                          : Casing Bottom (Driller)
CBLO               .M        5084                          : Casing Bottom (Logger)
CSIZ               .in       14                            : Casing Outer Diameter
CWEI               .lbm/ft   115                           : Casing Weight
CTRY               .         BRASIL                        : Nation
DCS                .         22/09/2015                    : Date Circulation Stopped
DFD                .lb/gal   9.7                           : Drilling Fluid Density
DFT                .         Cationico Flex Drill(Base Agua): Drilling Fluid Type
DLAB               .         23/09/2015                    : Date Logging on Bottom
EDF                .M        24                            : Elevation of Drill Floor
EGL                .M        -2165                         : Elevation of Ground Level
EKB                .M        24                            : Elevation of Kelly Bushing
EPD                .M        0                             : Elevation of Permanent Datum (PDAT) above Mean Sea Level
LMF                .         MR                            : Logging Measured From (Name of Logging Elevation Reference)
LUL                .          BRMA                         : Logging Unit Location
LUN                .         OSU-PA 7032                   : Logging Unit Number
LONG               .         -43_13_56,159                 : Longitude
MCST               .degF     77.1                          : Mudcake Sample Temperature
MFST               .degF     78.3                          : Mud Filtrate Sample Temperature
MRT                .degF     135                           : Maximum Recorded Temperature
MST                .degF     77.9                          : Mud Sample Temperature
ORIGINALWELLNAME   .         P09                           : 
PDAT               .         NM                            : Permanent Datum
PRODUCER-CODE      .         440                           : 
PRODUCER-NAME      .         Schlumberger                  : 
RMB                .ohm.m    0.0430009                     : Resistivity of Mud at Bottom Hole Temperature
RMCS               .ohm.m    0.08                          : Resistivity of Mud Cake Sample
RMFS               .ohm.m    0.062                         : Resistivity of Mud Filtrate Sample
RMS                .ohm.m    0.072                         : Resistivity of Mud Sample
RUN                .         3                             : Run Number
STAT               .         SAO PAULO                     : State or Province
TCS                .h        10_30                         : Time Circulation Stopped
TDD                .M        5301                          : Total Depth (Driller)
TDL                .M        5301.5                        : Logger Total Depth
TLAB               .h        23_45                         : Time Logging on Bottom
TLI                .M        5084                          : Top Log Interval
X                  .M        677112.00000000               : 
Y                  .M        7136745.00000000              : 
~Parameter Information Block
#_______________________________________________________________________________
#
#PARAMETER_NAME    .UNIT     VALUE                         : DESCRIPTION
#_______________________________________________________________________________
SET                .         BASE                          : 
TLFamily_BS        .         Bit Size                      : 
TLFamily_DT        .         Compressional Slowness        : 
TLFamily_DWAL      .         Aluminum Weight Fraction      : 
TLFamily_DWCA      .         Calcium Weight Fraction       : 
TLFamily_DWFE      .         Iron Weight Fraction          : 
TLFamily_DWGD      .         Gadolinium Weight Fraction    : 
TLFamily_DWS       .         Sulfur Weight Fraction        : 
TLFamily_DWSI      .         Silicon Weight Fraction       : 
TLFamily_DWTI      .         Titanium Weight Fraction      : 
TLFamily_GR        .         Gamma Ray                     : 
TLFamily_GRt       .         Gamma Ray                     : 
TLFamily_HCAL      .         Caliper                       : 
TLFamily_HDRA      .         Bulk Density Correction       : 
TLFamily_HFK       .         Potassium Concentration       : 
TLFamily_HTHO      .         Thorium Concentration         : 
TLFamily_HURA      .         Uranium Concentration         : 
TLFamily_KSDR      .         NMR Permeability              : 
TLFamily_KTIM      .         NMR Permeability              : 
TLFamily_MD        .         Measured Depth                : 
TLFamily_NMRE_Final .         NMR Bound Fluid Volume Fraction: 
TLFamily_NMRFL_Final .         NMR Free Fluids               : 
TLFamily_NMRT_Final .         NMR Porosity                  : 
TLFamily_NPHI      .         Neutron Porosity              : 
TLFamily_PE        .         Photoelectric Factor          : 
TLFamily_RD        .         Resistivity - Deep            : 
TLFamily_RHOB      .         Bulk Density                  : 
TLFamily_RM        .         Resistivity - Medium          : 
TLFamily_RS        .         Resistivity - Shallow         : 
TLFamily_T2LM      .         NMR T2 Logarithmic Mean       : 
TLFamily_TVDSS     .         True Vertical Depth Sub Sea   : 
~Curve Information
#_______________________________________________________________________________
#
#LOGNAME           .UNIT     LOG_ID                        : DESCRIPTION
#_______________________________________________________________________________
DEPTH              .M                                      :  
BS                 .in                                     : Bit Size 
DT                 .us/ft                                  : Delta-T Compressional 
DWAL               .kg/kg                                  : Dry Weight Fraction Pseudo Aluminum (SpectroLith WALK2 Model) 
DWCA               .kg/kg                                  : Dry Weight Fraction Calcium (SpectroLith WALK2 Model) 
DWFE               .kg/kg                                  : Dry Weight Fraction Iron + 0.14 Aluminum (SpectroLith WALK2 Model) 
DWGD               .ppm                                    : Dry Weight Fraction Gadolinium (SpectroLith WALK2 Model) 
DWS                .kg/kg                                  : Dry Weight Fraction Sulfur (SpectroLith WALK2 Model) 
DWSI               .kg/kg                                  : Dry Weight Fraction Silicon (SpectroLith WALK2 Model) 
DWTI               .kg/kg                                  : Dry Weight Fraction Titanium (SpectroLith WALK2 Model) 
GR                 .gAPI                                   : Gamma Ray 
GRt                .gAPI                                   : HNGS Standard Gamma-Ray 
HCAL               .in                                     : HRCC Caliper Calibrated 
HDRA               .g/cm3                                  : Density Standoff Correction 
HFK                .%                                      : HNGS Formation Potassium Concentration 
HTHO               .ppm                                    : HNGS Formation Thorium Concentration 
HURA               .ppm                                    : HNGS Formation Uranium Concentration 
KSDR               .mD                                     : SDR Permeability 
KTIM               .mD                                     : Timur/Coates Permeability 
NMRE_Final         .m3/m3                                  :  
NMRFL_Final        .unitless                               :  
NMRT_Final         .frac                                   :  
NPHI               .frac                                   : Enhanced Thermal Neutron Porosity in Selected Lithology 
PE                 .b/e                                    : Standard Resolution Formation Photoelectric Factor 
RD                 .ohm.m                                  : Apparent Resistivity from Computed Focusing Mode 5 
RHOB               .g/cm3                                  : Standard Resolution Formation Density 
RM                 .ohm.m                                  : Apparent Resistivity from Computed Focusing Mode 4 
RS                 .ohm.m                                  : Apparent Resistivity from Computed Focusing Mode 3 
T2LM               .ms                                     : T2 Logarithmic Mean 
TVDSS              .M                                      :  
~Ascii
# ...
5193.386   12.250     50.086     0.000      0.352      0.000      0.000      0.018      0.047      0.000      24.833     21.532     12.566     0.008      0.418      1.039      1.238      0.089      0.057      0.058      0.023      0.071      0.038      4.358      102.351    2.790      72.660     60.584     29.789     5167.870  
5193.538   12.250     50.146     0.001      0.337      0.000      0.269      0.016      0.065      0.001      25.169     21.311     12.484     0.010      0.424      1.011      1.198      0.142      0.108      0.069      0.027      0.081      0.034      4.057      71.457     2.828      55.309     48.673     28.581     5168.022  
5193.690   12.250     50.226     0.000      0.319      0.000      2.357      0.008      0.091      0.000      25.419     20.149     12.488     0.002      0.404      0.908      1.133      0.211      0.113      0.071      0.028      0.079      0.034      3.807      44.886     2.815      37.611     35.528     37.459     5168.174  
5193.843   12.250     50.280     0.000      0.307      0.000      6.033      0.001      0.108      0.000      24.753     18.116     12.480     0.001      0.364      0.802      1.018      0.242      0.062      0.064      0.024      0.066      0.043      3.559      58.872     2.787      46.058     42.067     56.703     5168.325  
5193.995   12.250     50.488     0.000      0.300      0.000      6.694      0.000      0.117      0.000      24.122     16.634     12.485     0.006      0.320      0.704      0.988      0.187      0.025      0.055      0.019      0.055      0.048      3.403      86.399     2.764      60.922     52.777     71.518     5168.477  
5194.148   12.250     50.871     0.001      0.301      0.000      4.362      0.000      0.115      0.001      23.153     16.397     12.475     0.014      0.299      0.698      1.026      0.090      0.008      0.050      0.013      0.050      0.044      3.386      76.259     2.747      59.557     52.599     60.910     5168.629  
5194.300   12.250     51.608     0.001      0.302      0.000      1.115      0.000      0.114      0.002      23.533     17.529     12.475     0.015      0.312      0.727      1.139      0.024      0.001      0.046      0.007      0.046      0.039      3.592      47.977     2.721      41.492     39.267     36.416     5168.780  
5194.452   12.250     53.302     0.001      0.289      0.000      0.000      0.000      0.129      0.001      24.159     19.624     12.414     0.007      0.338      0.804      1.330      0.014      0.002      0.044      0.009      0.044      0.037      3.798      57.206     2.695      47.994     44.293     30.734     5168.932  
5194.605   12.250     55.347     0.003      0.267      0.002      0.000      0.000      0.151      0.000      26.837     22.637     12.394     0.002      0.384      0.950      1.566      0.022      0.014      0.044      0.017      0.045      0.036      3.715      66.753     2.691      54.302     49.092     37.769     5169.084  
5194.757   12.250     56.421     0.008      0.253      0.004      0.000      0.000      0.158      0.000      29.619     24.760     12.390     -0.003     0.423      1.111      1.703      0.086      0.084      0.049      0.027      0.052      0.040      3.455      118.382    2.690      82.128     67.579     54.722     5169.236  
5194.910   12.250     55.939     0.009      0.264      0.005      0.000      0.000      0.144      0.000      31.405     24.700     12.396     -0.004     0.421      1.241      1.609      0.369      0.438      0.057      0.039      0.062      0.053      3.346      90.784     2.677      68.519     59.451     80.086     5169.387  
5195.062   12.250     53.908     0.008      0.284      0.005      0.000      0.004      0.120      0.000      30.508     22.937     12.388     -0.008     0.366      1.118      1.543      0.470      0.577      0.058      0.041      0.063      0.054      3.631      32.126     2.658      29.304     29.401     85.337     5169.539  
5195.214   12.250     52.030     0.007      0.294      0.005      0.000      0.011      0.105      0.000      28.713     21.295     12.415     -0.010     0.314      0.998      1.512      0.679      0.659      0.060      0.044      0.063      0.035      4.038      26.053     2.651      24.248     24.886     102.408    5169.691  
5195.367   12.250     51.848     0.008      0.297      0.006      0.000      0.010      0.100      0.000      27.225     20.480     12.414     -0.011     0.290      0.961      1.466      0.847      0.699      0.062      0.046      0.063      0.029      4.221      43.129     2.659      37.751     36.520     117.345    5169.843  
5195.519   12.250     52.071     0.007      0.299      0.004      0.072      0.004      0.104      0.001      26.398     20.179     12.409     -0.011     0.284      0.856      1.463      0.470      0.515      0.057      0.041      0.060      0.031      4.118      56.142     2.678      46.993     43.489     95.377     5169.994  
5195.672   12.250     51.132     0.004      0.305      0.002      1.422      0.000      0.106      0.001      26.319     20.374     12.387     -0.010     0.300      0.840      1.463      0.259      0.278      0.049      0.036      0.055      0.034      3.920      18.454     2.707      17.789     18.312     84.226     5170.146  
5195.824   12.250     50.712     0.000      0.318      0.000      5.165      0.000      0.095      0.001      26.399     22.018     12.462     -0.008     0.340      0.902      1.543      0.589      0.339      0.059      0.038      0.064      0.044      3.879      13.422     2.722      13.387     13.979     94.201     5170.298  
5195.976   12.250     52.697     0.002      0.339      0.001      8.373      0.000      0.068      0.002      27.638     25.519     12.471     -0.002     0.393      1.143      1.770      1.717      0.546      0.078      0.043      0.081      0.055      3.903      43.868     2.719      39.085     36.366     101.364    5170.449  
5196.129   12.250     54.509     0.007      0.359      0.003      8.907      0.001      0.037      0.002      28.625     27.895     12.495     0.003      0.433      1.296      1.911      3.580      0.820      0.095      0.048      0.097      0.062      3.982      75.157     2.702      59.671     51.804     99.653     5170.601  
5196.281   12.250     56.840     0.010      0.364      0.006      6.972      0.002      0.024      0.001      29.983     28.268     12.503     0.004      0.450      1.342      1.893      3.457      0.819      0.101      0.048      0.103      0.058      4.077      91.361     2.700      68.559     57.709     87.781     5170.753  
5196.434   12.250     60.297     0.008      0.361      0.005      3.827      0.001      0.030      0.000      29.954     26.866     12.503     0.003      0.427      1.294      1.792      0.676      0.276      0.085      0.035      0.097      0.047      4.185      100.484    2.697      73.019     60.599     43.915     5170.905  
5196.586   12.250     64.337     0.007      0.352      0.004      0.796      0.001      0.045      0.000      29.332     24.876     12.532     0.001      0.389      1.158      1.732      0.040      0.028      0.057      0.019      0.075      0.061      4.281      72.115     2.676      57.751     49.930     18.332     5171.056  
5196.738   12.250     68.291     0.005      0.346      0.004      0.000      0.003      0.052      0.000      28.232     23.268     12.538     -0.000     0.368      1.131      1.624      0.005      0.003      0.040      0.008      0.061      0.102      4.338      12.035     2.638      12.186     12.911     9.731      5171.208  
5196.891   12.250     73.226     0.007      0.341      0.005      0.000      0.006      0.053      0.000      29.224     22.459     12.531     0.007      0.357      1.135      1.540      0.006      0.002      0.046      0.007      0.067      0.128      4.365      8.609      2.600      8.941      9.635      9.332      5171.360  
5197.043   12.250     78.009     0.008      0.334      0.005      0.000      0.007      0.060      0.000      32.038     23.385     12.512     0.037      0.358      1.247      1.635      0.127      0.049      0.074      0.019      0.097      0.141      4.372      7.549      2.564      7.875      8.517      19.262     5171.511  
