~Version
 VERS              .         2.0                           : CWLS LOG ASCII STANDARD - VERSION 2.0
 WRAP              .         NO                            : ONE LINE PER DEPTH STEP
 DLM               .         SPACE                         : DELIMITING CHARACTER(SPACE TAB OR COMMA)
~Well Information
#_______________________________________________________________________________
#
#PARAMETER_NAME    .UNIT     VALUE                         : DESCRIPTION
#_______________________________________________________________________________
STRT               .M        2228.000                      : First reference value
STOP               .M        5446.688                      : Last reference value
STEP               .M        0.152                         : Step increment
NULL               .         -9999                         : Missing value
COMP               .         Petrobras                     : Company
WELL               .         8-SPH-13-SPS                  : Well name
FLD                .         Sapinhoa                      : Field
LOC                .                                       : Location
CNTY               .                                       : County
STAT               .         SAO PAULO                     : State
CTRY               .         BRASIL                        : Country
SRVC               .                                       : Service Company
DATE               .                                       : Date
API                .         863160035500                  : API number
APD                .M        24                            : Above Permanent Datum
BHT                .degF     120                           : Bottom Hole Temperature
BLI                .M        5180.5                        : Bottom Log Interval
BS                 .in       12.25x14.75                   : Bit Size
DCS                .         07/04/2014                    : Date Ciculation Stopped
DFD                .lbm/gal  10.1                          : Drilling Fluid Density
DFT                .         BR-MUL                        : Drilling Fluid Type
DLAB               .         08/04/2014                    : Date Logger At Bottom
EDF                .M        24                            : Elevation of Derreck Floor
EGL                .M        -2119                         : Elevation of Ground Level
EKB                .M        -999.25                       : ELEVATION OF KELLY BUSHING
EPD                .M        0                             : Elevation Of Permanent Datum
GDAT               .         SIRGAS2000                    : Geodetic Datum
LMF                .         MR                            : Log Measured From
LUL                .         MCE                           : LOGGING UNIT LOCATION
LUN                .         -999.25                       : LOGGING UNIT NUMBER
LATI               .         -25_42_39.196                 : Latitude
LONG               .         -43_09_15.905                 : Longitude
MCST               .degF     -999.25                       : Mud Cake Sample Temperature
MFST               .degF     -999.25                       : Mud Filtrate Sample Temperature
MRT                .degF     120                           : Maximum Recorded Temperature
MST                .degF     -999.25                       : Mud Sample Temperature
ORIGINALWELLNAME   .         8SPH 0013  SPS                : 
PDAT               .         NM                            : Permanent Datum
PRODUCER-CODE      .         15                            : 
PRODUCER-NAME      .         INTEQ                         : 
RMB                .ohm.m    -999.25                       : RESISTIVITY OF MUD - BHT
RMCS               .ohm.m    -999.25                       : Resistivity Of Mud Cake Sample
RMFS               .ohm.m    -999.25                       : Mud Filtrate Sample Resistivity
RMS                .ohm.m    -999.25                       : Mud Sample Resistivity
RUN                .         1                             : Run
TCS                .h        15_00                         : Time Ciculation Stopped
TDD                .M        5184                          : Total Depht - Driller
TDL                .M        5184                          : Total Depht - Logger
TLAB               .h        11_00                         : Time Logger At Bottom
TLI                .M        3543                          : Top Log Interval
X                  .M        685128.30900000               : X COORDINATE N
Y                  .M        7155027.01100000              : Y COORDINATE E
~Parameter Information Block
#_______________________________________________________________________________
#
#PARAMETER_NAME    .UNIT     VALUE                         : DESCRIPTION
#_______________________________________________________________________________
SET                .         BASE                          : 
TLFamily_DT        .         Compressional Slowness        : 
TLFamily_GR        .         Gamma Ray                     : 
TLFamily_HCAL      .         Caliper                       : 
TLFamily_MD        .         Measured Depth                : 
TLFamily_NMRE_Final .         NMR Bound Fluid Volume Fraction: 
TLFamily_NMRFL_Final .         NMR Free Fluids               : 
TLFamily_NMRT_Final .         NMR Porosity                  : 
TLFamily_NPHI      .         Neutron Porosity              : 
TLFamily_RD        .         Resistivity - Deep            : 
TLFamily_RHOB      .         Bulk Density                  : 
TLFamily_RM        .         Resistivity - Medium          : 
TLFamily_RS        .         Resistivity - Shallow         : 
~Curve Information
#_______________________________________________________________________________
#
#LOGNAME           .UNIT     LOG_ID                        : DESCRIPTION
#_______________________________________________________________________________
DEPTH              .M                                      :  
DT                 .us/ft                                  : SONICO COMPRESSIONAL (COMPOSICAO DE CURVAS CABO E/OU LWD) 
GR                 .gAPI                                   : RAIOS GAMA (COMPOSICAO DE CURVAS CABO E/OU LWD) 
HCAL               .in                                     : CALIPER (COMPOSICAO DE CURVAS CABO E/OU LWD) 
NMRE_Final         .m3/m3                                  : 03/02 - MRIL (HALLIBURTON) - MRIL EFFECTIVE POROSITY 
NMRFL_Final        .unitless                               : 03/02 - MRIL (HALLIBURTON) - FREE FLUID INDEX T2 
NMRT_Final         .frac                                   : 03/02 - MRIL (HALLIBURTON) - MRIAN MRIL TOTAL POROSITY 
NPHI               .frac                                   : POROSIDADE NEUTRONICA (COMPOSICAO DE CURVAS CABO E/OU LWD) 
RD                 .ohm.m                                  : RESISTIVIDADE PROFUNDA (COMPOSICAO DE CURVAS CABO E/OU LWD) 
RHOB               .g/cm3                                  : DENSIDADE (COMPOSICAO DE CURVAS CABO E/OU LWD ) 
RM                 .ohm.m                                  : RESISTIVIDADE MEDIA (COMPOSICAO DE CURVAS CABO E/OU LWD) 
RS                 .ohm.m                                  : RESISTIVIDADE RASA (COMPOSICAO DE CURVAS CABO E/OU LWD) 
~Ascii
# ...
4301.097   67.909     5.673      14.673     -9999.000  -9999.000  -9999.000  -0.029     1548.523   2.046      1702.633   1702.633  
4301.250   67.873     5.829      14.674     -9999.000  -9999.000  -9999.000  -0.029     1577.524   2.044      1447.188   1447.188  
4301.402   67.885     5.662      14.672     -9999.000  -9999.000  -9999.000  -0.028     1598.351   2.044      1648.429   1648.429  
4301.554   67.925     5.655      14.671     -9999.000  -9999.000  -9999.000  -0.028     1592.697   2.047      1112.273   1112.273  
4301.707   68.005     5.660      14.673     -9999.000  -9999.000  -9999.000  -0.028     1571.488   2.052      1277.883   1277.883  
4301.859   68.263     6.276      14.678     -9999.000  -9999.000  -9999.000  -0.029     1559.899   2.053      1544.886   1544.886  
4302.012   68.588     6.621      14.681     -9999.000  -9999.000  -9999.000  -0.028     1536.946   2.052      1669.518   1669.518  
4302.164   68.704     6.138      14.685     -9999.000  -9999.000  -9999.000  -0.028     1517.698   2.054      1979.320   1979.320  
4302.316   68.517     5.573      14.686     -9999.000  -9999.000  -9999.000  -0.029     1501.724   2.058      1446.124   1446.124  
4302.469   68.550     5.187      14.686     -9999.000  -9999.000  -9999.000  -0.029     1503.652   2.062      1705.472   1705.472  
4302.621   68.956     5.058      14.686     -9999.000  -9999.000  -9999.000  -0.029     1521.178   2.064      1393.629   1393.629  
4302.774   69.311     4.791      14.685     -9999.000  -9999.000  -9999.000  -0.029     1543.759   2.057      1544.886   1544.886  
4302.926   69.480     4.694      14.685     -9999.000  -9999.000  -9999.000  -0.029     1540.351   2.045      1476.198   1476.198  
4303.078   69.508     5.016      14.686     -9999.000  -9999.000  -9999.000  -0.029     1508.463   2.036      1205.937   1205.937  
4303.231   69.379     5.029      14.688     -9999.000  -9999.000  -9999.000  -0.029     1472.948   2.035      1327.175   1327.175  
4303.383   68.976     4.783      14.689     -9999.000  -9999.000  -9999.000  -0.029     1427.418   2.039      1746.262   1746.262  
4303.536   68.379     4.941      14.688     -9999.000  -9999.000  -9999.000  -0.030     1404.423   2.039      1506.478   1506.478  
4303.688   67.985     5.050      14.688     -9999.000  -9999.000  -9999.000  -0.030     1384.320   2.039      1443.285   1443.285  
4303.840   67.874     5.207      14.690     -9999.000  -9999.000  -9999.000  -0.029     1382.241   2.043      1746.565   1746.565  
4303.993   67.858     5.141      14.691     -9999.000  -9999.000  -9999.000  -0.029     1409.913   2.046      1544.886   1544.886  
4304.145   67.949     5.102      14.690     -9999.000  -9999.000  -9999.000  -0.029     1451.425   2.045      1544.886   1544.886  
4304.298   68.167     5.565      14.688     -9999.000  -9999.000  -9999.000  -0.029     1544.874   2.044      1664.245   1664.245  
4304.450   68.231     5.454      14.689     -9999.000  -9999.000  -9999.000  -0.030     1626.778   2.046      1986.273   1986.273  
4304.602   68.039     4.795      14.692     -9999.000  -9999.000  -9999.000  -0.030     1734.588   2.049      1354.229   1354.229  
4304.755   67.947     4.573      14.693     -9999.000  -9999.000  -9999.000  -0.030     1775.749   2.051      1391.415   1391.415  
4304.907   67.998     4.703      14.692     -9999.000  -9999.000  -9999.000  -0.030     1785.575   2.047      1544.886   1544.886  
4305.060   68.263     5.027      14.692     -9999.000  -9999.000  -9999.000  -0.030     1765.749   2.039      1507.853   1507.853  
4305.212   68.718     5.789      14.694     -9999.000  -9999.000  -9999.000  -0.030     1699.791   2.034      1507.190   1507.190  
4305.364   68.917     5.883      14.693     -9999.000  -9999.000  -9999.000  -0.030     1644.181   2.033      2027.338   2027.338  
4305.517   68.747     5.778      14.694     -9999.000  -9999.000  -9999.000  -0.030     1584.014   2.035      1544.886   1544.886  
4305.669   68.717     5.772      14.693     -9999.000  -9999.000  -9999.000  -0.030     1503.288   2.038      1544.886   1544.886  
4305.822   68.631     5.461      14.695     -9999.000  -9999.000  -9999.000  -0.030     1465.194   2.038      1508.158   1508.158  
4305.974   68.568     4.713      14.698     -9999.000  -9999.000  -9999.000  -0.030     1432.992   2.031      1390.880   1390.880  
4306.126   68.590     4.775      14.700     -9999.000  -9999.000  -9999.000  -0.031     1430.013   2.024      1544.886   1544.886  
4306.279   68.695     5.520      14.696     -9999.000  -9999.000  -9999.000  -0.031     1433.383   2.028      1508.998   1508.998  
4306.431   68.828     6.120      14.695     -9999.000  -9999.000  -9999.000  -0.031     1429.875   2.038      1502.449   1502.449  
4306.584   68.793     5.877      14.695     -9999.000  -9999.000  -9999.000  -0.031     1422.925   2.045      2031.172   2031.172  
4306.736   68.455     5.517      14.694     -9999.000  -9999.000  -9999.000  -0.031     1421.906   2.049      1544.886   1544.886  
4306.888   68.197     5.604      14.693     -9999.000  -9999.000  -9999.000  -0.031     1431.760   2.051      1508.693   1508.693  
4307.041   68.203     5.230      14.694     -9999.000  -9999.000  -9999.000  -0.031     1452.502   2.050      1436.721   1436.721  
4307.193   68.484     4.434      14.694     -9999.000  -9999.000  -9999.000  -0.031     1506.281   2.043      1714.874   1714.874  
4307.346   68.713     4.704      14.691     -9999.000  -9999.000  -9999.000  -0.031     1551.544   2.035      1389.659   1389.659  
4307.498   68.603     6.170      14.692     -9999.000  -9999.000  -9999.000  -0.031     1595.411   2.032      1482.035   1482.035  
4307.650   68.326     6.277      14.694     -9999.000  -9999.000  -9999.000  -0.030     1602.570   2.034      1267.566   1267.566  
4307.803   68.201     5.407      14.696     -9999.000  -9999.000  -9999.000  -0.031     1577.308   2.041      1544.886   1544.886  
4307.955   68.288     5.552      14.697     -9999.000  -9999.000  -9999.000  -0.031     1553.790   2.045      1544.886   1544.886  
4308.108   68.613     6.228      14.696     -9999.000  -9999.000  -9999.000  -0.031     1534.504   2.047      1544.886   1544.886  
4308.260   68.706     6.204      14.695     -9999.000  -9999.000  -9999.000  -0.030     1535.137   2.047      1544.886   1544.886  
4308.412   68.452     5.853      14.693     -9999.000  -9999.000  -9999.000  -0.030     1536.766   2.044      1510.602   1510.602  
4308.565   68.305     5.652      14.691     -9999.000  -9999.000  -9999.000  -0.030     1523.715   2.038      1388.437   1388.437  
4308.717   68.384     5.652      14.691     -9999.000  -9999.000  -9999.000  -0.031     1508.662   2.033      1484.207   1484.207  
4308.870   68.454     5.804      14.693     -9999.000  -9999.000  -9999.000  -0.031     1483.931   2.033      1311.546   1311.546  
4309.022   68.484     5.986      14.693     -9999.000  -9999.000  -9999.000  -0.031     1467.773   2.032      1718.245   1718.245  
4309.174   68.470     5.483      14.694     -9999.000  -9999.000  -9999.000  -0.031     1449.614   2.032      1354.229   1354.229  
4309.327   68.242     5.009      14.695     -9999.000  -9999.000  -9999.000  -0.031     1447.807   2.033      1431.577   1431.577  
4309.479   68.124     4.819      14.697     -9999.000  -9999.000  -9999.000  -0.031     1455.699   2.037      1692.290   1692.290  
4309.632   68.243     5.421      14.696     -9999.000  -9999.000  -9999.000  -0.031     1464.609   2.042      1310.599   1310.599  
4309.784   68.151     5.982      14.695     -9999.000  -9999.000  -9999.000  -0.031     1480.198   2.047      1718.954   1718.954  
4309.936   68.016     5.299      14.695     -9999.000  -9999.000  -9999.000  -0.031     1491.758   2.049      1387.215   1387.215  
4310.089   67.980     4.352      14.696     -9999.000  -9999.000  -9999.000  -0.031     1501.447   2.047      1544.886   1544.886  
4310.241   68.040     4.773      14.695     -9999.000  -9999.000  -9999.000  -0.031     1503.172   2.045      1544.886   1544.886  
