~Version
 VERS              .         2.0                           : CWLS LOG ASCII STANDARD - VERSION 2.0
 WRAP              .         NO                            : ONE LINE PER DEPTH STEP
 DLM               .         SPACE                         : DELIMITING CHARACTER(SPACE TAB OR COMMA)
~Well Information
#_______________________________________________________________________________
#
#PARAMETER_NAME    .UNIT     VALUE                         : DESCRIPTION
#_______________________________________________________________________________
STRT               .M        5159.045                      : First reference value
STOP               .M        5591.861                      : Last reference value
STEP               .M        0.152                         : Step increment
NULL               .         -9999                         : Missing value
COMP               .         PETROBRAS                     : Company
WELL               .         8-SPH-19D-SPS                 : Well name
FLD                .         SAPINHOA                      : Field
LOC                .                                       : Location
PROV               .                                       : Province
SRVC               .                                       : Service Company
DATE               .         2020-11-17 00_10_26           : Date
UWI                .         8SPH0019DSPS                  : Unique Well ID
APD                .M        26                            : Above Permanent Datum
API                .                                       : API NUMBER
BHT                .degF     150                           : Bottom Hole Temperature
BLI                .M        5581.8                        : Bottom Log Interval
BS                 .in       12.25                         : Bit Size
CNTY               .                                       : County
CTRY               .         BRASIL                        : Nation
DCS                .         04/08/2015                    : Date Ciculation Stopped
DFD                .lbm/gal  9.5                           : Drilling Fluid Density
DFT                .         NAO AQUOSO (BASE OLEFINA)     : Drilling Fluid Type
DLAB               .         05/08/2015                    : Date Logger At Bottom
EDF                .M        26                            : Elevation of Derreck Floor
EGL                .M        -2132                         : Elevation of Ground Level
EKB                .M        -999.25                       : Elevation of Kelly Bushing
EPD                .M        0                             : Elevation Of Permanent Datum
GDAT               .         SIRGAS2000                    : Geodetic Datum
LMF                .         MR                            : Log Measured From
LATI               .         -25_46_45.710                 : Latitude
LONG               .         -43_12_21,306                 : Longitude
MCST               .degF     -999.25                       : Mud Cake Sample Temperature
MFST               .degF     -999.25                       : Mud Filtrate Sample Temperature
MRT                .degF     150                           : Maximum Recorded Temperature
MST                .degF     -999.25                       : Mud Sample Temperature
ORIGINALWELLNAME   .         8-sph-19d-sps_petrobras       : 
PDAT               .         NM                            : Permanent Datum
PRODUCER-CODE      .         150                           : 
PRODUCER-NAME      .         ATLAS                         : 
RMB                .ohm.m    -999.25                       : Resistivity Of Mud - BHT
RMCS               .ohm.m    -999.25                       : Resistivity Of Mud Cake Sample
RMFS               .ohm.m    -999.25                       : Mud Filtrate Sample Resistivity
RMS                .ohm.m    -999.25                       : Mud Sample Resistivity
RUN                .         2                             : Run Number
STAT               .         SAO PAULO                     : State
TCS                .h        02_00                         : Time Ciculation Stopped
TDD                .M        5583                          : Total Depht - Driller
TDL                .M        5585.4                        : Total Depht - Logger
TLAB               .h        18_45                         : Time Logger At Bottom
TLI                .M        5200                          : Top Log Interval
X                  .M        679908.00000000               : Surface X
Y                  .M        7148113.00000000              : Surface Y
~Parameter Information Block
#_______________________________________________________________________________
#
#PARAMETER_NAME    .UNIT     VALUE                         : DESCRIPTION
#_______________________________________________________________________________
SET                .         BASE                          : 
TLFamily_BS        .         Bit Size                      : 
TLFamily_DT        .         Compressional Slowness        : 
TLFamily_DWAL      .         Aluminum Weight Fraction      : 
TLFamily_DWCA      .         Calcium Weight Fraction       : 
TLFamily_DWFE      .         Iron Weight Fraction          : 
TLFamily_DWGD      .         Gadolinium Weight Fraction    : 
TLFamily_DWK       .         Potassium Weight Fraction     : 
TLFamily_DWMG      .         Magnesium Weight Fraction     : 
TLFamily_DWMN      .         Manganese Weight Fraction     : 
TLFamily_DWS       .         Sulfur Weight Fraction        : 
TLFamily_DWSI      .         Silicon Weight Fraction       : 
TLFamily_DWTI      .         Titanium Weight Fraction      : 
TLFamily_GR        .         Gamma Ray                     : 
TLFamily_GRt       .         Gamma Ray                     : 
TLFamily_HCAL      .         Caliper                       : 
TLFamily_HDRA      .         Bulk Density Correction       : 
TLFamily_HFK       .         Potassium Concentration       : 
TLFamily_HTHO      .         Thorium Concentration         : 
TLFamily_HURA      .         Uranium Concentration         : 
TLFamily_MD        .         Measured Depth                : 
TLFamily_MPERM     .         NMR Permeability              : 
TLFamily_NMRE_Final .         NMR Bound Fluid Volume Fraction: 
TLFamily_NMRFL_Final .         NMR Free Fluids               : 
TLFamily_NMRT_Final .         NMR Porosity                  : 
TLFamily_NPHI      .         Neutron Porosity              : 
TLFamily_PE        .         Photoelectric Factor          : 
TLFamily_RD        .         Resistivity - Deep            : 
TLFamily_RHOB      .         Bulk Density                  : 
TLFamily_RM        .         Resistivity - Medium          : 
TLFamily_RS        .         Resistivity - Shallow         : 
TLFamily_TVDSS     .         True Vertical Depth Sub Sea   : 
~Curve Information
#_______________________________________________________________________________
#
#LOGNAME           .UNIT     LOG_ID                        : DESCRIPTION
#_______________________________________________________________________________
DEPTH              .M                                      :  
BS                 .in                                     :  
DT                 .us/ft                                  : SONICO COMPRESSIONAL (COMPOSICAO DE CURVAS CABO E/OU LWD) 
DWAL               .kg/kg                                  :  
DWCA               .kg/kg                                  :  
DWFE               .kg/kg                                  :  
DWGD               .ppm                                    :  
DWK                .kg/kg                                  :  
DWMG               .kg/kg                                  :  
DWMN               .kg/kg                                  :  
DWS                .kg/kg                                  :  
DWSI               .kg/kg                                  :  
DWTI               .kg/kg                                  :  
GR                 .gAPI                                   :  
GRt                .gAPI                                   :  
HCAL               .in                                     : CALIPER (COMPOSICAO DE CURVAS CABO E/OU LWD) 
HDRA               .g/cm3                                  : Density Delta Rho Filtered 
HFK                .%                                      :  
HTHO               .ppm                                    :  
HURA               .ppm                                    :  
MPERM              .mD                                     :  
NMRE_Final         .m3/m3                                  :  
NMRFL_Final        .unitless                               :  
NMRT_Final         .frac                                   :  
NPHI               .frac                                   : Neutron Porosity Limestone Filtered 
PE                 .b/e                                    : Density PE Filtered 
RD                 .ohm.m                                  : Vertical 2-foot resolution matched resistivity, 90-inch DOI 
RHOB               .g/cm3                                  : Bulk Density Filtered 
RM                 .ohm.m                                  : Vertical 2-foot resolution matched resistivity, 30-inch DOI 
RS                 .ohm.m                                  : Vertical 2-foot resolution matched resistivity, 10-inch DOI 
TVDSS              .M                                      :  
~Ascii
# ...
5257.800   12.250     58.850     0.006      0.373      0.003      2.707      0.000      0.016      0.001      0.001      0.109      0.000      10.090     10.143     12.307     0.094      0.184      0.963      0.835      9.154      0.104      0.077      0.108      0.119      5.918      981.928    2.613      965.985    959.548    5096.770  
5257.952   12.250     59.706     0.006      0.368      0.005      2.441      0.000      0.018      0.001      0.001      0.113      0.000      11.752     11.809     12.310     0.091      0.172      0.954      1.034      20.561     0.092      0.077      0.100      0.124      5.917      1081.128   2.606      1077.374   1110.137   5096.911  
5258.105   12.250     60.172     0.006      0.363      0.007      2.293      0.000      0.020      0.001      0.001      0.111      0.000      15.293     15.390     12.306     0.089      0.185      1.046      1.343      9.758      0.086      0.070      0.092      0.131      5.960      1180.307   2.598      1188.786   1244.052   5097.052  
5258.257   12.250     60.074     0.007      0.355      0.008      2.276      0.000      0.024      0.001      0.001      0.107      0.000      18.907     19.053     12.303     0.088      0.199      1.225      1.642      1.782      0.079      0.054      0.084      0.138      6.033      1262.733   2.591      1280.217   1328.064   5097.193  
5258.410   12.250     59.488     0.008      0.342      0.008      2.286      0.001      0.028      0.001      0.001      0.105      0.000      20.775     20.937     12.304     0.089      0.194      1.366      1.836      0.454      0.071      0.041      0.077      0.142      6.126      1322.233   2.587      1345.797   1356.021   5097.334  
5258.562   12.250     58.551     0.008      0.325      0.008      2.185      0.002      0.031      0.001      0.001      0.106      0.000      21.276     21.430     12.306     0.091      0.183      1.423      1.966      0.309      0.068      0.037      0.073      0.143      6.206      1360.927   2.587      1392.778   1365.241   5097.475  
5258.714   12.250     57.380     0.008      0.313      0.007      1.977      0.005      0.032      0.001      0.001      0.108      0.001      21.381     21.531     12.309     0.090      0.177      1.450      2.084      0.594      0.069      0.043      0.071      0.142      6.227      1399.328   2.586      1460.130   1559.236   5097.616  
5258.867   12.250     56.325     0.008      0.311      0.008      1.819      0.006      0.032      0.001      0.001      0.107      0.001      21.488     21.636     12.308     0.087      0.174      1.471      2.190      2.353      0.066      0.051      0.066      0.141      6.210      1422.172   2.585      1531.239   2050.513   5097.757  
5259.019   12.250     55.125     0.008      0.321      0.008      1.779      0.004      0.031      0.001      0.001      0.102      0.001      22.246     22.385     12.327     0.086      0.180      1.449      2.318      11.312     0.065      0.058      0.066      0.140      6.162      1347.308   2.584      1469.008   2196.434   5097.898  
5259.172   12.250     54.418     0.008      0.336      0.008      1.789      0.002      0.032      0.001      0.001      0.095      0.001      25.808     25.957     12.339     0.085      0.213      1.427      2.642      7.825      0.070      0.059      0.070      0.139      6.095      1142.231   2.583      1227.893   1808.238   5098.039  
5259.324   12.250     54.212     0.009      0.346      0.008      1.814      0.001      0.034      0.001      0.001      0.092      0.002      34.241     34.439     12.340     0.088      0.268      1.521      3.327      4.254      0.069      0.056      0.069      0.137      6.045      788.391    2.593      855.572    1200.970   5098.180  
5259.476   12.250     53.950     0.009      0.349      0.007      1.921      0.001      0.034      0.001      0.001      0.097      0.002      43.996     44.246     12.322     0.092      0.303      1.659      3.938      5.567      0.065      0.055      0.065      0.134      6.030      450.770    2.612      474.125    641.822    5098.321  
5259.629   12.250     53.664     0.009      0.348      0.007      2.143      0.001      0.030      0.001      0.001      0.107      0.003      46.730     46.986     12.315     0.096      0.312      1.697      4.063      8.668      0.064      0.056      0.064      0.129      6.033      268.352    2.630      272.111    291.382    5098.462  
5259.781   12.250     53.584     0.009      0.345      0.006      2.423      0.001      0.025      0.001      0.001      0.115      0.002      40.224     40.438     12.307     0.099      0.344      1.612      3.682      4.701      0.072      0.058      0.072      0.122      5.993      157.762    2.643      155.077    150.751    5098.603  
5259.934   12.250     53.667     0.008      0.340      0.006      2.656      0.001      0.024      0.001      0.001      0.119      0.001      31.415     31.592     12.308     0.101      0.409      1.414      2.839      3.489      0.076      0.058      0.076      0.115      5.912      109.663    2.647      106.082    101.343    5098.744  
5260.086   12.250     53.428     0.007      0.331      0.006      2.741      0.001      0.027      0.001      0.001      0.115      0.000      25.902     26.061     12.309     0.103      0.448      1.263      2.039      4.081      0.067      0.055      0.069      0.111      5.862      98.485     2.647      94.951     91.559     5098.885  
5260.238   12.250     53.396     0.007      0.321      0.005      2.657      0.002      0.031      0.001      0.001      0.109      0.000      22.846     22.984     12.309     0.102      0.433      1.220      1.584      5.461      0.061      0.053      0.067      0.105      5.872      114.682    2.646      111.449    109.072    5099.026  
5260.391   12.250     53.642     0.007      0.314      0.004      2.496      0.004      0.032      0.001      0.001      0.103      0.001      19.885     20.005     12.307     0.099      0.381      1.182      1.307      2.321      0.066      0.051      0.074      0.102      5.979      170.798    2.645      170.166    170.458    5099.167  
5260.543   12.250     53.801     0.007      0.318      0.002      2.402      0.005      0.030      0.001      0.001      0.100      0.002      16.869     16.982     12.312     0.093      0.310      1.155      1.165      1.437      0.069      0.049      0.079      0.105      6.164      283.372    2.639      295.537    316.251    5099.309  
5260.696   12.250     53.678     0.007      0.337      0.002      2.442      0.004      0.026      0.001      0.001      0.096      0.002      14.769     14.875     12.323     0.091      0.254      1.166      1.147      0.961      0.070      0.047      0.082      0.109      6.215      414.999    2.634      450.601    557.308    5099.450  
5260.848   12.250     53.376     0.007      0.363      0.003      2.558      0.003      0.024      0.001      0.001      0.089      0.001      14.270     14.363     12.342     0.091      0.225      1.186      1.185      0.780      0.066      0.044      0.076      0.114      6.134      469.326    2.625      514.236    686.005    5099.591  
5261.000   12.250     53.035     0.007      0.385      0.005      2.659      0.002      0.024      0.001      0.001      0.078      0.001      14.950     15.037     12.342     0.091      0.207      1.195      1.241      0.665      0.056      0.041      0.063      0.117      6.061      445.238    2.616      475.867    625.379    5099.732  
5261.153   12.250     53.048     0.007      0.397      0.005      2.731      0.002      0.023      0.001      0.001      0.070      0.001      15.885     15.974     12.331     0.090      0.195      1.204      1.296      1.321      0.048      0.040      0.055      0.117      6.057      356.141    2.608      370.973    434.474    5099.873  
5261.305   12.250     53.123     0.007      0.399      0.003      2.785      0.002      0.021      0.001      0.001      0.066      0.001      16.746     16.842     12.331     0.093      0.190      1.206      1.316      3.644      0.045      0.042      0.049      0.114      6.136      225.517    2.610      228.385    238.995    5100.014  
