~Version
 VERS              .         2.0                           : CWLS LOG ASCII STANDARD - VERSION 2.0
 WRAP              .         NO                            : ONE LINE PER DEPTH STEP
 DLM               .         SPACE                         : DELIMITING CHARACTER(SPACE TAB OR COMMA)
~Well Information
#_______________________________________________________________________________
#
#PARAMETER_NAME    .UNIT     VALUE                         : DESCRIPTION
#_______________________________________________________________________________
STRT               .M        5027.447                      : First reference value
STOP               .M        5499.430                      : Last reference value
STEP               .M        0.152                         : Step increment
NULL               .         -9999                         : Missing value
COMP               .         PETROBRAS                     : Company
WELL               .         8-SPH-10-SPS                  : Well name
FLD                .         SAPINHOA                      : Field
LOC                .                                       : Location
PROV               .                                       : Province
SRVC               .                                       : Service Company
DATE               .         2021-09-13 11_18_58           : Date
UWI                .         8-SPH-10-SPS                  : Unique Well ID
APD                .M        24                            : Above Permanent Datum
API                .                                       : API NUMBER
BHT                .degF     153                           : Bottom Hole Temperature
BLI                .M        5494.8                        : Bottom Log Interval
BS                 .in       8.5                           : Bit Size
CTRY               .         BRASIL                        : Nation
DCS                .         15/06/2015                    : Date Ciculation Stopped
DFD                .lb/gal   9.7                           : Drilling Fluid Density
DFT                .         CATIONICO FLEX DRILL (BASE AGUA): Drilling Fluid Type
DLAB               .         18/06/2015                    : Date Logger At Bottom
EDF                .M        24                            : Elevation of Derreck Floor
EGL                .M        -2125                         : Elevation of Ground Level
EKB                .M        -999.25                       : Elevation of Kelly Bushing
EPD                .M        0                             : Elevation Of Permanent Datum
LMF                .         MR                            : Log Measured From
LONG               .         -43_10_14,760                 : Longitude
MCST               .degF     67                            : Mud Cake Sample Temperature
MFST               .degF     67                            : Mud Filtrate Sample Temperature
MRT                .degF     153                           : Maximum Recorded Temperature
MST                .degF     67                            : Mud Sample Temperature
ORIGINALWELLNAME   .         P08                           : 
PDAT               .         NM                            : Permanent Datum
PRODUCER-CODE      .         150                           : 
PRODUCER-NAME      .         ATLAS                         : 
RMB                .ohm.m    -999.25                       : Resistivity Of Mud - BHT
RMCS               .ohm.m    0.078                         : Resistivity Of Mud Cake Sample
RMFS               .ohm.m    0.064                         : Mud Filtrate Sample Resistivity
RMS                .ohm.m    0.071                         : Mud Sample Resistivity
RUN                .         3                             : Run Number
STAT               .         SAO PAULO                     : State
TCS                .h        22_00                         : Time Ciculation Stopped
TDD                .M        5496                          : Total Depht - Driller
TDL                .M        5495.5                        : Total Depht - Logger
TLAB               .h        10_45                         : Time Logger At Bottom
TLI                .M        5114                          : Top Log Interval
X                  .M        683623.00000000               : 
Y                  .M        7161727.00000000              : 
~Parameter Information Block
#_______________________________________________________________________________
#
#PARAMETER_NAME    .UNIT     VALUE                         : DESCRIPTION
#_______________________________________________________________________________
SET                .         BASE                          : 
TLFamily_BS        .         Bit Size                      : 
TLFamily_DT        .         Compressional Slowness        : 
TLFamily_DWAL      .         Aluminum Weight Fraction      : 
TLFamily_DWCA      .         Calcium Weight Fraction       : 
TLFamily_DWFE      .         Iron Weight Fraction          : 
TLFamily_DWGD      .         Gadolinium Weight Fraction    : 
TLFamily_DWK       .         Potassium Weight Fraction     : 
TLFamily_DWMG      .         Magnesium Weight Fraction     : 
TLFamily_DWMN      .         Manganese Weight Fraction     : 
TLFamily_DWS       .         Sulfur Weight Fraction        : 
TLFamily_DWSI      .         Silicon Weight Fraction       : 
TLFamily_DWTI      .         Titanium Weight Fraction      : 
TLFamily_GR        .         Gamma Ray                     : 
TLFamily_GRt       .         Gamma Ray                     : 
TLFamily_HCAL      .         Caliper                       : 
TLFamily_HDRA      .         Bulk Density Correction       : 
TLFamily_HFK       .         Potassium Concentration       : 
TLFamily_HTHO      .         Thorium Concentration         : 
TLFamily_HURA      .         Uranium Concentration         : 
TLFamily_MD        .         Measured Depth                : 
TLFamily_MPERM     .         NMR Permeability              : 
TLFamily_NMRE_Final .         NMR Bound Fluid Volume Fraction: 
TLFamily_NMRFL_Final .         NMR Free Fluids               : 
TLFamily_NMRT_Final .         NMR Porosity                  : 
TLFamily_NPHI      .         Neutron Porosity              : 
TLFamily_PE        .         Photoelectric Factor          : 
TLFamily_RD        .         Resistivity - Deep            : 
TLFamily_RHOB      .         Bulk Density                  : 
TLFamily_RS        .         Resistivity - Shallow         : 
TLFamily_TVDSS     .         True Vertical Depth Sub Sea   : 
~Curve Information
#_______________________________________________________________________________
#
#LOGNAME           .UNIT     LOG_ID                        : DESCRIPTION
#_______________________________________________________________________________
DEPTH              .M                                      :  
BS                 .in                                     : Bit size 
DT                 .us/ft                                  : Slowness over 24-inch interval 
DWAL               .kg/kg                                  : Weight fraction of aluminum derived from thorium in dry rock 
DWCA               .kg/kg                                  : Weight fraction of calcium in dry rock 
DWFE               .kg/kg                                  : Weight fraction of iron in dry rock 
DWGD               .ppm                                    : Weight fraction of gadolinium in dry rock 
DWK                .kg/kg                                  : Weight fraction of potassium in dry rock 
DWMG               .kg/kg                                  : Weight fraction of magnesium in dry rock 
DWMN               .kg/kg                                  : Weight fraction of manganese in dry rock 
DWS                .kg/kg                                  : Weight fraction of sulfur in dry rock 
DWSI               .kg/kg                                  : Weight fraction of silicon in dry rock 
DWTI               .kg/kg                                  : Weight fraction of titanium in dry rock 
GR                 .gAPI                                   : Gamma ray 
GRt                .gAPI                                   : Gamma ray from 1329 spectrum 
HCAL               .in                                     : Caliper 
HDRA               .g/cm3                                  : Density correction 
HFK                .%                                      : Potassium content 
HTHO               .ppm                                    : Thorium concentration 
HURA               .ppm                                    : Uranium content 
MPERM              .mD                                     : MR permeability 
NMRE_Final         .m3/m3                                  : MR effective porosity 
NMRFL_Final        .unitless                               : MR moveable fluids 
NMRT_Final         .frac                                   : MR total porosity 
NPHI               .frac                                   : Borehole size corrected compensated neutron porosity 
PE                 .b/e                                    : Photo electric cross-section 
RD                 .ohm.m                                  : Deep resistivity 
RHOB               .g/cm3                                  : Formation bulk density 
RS                 .ohm.m                                  : Shallow resistivity 
TVDSS              .M                                      :  
~Ascii
# ...
5236.997   8.500      55.820     0.007      0.283      0.001      1.576      0.007      0.033      0.001      0.001      0.055      0.001      23.810     23.911     8.834      -0.011     0.318      1.350      1.753      0.597      0.076      0.043      0.076      0.101      4.264      20.021     2.614      52.678     5212.672  
5237.150   8.500      55.257     0.007      0.282      0.000      1.539      0.007      0.031      0.001      0.001      0.060      0.001      23.236     23.332     8.833      -0.013     0.319      1.361      1.745      0.521      0.075      0.042      0.076      0.105      3.946      19.402     2.623      52.612     5212.824  
5237.302   8.500      54.761     0.007      0.283      0.001      1.442      0.007      0.028      0.001      0.001      0.067      0.001      22.667     22.755     8.833      -0.014     0.319      1.350      1.763      0.372      0.072      0.039      0.077      0.100      3.843      19.392     2.639      54.164     5212.976  
5237.455   8.500      54.286     0.007      0.283      0.001      1.309      0.007      0.026      0.001      0.001      0.074      0.001      22.856     22.945     8.834      -0.014     0.318      1.330      1.806      0.208      0.064      0.034      0.074      0.090      3.979      18.789     2.659      53.649     5213.129  
5237.607   8.500      54.241     0.007      0.282      0.001      1.205      0.006      0.027      0.001      0.001      0.080      0.002      24.739     24.838     8.834      -0.013     0.322      1.294      1.948      0.086      0.051      0.027      0.065      0.081      4.069      17.179     2.674      49.741     5213.281  
5237.759   8.500      54.538     0.007      0.277      0.002      1.172      0.006      0.028      0.001      0.001      0.084      0.002      29.021     29.141     8.835      -0.011     0.337      1.336      2.342      0.032      0.044      0.021      0.059      0.075      4.051      14.409     2.677      41.781     5213.433  
5237.912   8.500      55.067     0.007      0.268      0.002      1.212      0.006      0.030      0.001      0.001      0.087      0.002      36.544     36.698     8.835      -0.009     0.340      1.463      3.216      0.019      0.048      0.018      0.060      0.076      4.132      10.989     2.667      31.202     5213.586  
5238.064   8.500      55.436     0.007      0.260      0.002      1.298      0.005      0.030      0.001      0.001      0.091      0.002      46.743     46.937     8.836      -0.007     0.311      1.555      4.484      0.020      0.051      0.018      0.062      0.085      4.307      8.635      2.653      23.388     5213.738  
5238.217   8.500      55.708     0.007      0.258      0.001      1.377      0.004      0.028      0.001      0.001      0.097      0.002      56.892     57.119     8.836      -0.007     0.282      1.520      5.719      0.017      0.048      0.017      0.060      0.091      4.431      8.069      2.643      20.983     5213.890  
5238.369   8.500      55.739     0.007      0.258      0.001      1.397      0.003      0.024      0.001      0.001      0.106      0.001      64.476     64.733     8.835      -0.008     0.305      1.406      6.526      0.015      0.044      0.017      0.058      0.091      4.487      8.559      2.640      22.092     5214.043  
5238.521   8.500      55.720     0.007      0.256      0.000      1.344      0.002      0.019      0.001      0.001      0.117      0.001      68.997     69.279     8.836      -0.010     0.380      1.342      6.805      0.015      0.041      0.017      0.057      0.094      4.472      9.625      2.636      25.447     5214.195  
5238.674   8.500      56.134     0.007      0.247      0.000      1.261      0.004      0.017      0.001      0.001      0.126      0.002      71.319     71.615     8.836      -0.012     0.448      1.340      6.795      0.015      0.043      0.017      0.060      0.100      4.372      11.062     2.622      30.512     5214.348  
5238.826   8.500      56.932     0.007      0.236      0.000      1.222      0.006      0.019      0.001      0.001      0.128      0.003      71.324     71.620     8.835      -0.013     0.500      1.357      6.686      0.028      0.055      0.020      0.068      0.107      4.306      12.171     2.602      34.751     5214.500  
5238.979   8.500      58.550     0.007      0.226      0.000      1.262      0.009      0.025      0.001      0.001      0.124      0.004      67.862     68.145     8.835      -0.012     0.595      1.409      6.301      0.033      0.060      0.020      0.070      0.116      4.348      12.460     2.583      35.866     5214.652  
5239.131   8.500      59.736     0.007      0.221      0.001      1.358      0.011      0.032      0.001      0.001      0.116      0.004      62.024     62.283     8.836      -0.011     0.693      1.470      5.596      0.057      0.064      0.024      0.075      0.126      4.375      12.556     2.571      35.685     5214.805  
5239.283   8.500      60.788     0.007      0.221      0.001      1.480      0.012      0.041      0.001      0.001      0.107      0.003      56.358     56.593     8.836      -0.011     0.704      1.451      4.881      0.161      0.070      0.032      0.087      0.132      4.292      13.084     2.571      37.058     5214.957  
5239.436   8.500      60.718     0.007      0.225      0.002      1.614      0.009      0.053      0.001      0.001      0.101      0.002      49.432     49.638     8.834      -0.011     0.684      1.389      4.205      0.348      0.073      0.038      0.092      0.128      4.123      13.661     2.589      39.641     5215.109  
5239.588   8.500      59.288     0.007      0.227      0.002      1.696      0.005      0.063      0.001      0.001      0.101      0.001      41.870     42.042     8.833      -0.009     0.682      1.364      3.715      0.270      0.063      0.036      0.072      0.114      3.875      13.425     2.615      40.326     5215.262  
5239.741   8.500      58.346     0.008      0.225      0.003      1.658      0.002      0.070      0.001      0.001      0.109      0.000      40.483     40.646     8.834      -0.008     0.717      1.399      3.585      0.110      0.055      0.029      0.058      0.097      3.664      11.898     2.626      36.510     5215.414  
5239.893   8.500      56.899     0.009      0.215      0.003      1.504      0.003      0.072      0.001      0.001      0.120      0.000      48.468     48.668     8.835      -0.008     1.003      1.751      3.528      0.034      0.054      0.021      0.059      0.086      3.721      9.453      2.618      28.910     5215.567  
5240.045   8.500      56.556     0.011      0.202      0.002      1.333      0.007      0.067      0.001      0.001      0.128      0.000      60.028     60.272     8.835      -0.005     1.404      2.351      3.517      0.012      0.054      0.015      0.069      0.090      4.083      7.335      2.607      21.767     5215.719  
5240.198   8.500      57.431     0.012      0.187      0.002      1.268      0.015      0.056      0.001      0.001      0.130      0.001      67.419     67.684     8.836      0.002      1.565      2.679      3.583      0.006      0.051      0.012      0.066      0.110      4.485      6.384      2.606      18.283     5215.871  
5240.350   8.500      58.915     0.013      0.177      0.001      1.392      0.021      0.043      0.001      0.001      0.125      0.001      67.830     68.100     8.837      0.008      1.552      2.708      3.606      0.011      0.052      0.015      0.061      0.128      4.643      6.520      2.611      18.212     5216.024  
5240.503   8.500      60.228     0.012      0.177      0.001      1.697      0.022      0.035      0.001      0.001      0.116      0.002      63.437     63.705     8.837      0.013      1.436      2.634      3.619      0.035      0.054      0.021      0.061      0.134      4.578      7.228      2.613      19.905     5216.176  
5240.655   8.500      60.940     0.012      0.188      0.001      2.068      0.019      0.033      0.001      0.001      0.109      0.002      57.116     57.365     8.836      0.017      1.235      2.413      3.542      0.089      0.056      0.027      0.066      0.132      4.449      7.838      2.619      21.478     5216.328  
