~Version
 VERS              .         2.0                           : CWLS LOG ASCII STANDARD - VERSION 2.0
 WRAP              .         NO                            : ONE LINE PER DEPTH STEP
 DLM               .         SPACE                         : DELIMITING CHARACTER(SPACE TAB OR COMMA)
~Well Information
#_______________________________________________________________________________
#
#PARAMETER_NAME    .UNIT     VALUE                         : DESCRIPTION
#_______________________________________________________________________________
STRT               .M        5159.045                      : First reference value
STOP               .M        5591.861                      : Last reference value
STEP               .M        0.152                         : Step increment
NULL               .         -9999                         : Missing value
COMP               .         PETROBRAS                     : Company
WELL               .         8-SPH-19D-SPS                 : Well name
FLD                .         SAPINHOA                      : Field
LOC                .                                       : Location
PROV               .                                       : Province
SRVC               .                                       : Service Company
DATE               .         2020-11-17 00_10_26           : Date
UWI                .         8SPH0019DSPS                  : Unique Well ID
APD                .M        26                            : Above Permanent Datum
API                .                                       : API NUMBER
BHT                .degF     150                           : Bottom Hole Temperature
BLI                .M        5581.8                        : Bottom Log Interval
BS                 .in       12.25                         : Bit Size
CNTY               .                                       : County
CTRY               .         BRASIL                        : Nation
DCS                .         04/08/2015                    : Date Ciculation Stopped
DFD                .lbm/gal  9.5                           : Drilling Fluid Density
DFT                .         NAO AQUOSO (BASE OLEFINA)     : Drilling Fluid Type
DLAB               .         05/08/2015                    : Date Logger At Bottom
EDF                .M        26                            : Elevation of Derreck Floor
EGL                .M        -2132                         : Elevation of Ground Level
EKB                .M        -999.25                       : Elevation of Kelly Bushing
EPD                .M        0                             : Elevation Of Permanent Datum
GDAT               .         SIRGAS2000                    : Geodetic Datum
LMF                .         MR                            : Log Measured From
LATI               .         -25_46_45.710                 : Latitude
LONG               .         -43_12_21,306                 : Longitude
MCST               .degF     -999.25                       : Mud Cake Sample Temperature
MFST               .degF     -999.25                       : Mud Filtrate Sample Temperature
MRT                .degF     150                           : Maximum Recorded Temperature
MST                .degF     -999.25                       : Mud Sample Temperature
ORIGINALWELLNAME   .         8-sph-19d-sps_petrobras       : 
PDAT               .         NM                            : Permanent Datum
PRODUCER-CODE      .         150                           : 
PRODUCER-NAME      .         ATLAS                         : 
RMB                .ohm.m    -999.25                       : Resistivity Of Mud - BHT
RMCS               .ohm.m    -999.25                       : Resistivity Of Mud Cake Sample
RMFS               .ohm.m    -999.25                       : Mud Filtrate Sample Resistivity
RMS                .ohm.m    -999.25                       : Mud Sample Resistivity
RUN                .         2                             : Run Number
STAT               .         SAO PAULO                     : State
TCS                .h        02_00                         : Time Ciculation Stopped
TDD                .M        5583                          : Total Depht - Driller
TDL                .M        5585.4                        : Total Depht - Logger
TLAB               .h        18_45                         : Time Logger At Bottom
TLI                .M        5200                          : Top Log Interval
X                  .M        679908.00000000               : Surface X
Y                  .M        7148113.00000000              : Surface Y
~Parameter Information Block
#_______________________________________________________________________________
#
#PARAMETER_NAME    .UNIT     VALUE                         : DESCRIPTION
#_______________________________________________________________________________
SET                .         BASE                          : 
TLFamily_BS        .         Bit Size                      : 
TLFamily_DT        .         Compressional Slowness        : 
TLFamily_DWAL      .         Aluminum Weight Fraction      : 
TLFamily_DWCA      .         Calcium Weight Fraction       : 
TLFamily_DWFE      .         Iron Weight Fraction          : 
TLFamily_DWGD      .         Gadolinium Weight Fraction    : 
TLFamily_DWK       .         Potassium Weight Fraction     : 
TLFamily_DWMG      .         Magnesium Weight Fraction     : 
TLFamily_DWMN      .         Manganese Weight Fraction     : 
TLFamily_DWS       .         Sulfur Weight Fraction        : 
TLFamily_DWSI      .         Silicon Weight Fraction       : 
TLFamily_DWTI      .         Titanium Weight Fraction      : 
TLFamily_GR        .         Gamma Ray                     : 
TLFamily_GRt       .         Gamma Ray                     : 
TLFamily_HCAL      .         Caliper                       : 
TLFamily_HDRA      .         Bulk Density Correction       : 
TLFamily_HFK       .         Potassium Concentration       : 
TLFamily_HTHO      .         Thorium Concentration         : 
TLFamily_HURA      .         Uranium Concentration         : 
TLFamily_MD        .         Measured Depth                : 
TLFamily_MPERM     .         NMR Permeability              : 
TLFamily_NMRE_Final .         NMR Bound Fluid Volume Fraction: 
TLFamily_NMRFL_Final .         NMR Free Fluids               : 
TLFamily_NMRT_Final .         NMR Porosity                  : 
TLFamily_NPHI      .         Neutron Porosity              : 
TLFamily_PE        .         Photoelectric Factor          : 
TLFamily_RD        .         Resistivity - Deep            : 
TLFamily_RHOB      .         Bulk Density                  : 
TLFamily_RM        .         Resistivity - Medium          : 
TLFamily_RS        .         Resistivity - Shallow         : 
TLFamily_TVDSS     .         True Vertical Depth Sub Sea   : 
~Curve Information
#_______________________________________________________________________________
#
#LOGNAME           .UNIT     LOG_ID                        : DESCRIPTION
#_______________________________________________________________________________
DEPTH              .M                                      :  
BS                 .in                                     :  
DT                 .us/ft                                  : SONICO COMPRESSIONAL (COMPOSICAO DE CURVAS CABO E/OU LWD) 
DWAL               .kg/kg                                  :  
DWCA               .kg/kg                                  :  
DWFE               .kg/kg                                  :  
DWGD               .ppm                                    :  
DWK                .kg/kg                                  :  
DWMG               .kg/kg                                  :  
DWMN               .kg/kg                                  :  
DWS                .kg/kg                                  :  
DWSI               .kg/kg                                  :  
DWTI               .kg/kg                                  :  
GR                 .gAPI                                   :  
GRt                .gAPI                                   :  
HCAL               .in                                     : CALIPER (COMPOSICAO DE CURVAS CABO E/OU LWD) 
HDRA               .g/cm3                                  : Density Delta Rho Filtered 
HFK                .%                                      :  
HTHO               .ppm                                    :  
HURA               .ppm                                    :  
MPERM              .mD                                     :  
NMRE_Final         .m3/m3                                  :  
NMRFL_Final        .unitless                               :  
NMRT_Final         .frac                                   :  
NPHI               .frac                                   : Neutron Porosity Limestone Filtered 
PE                 .b/e                                    : Density PE Filtered 
RD                 .ohm.m                                  : Vertical 2-foot resolution matched resistivity, 90-inch DOI 
RHOB               .g/cm3                                  : Bulk Density Filtered 
RM                 .ohm.m                                  : Vertical 2-foot resolution matched resistivity, 30-inch DOI 
RS                 .ohm.m                                  : Vertical 2-foot resolution matched resistivity, 10-inch DOI 
TVDSS              .M                                      :  
~Ascii
# ...
5451.653   12.250     95.190     0.009      0.180      0.010      3.346      0.001      0.103      0.001      0.001      0.141      0.002      32.588     32.784     12.384     0.080      0.368      1.590      3.106      0.000      0.040      0.004      0.159      0.333      5.376      2.007      2.432      1.948      2.009      5277.044  
5451.805   12.250     98.989     0.009      0.170      0.010      3.177      0.001      0.103      0.001      0.001      0.155      0.002      33.129     33.319     12.361     0.081      0.397      1.528      3.059      0.000      0.037      0.004      0.172      0.368      5.359      2.227      2.418      2.155      2.241      5277.186  
5451.958   12.250     101.327    0.009      0.158      0.011      3.044      0.002      0.103      0.001      0.001      0.166      0.002      34.104     34.306     12.351     0.083      0.415      1.488      3.020      0.001      0.027      0.007      0.170      0.376      5.345      2.418      2.414      2.337      2.453      5277.328  
5452.110   12.250     101.445    0.008      0.145      0.010      2.980      0.004      0.108      0.001      0.001      0.169      0.002      34.346     34.557     12.368     0.086      0.415      1.466      2.999      0.001      0.024      0.007      0.175      0.364      5.288      2.604      2.425      2.517      2.666      5277.470  
5452.262   12.250     99.831     0.008      0.137      0.009      3.014      0.006      0.115      0.001      0.001      0.167      0.001      33.580     33.787     12.366     0.086      0.396      1.451      3.002      0.000      0.021      0.003      0.174      0.348      5.366      2.834      2.438      2.743      2.927      5277.612  
5452.415   12.250     97.162     0.008      0.134      0.008      3.189      0.006      0.118      0.001      0.001      0.164      0.001      32.635     32.833     12.362     0.087      0.368      1.458      3.002      0.000      0.015      0.000      0.155      0.325      5.573      3.091      2.451      3.002      3.225      5277.754  
5452.567   12.250     94.405     0.008      0.137      0.008      3.439      0.004      0.118      0.001      0.001      0.164      0.000      32.133     32.329     12.382     0.089      0.348      1.476      2.981      0.000      0.010      0.001      0.142      0.315      5.668      3.276      2.453      3.199      3.465      5277.896  
5452.720   12.250     91.098     0.008      0.143      0.007      3.575      0.002      0.115      0.001      0.001      0.166      0.000      31.974     32.162     12.391     0.095      0.340      1.480      2.951      0.000      0.009      0.001      0.146      0.304      5.682      3.313      2.454      3.259      3.578      5278.038  
5452.872   12.250     87.372     0.008      0.150      0.005      3.462      0.003      0.112      0.001      0.001      0.162      0.001      31.910     32.092     12.393     0.102      0.341      1.478      2.911      0.000      0.010      0.002      0.147      0.285      5.483      3.261      2.463      3.237      3.627      5278.180  
5453.024   12.250     83.448     0.009      0.162      0.004      3.120      0.005      0.106      0.001      0.001      0.150      0.002      31.671     31.861     12.409     0.107      0.345      1.490      2.844      0.000      0.015      0.002      0.135      0.270      5.351      3.164      2.473      3.168      3.634      5278.322  
5453.177   12.250     79.942     0.009      0.183      0.004      2.709      0.010      0.098      0.001      0.001      0.136      0.002      31.021     31.230     12.433     0.106      0.340      1.506      2.759      0.000      0.026      0.001      0.127      0.274      5.471      2.955      2.477      2.979      3.470      5278.463  
5453.329   12.250     76.535     0.009      0.212      0.005      2.444      0.013      0.087      0.001      0.001      0.120      0.002      29.813     30.018     12.465     0.105      0.319      1.512      2.675      0.000      0.039      0.000      0.122      0.284      5.599      2.641      2.479      2.674      3.119      5278.605  
5453.482   12.250     73.713     0.008      0.244      0.006      2.462      0.013      0.071      0.001      0.001      0.104      0.001      28.467     28.642     12.475     0.102      0.287      1.476      2.619      0.000      0.053      0.002      0.124      0.299      5.704      2.371      2.481      2.405      2.790      5278.747  
5453.634   12.250     71.682     0.008      0.274      0.006      2.719      0.010      0.052      0.001      0.001      0.090      0.000      27.423     27.574     12.462     0.099      0.258      1.384      2.599      0.002      0.075      0.005      0.137      0.308      5.710      2.244      2.479      2.278      2.635      5278.889  
5453.786   12.250     70.505     0.007      0.297      0.007      3.000      0.005      0.037      0.001      0.001      0.083      0.000      26.900     27.047     12.472     0.096      0.239      1.271      2.612      0.011      0.093      0.010      0.148      0.336      5.442      2.239      2.457      2.274      2.635      5279.031  
5453.939   12.250     70.271     0.007      0.311      0.008      3.096      0.002      0.030      0.001      0.001      0.082      0.000      26.711     26.871     12.510     0.097      0.234      1.172      2.627      0.018      0.093      0.012      0.148      0.360      5.158      2.298      2.445      2.335      2.719      5279.173  
5454.091   12.250     71.144     0.007      0.320      0.009      3.003      0.001      0.028      0.001      0.001      0.083      0.000      26.517     26.693     12.538     0.102      0.239      1.124      2.615      0.009      0.089      0.009      0.147      0.371      5.018      2.404      2.447      2.442      2.863      5279.315  
5454.244   12.250     73.526     0.007      0.324      0.009      2.873      0.001      0.031      0.001      0.001      0.083      0.000      26.234     26.415     12.513     0.104      0.245      1.154      2.595      0.002      0.088      0.005      0.146      0.367      5.069      2.595      2.454      2.636      3.127      5279.457  
5454.396   12.250     75.841     0.007      0.323      0.009      2.808      0.001      0.036      0.001      0.001      0.083      0.000      26.121     26.300     12.471     0.107      0.246      1.211      2.600      0.000      0.081      0.002      0.146      0.363      5.144      2.930      2.463      2.978      3.595      5279.599  
5454.548   12.250     77.714     0.007      0.313      0.009      2.766      0.002      0.048      0.001      0.001      0.089      0.000      26.440     26.625     12.440     0.108      0.241      1.231      2.637      0.001      0.069      0.004      0.149      0.358      5.104      3.380      2.466      3.439      4.225      5279.741  
5454.701   12.250     79.007     0.007      0.295      0.009      2.655      0.005      0.062      0.001      0.001      0.102      0.000      27.038     27.225     12.438     0.111      0.230      1.198      2.720      0.001      0.050      0.006      0.140      0.327      4.978      3.767      2.478      3.839      4.738      5279.883  
5454.853   12.250     79.541     0.007      0.274      0.009      2.494      0.010      0.072      0.001      0.001      0.122      0.000      27.655     27.833     12.425     0.114      0.219      1.133      2.844      0.000      0.032      0.005      0.119      0.306      5.056      4.005      2.496      4.085      4.982      5280.025  
5455.006   12.250     79.085     0.006      0.258      0.008      2.378      0.015      0.073      0.001      0.001      0.141      0.000      28.417     28.595     12.452     0.114      0.218      1.063      2.939      0.000      0.026      0.004      0.102      0.298      5.302      4.203      2.502      4.295      5.145      5280.167  
5455.158   12.250     76.849     0.006      0.251      0.008      2.317      0.018      0.070      0.001      0.001      0.155      0.000      29.750     29.946     12.479     0.115      0.229      1.029      2.938      0.001      0.033      0.007      0.104      0.295      5.475      4.444      2.504      4.556      5.366      5280.309  
