~Version
 VERS              .         2.0                           : CWLS LOG ASCII STANDARD - VERSION 2.0
 WRAP              .         NO                            : ONE LINE PER DEPTH STEP
 DLM               .         SPACE                         : DELIMITING CHARACTER(SPACE TAB OR COMMA)
~Well Information
#_______________________________________________________________________________
#
#PARAMETER_NAME    .UNIT     VALUE                         : DESCRIPTION
#_______________________________________________________________________________
STRT               .M        5159.045                      : First reference value
STOP               .M        5591.861                      : Last reference value
STEP               .M        0.152                         : Step increment
NULL               .         -9999                         : Missing value
COMP               .         PETROBRAS                     : Company
WELL               .         8-SPH-19D-SPS                 : Well name
FLD                .         SAPINHOA                      : Field
LOC                .                                       : Location
PROV               .                                       : Province
SRVC               .                                       : Service Company
DATE               .         2020-11-17 00_10_26           : Date
UWI                .         8SPH0019DSPS                  : Unique Well ID
APD                .M        26                            : Above Permanent Datum
API                .                                       : API NUMBER
BHT                .degF     150                           : Bottom Hole Temperature
BLI                .M        5581.8                        : Bottom Log Interval
BS                 .in       12.25                         : Bit Size
CNTY               .                                       : County
CTRY               .         BRASIL                        : Nation
DCS                .         04/08/2015                    : Date Ciculation Stopped
DFD                .lbm/gal  9.5                           : Drilling Fluid Density
DFT                .         NAO AQUOSO (BASE OLEFINA)     : Drilling Fluid Type
DLAB               .         05/08/2015                    : Date Logger At Bottom
EDF                .M        26                            : Elevation of Derreck Floor
EGL                .M        -2132                         : Elevation of Ground Level
EKB                .M        -999.25                       : Elevation of Kelly Bushing
EPD                .M        0                             : Elevation Of Permanent Datum
GDAT               .         SIRGAS2000                    : Geodetic Datum
LMF                .         MR                            : Log Measured From
LATI               .         -25_46_45.710                 : Latitude
LONG               .         -43_12_21,306                 : Longitude
MCST               .degF     -999.25                       : Mud Cake Sample Temperature
MFST               .degF     -999.25                       : Mud Filtrate Sample Temperature
MRT                .degF     150                           : Maximum Recorded Temperature
MST                .degF     -999.25                       : Mud Sample Temperature
ORIGINALWELLNAME   .         8-sph-19d-sps_petrobras       : 
PDAT               .         NM                            : Permanent Datum
PRODUCER-CODE      .         150                           : 
PRODUCER-NAME      .         ATLAS                         : 
RMB                .ohm.m    -999.25                       : Resistivity Of Mud - BHT
RMCS               .ohm.m    -999.25                       : Resistivity Of Mud Cake Sample
RMFS               .ohm.m    -999.25                       : Mud Filtrate Sample Resistivity
RMS                .ohm.m    -999.25                       : Mud Sample Resistivity
RUN                .         2                             : Run Number
STAT               .         SAO PAULO                     : State
TCS                .h        02_00                         : Time Ciculation Stopped
TDD                .M        5583                          : Total Depht - Driller
TDL                .M        5585.4                        : Total Depht - Logger
TLAB               .h        18_45                         : Time Logger At Bottom
TLI                .M        5200                          : Top Log Interval
X                  .M        679908.00000000               : Surface X
Y                  .M        7148113.00000000              : Surface Y
~Parameter Information Block
#_______________________________________________________________________________
#
#PARAMETER_NAME    .UNIT     VALUE                         : DESCRIPTION
#_______________________________________________________________________________
SET                .         BASE                          : 
TLFamily_BS        .         Bit Size                      : 
TLFamily_DT        .         Compressional Slowness        : 
TLFamily_DWAL      .         Aluminum Weight Fraction      : 
TLFamily_DWCA      .         Calcium Weight Fraction       : 
TLFamily_DWFE      .         Iron Weight Fraction          : 
TLFamily_DWGD      .         Gadolinium Weight Fraction    : 
TLFamily_DWK       .         Potassium Weight Fraction     : 
TLFamily_DWMG      .         Magnesium Weight Fraction     : 
TLFamily_DWMN      .         Manganese Weight Fraction     : 
TLFamily_DWS       .         Sulfur Weight Fraction        : 
TLFamily_DWSI      .         Silicon Weight Fraction       : 
TLFamily_DWTI      .         Titanium Weight Fraction      : 
TLFamily_GR        .         Gamma Ray                     : 
TLFamily_GRt       .         Gamma Ray                     : 
TLFamily_HCAL      .         Caliper                       : 
TLFamily_HDRA      .         Bulk Density Correction       : 
TLFamily_HFK       .         Potassium Concentration       : 
TLFamily_HTHO      .         Thorium Concentration         : 
TLFamily_HURA      .         Uranium Concentration         : 
TLFamily_MD        .         Measured Depth                : 
TLFamily_MPERM     .         NMR Permeability              : 
TLFamily_NMRE_Final .         NMR Bound Fluid Volume Fraction: 
TLFamily_NMRFL_Final .         NMR Free Fluids               : 
TLFamily_NMRT_Final .         NMR Porosity                  : 
TLFamily_NPHI      .         Neutron Porosity              : 
TLFamily_PE        .         Photoelectric Factor          : 
TLFamily_RD        .         Resistivity - Deep            : 
TLFamily_RHOB      .         Bulk Density                  : 
TLFamily_RM        .         Resistivity - Medium          : 
TLFamily_RS        .         Resistivity - Shallow         : 
TLFamily_TVDSS     .         True Vertical Depth Sub Sea   : 
~Curve Information
#_______________________________________________________________________________
#
#LOGNAME           .UNIT     LOG_ID                        : DESCRIPTION
#_______________________________________________________________________________
DEPTH              .M                                      :  
BS                 .in                                     :  
DT                 .us/ft                                  : SONICO COMPRESSIONAL (COMPOSICAO DE CURVAS CABO E/OU LWD) 
DWAL               .kg/kg                                  :  
DWCA               .kg/kg                                  :  
DWFE               .kg/kg                                  :  
DWGD               .ppm                                    :  
DWK                .kg/kg                                  :  
DWMG               .kg/kg                                  :  
DWMN               .kg/kg                                  :  
DWS                .kg/kg                                  :  
DWSI               .kg/kg                                  :  
DWTI               .kg/kg                                  :  
GR                 .gAPI                                   :  
GRt                .gAPI                                   :  
HCAL               .in                                     : CALIPER (COMPOSICAO DE CURVAS CABO E/OU LWD) 
HDRA               .g/cm3                                  : Density Delta Rho Filtered 
HFK                .%                                      :  
HTHO               .ppm                                    :  
HURA               .ppm                                    :  
MPERM              .mD                                     :  
NMRE_Final         .m3/m3                                  :  
NMRFL_Final        .unitless                               :  
NMRT_Final         .frac                                   :  
NPHI               .frac                                   : Neutron Porosity Limestone Filtered 
PE                 .b/e                                    : Density PE Filtered 
RD                 .ohm.m                                  : Vertical 2-foot resolution matched resistivity, 90-inch DOI 
RHOB               .g/cm3                                  : Bulk Density Filtered 
RM                 .ohm.m                                  : Vertical 2-foot resolution matched resistivity, 30-inch DOI 
RS                 .ohm.m                                  : Vertical 2-foot resolution matched resistivity, 10-inch DOI 
TVDSS              .M                                      :  
~Ascii
# ...
5572.354   12.250     -9999.000  0.007      0.282      0.008      3.079      0.017      0.051      0.001      0.001      0.122      0.000      16.316     16.416     -9999.000  -9999.000  0.204      1.226      1.352      0.000      0.041      0.004      0.104      -9999.000  -9999.000  6.189      -9999.000  6.146      6.586      5390.105  
5572.506   12.250     -9999.000  0.007      0.278      0.008      3.209      0.011      0.052      0.001      0.001      0.133      0.000      16.376     16.469     -9999.000  -9999.000  0.196      1.289      1.369      0.001      0.048      0.007      0.101      -9999.000  -9999.000  6.618      -9999.000  6.576      6.938      5390.249  
5572.658   12.250     -9999.000  0.008      0.285      0.009      3.169      0.005      0.042      0.001      0.001      0.135      0.000      16.127     16.222     -9999.000  -9999.000  0.200      1.316      1.372      0.002      0.047      0.008      0.086      -9999.000  -9999.000  6.900      -9999.000  6.863      7.148      5390.392  
5572.811   12.250     -9999.000  0.008      0.301      0.010      2.934      0.003      0.031      0.001      0.001      0.128      0.001      15.875     15.974     -9999.000  -9999.000  0.214      1.359      1.338      0.003      0.057      0.009      0.089      -9999.000  -9999.000  6.535      -9999.000  6.508      6.717      5390.536  
5572.963   12.250     -9999.000  0.008      0.320      0.010      2.621      0.003      0.024      0.001      0.001      0.114      0.001      15.970     16.076     -9999.000  -9999.000  0.231      1.442      1.261      0.006      0.071      0.009      0.104      -9999.000  -9999.000  5.508      -9999.000  5.492      5.642      5390.680  
5573.116   12.250     -9999.000  0.009      0.338      0.010      2.324      0.004      0.022      0.001      0.001      0.095      0.001      16.209     16.328     -9999.000  -9999.000  0.247      1.541      1.169      0.003      0.073      0.007      0.110      -9999.000  -9999.000  4.373      -9999.000  4.363      4.484      5390.823  
5573.268   12.250     -9999.000  0.009      0.352      0.009      2.068      0.004      0.022      0.001      0.001      0.078      0.000      16.288     16.410     -9999.000  -9999.000  0.248      1.632      1.120      0.001      0.068      0.004      0.099      -9999.000  -9999.000  3.556      -9999.000  3.546      3.651      5390.967  
5573.420   12.250     -9999.000  0.010      0.362      0.008      1.920      0.004      0.021      0.001      0.001      0.066      0.000      16.210     16.333     -9999.000  -9999.000  0.232      1.705      1.141      0.002      0.060      0.007      0.081      -9999.000  -9999.000  3.194      -9999.000  3.180      3.281      5391.110  
5573.573   12.250     -9999.000  0.010      0.369      0.008      1.950      0.003      0.019      0.001      0.001      0.063      0.000      16.127     16.251     -9999.000  -9999.000  0.205      1.747      1.219      0.005      0.059      0.010      0.080      -9999.000  -9999.000  3.312      -9999.000  3.288      3.409      5391.254  
5573.725   12.250     -9999.000  0.010      0.374      0.009      2.108      0.001      0.016      0.001      0.001      0.065      0.000      16.105     16.228     -9999.000  -9999.000  0.179      1.730      1.321      0.009      0.063      0.012      0.088      -9999.000  -9999.000  3.978      -9999.000  3.930      4.102      5391.398  
5573.878   12.250     -9999.000  0.009      0.375      0.010      2.268      0.001      0.012      0.001      0.001      0.069      0.000      16.180     16.300     -9999.000  -9999.000  0.161      1.676      1.408      0.011      0.061      0.014      0.088      -9999.000  -9999.000  5.157      -9999.000  5.058      5.277      5391.541  
5574.030   12.250     -9999.000  0.008      0.374      0.011      2.328      0.001      0.011      0.001      0.001      0.071      0.000      16.176     16.289     -9999.000  -9999.000  0.159      1.637      1.444      0.010      0.053      0.014      0.082      -9999.000  -9999.000  6.228      -9999.000  6.071      6.282      5391.685  
5574.182   12.250     -9999.000  0.006      0.374      0.012      2.263      0.001      0.014      0.001      0.001      0.070      0.000      16.045     16.147     -9999.000  -9999.000  -9999.000  -9999.000  -9999.000  0.009      0.055      0.013      0.086      -9999.000  -9999.000  6.472      -9999.000  6.304      6.436      5391.829  
5574.335   12.250     -9999.000  0.002      0.375      0.012      2.158      0.001      0.019      0.001      0.001      0.066      0.000      15.980     16.075     -9999.000  -9999.000  -9999.000  -9999.000  -9999.000  0.013      0.063      0.014      0.099      -9999.000  -9999.000  6.227      -9999.000  6.068      6.148      5391.972  
5574.487   12.250     -9999.000  0.000      0.376      0.011      2.135      0.001      0.025      0.001      0.001      0.058      0.000      15.941     16.031     -9999.000  -9999.000  -9999.000  -9999.000  -9999.000  0.021      0.062      0.017      0.112      -9999.000  -9999.000  6.430      -9999.000  6.273      6.346      5392.116  
5574.640   12.250     -9999.000  0.000      0.371      0.010      2.192      0.003      0.031      0.001      0.001      0.048      0.000      15.919     16.011     -9999.000  -9999.000  -9999.000  -9999.000  -9999.000  0.017      0.062      0.016      0.113      -9999.000  -9999.000  7.317      -9999.000  7.148      7.249      5392.260  
5574.792   12.250     -9999.000  0.000      0.362      0.008      2.215      0.006      0.038      0.001      0.001      0.044      0.000      -9999.000  -9999.000  -9999.000  -9999.000  -9999.000  -9999.000  -9999.000  0.012      0.057      0.014      0.100      -9999.000  -9999.000  8.215      -9999.000  8.042      8.197      5392.403  
5574.944   12.250     -9999.000  0.000      0.352      0.007      2.161      0.007      0.047      0.001      0.001      0.052      0.000      -9999.000  -9999.000  -9999.000  -9999.000  -9999.000  -9999.000  -9999.000  0.014      0.053      0.016      0.093      -9999.000  -9999.000  8.415      -9999.000  8.261      8.438      5392.547  
5575.097   12.250     -9999.000  0.000      0.344      0.006      2.088      0.007      0.057      0.001      0.001      0.061      0.000      -9999.000  -9999.000  -9999.000  -9999.000  -9999.000  -9999.000  -9999.000  0.036      0.075      0.019      0.106      -9999.000  -9999.000  8.234      -9999.000  8.093      8.290      5392.691  
5575.249   12.250     -9999.000  0.000      0.337      0.006      2.040      0.006      0.063      0.001      0.001      0.065      0.000      -9999.000  -9999.000  -9999.000  -9999.000  -9999.000  -9999.000  -9999.000  0.065      0.094      0.021      0.118      -9999.000  -9999.000  8.136      -9999.000  7.998      8.199      5392.834  
5575.402   12.250     -9999.000  0.000      0.332      0.007      2.038      0.008      0.061      0.001      0.001      0.063      0.001      -9999.000  -9999.000  -9999.000  -9999.000  -9999.000  -9999.000  -9999.000  0.042      0.076      0.020      0.104      -9999.000  -9999.000  8.233      -9999.000  8.088      8.270      5392.978  
5575.554   12.250     -9999.000  0.000      0.329      0.007      2.093      0.012      0.052      0.001      0.001      0.058      0.001      -9999.000  -9999.000  -9999.000  -9999.000  -9999.000  -9999.000  -9999.000  0.014      0.056      0.015      0.093      -9999.000  -9999.000  8.394      -9999.000  8.222      8.380      5393.122  
5575.706   12.250     -9999.000  0.000      0.328      0.007      2.182      0.014      0.043      0.001      0.001      0.049      0.002      -9999.000  -9999.000  -9999.000  -9999.000  -9999.000  -9999.000  -9999.000  0.012      0.068      0.013      0.108      -9999.000  -9999.000  8.251      -9999.000  8.058      8.146      5393.265  
5575.859   12.250     -9999.000  0.000      0.329      0.008      2.226      0.014      0.039      0.001      0.001      0.040      0.001      -9999.000  -9999.000  -9999.000  -9999.000  -9999.000  -9999.000  -9999.000  0.027      0.091      0.015      0.121      -9999.000  -9999.000  7.665      -9999.000  7.462      7.492      5393.409  
