~Version
 VERS              .         2.0                           : CWLS LOG ASCII STANDARD - VERSION 2.0
 WRAP              .         NO                            : ONE LINE PER DEPTH STEP
 DLM               .         SPACE                         : DELIMITING CHARACTER(SPACE TAB OR COMMA)
~Well Information
#_______________________________________________________________________________
#
#PARAMETER_NAME    .UNIT     VALUE                         : DESCRIPTION
#_______________________________________________________________________________
STRT               .M        5038.900                      : First reference value
STOP               .M        5526.275                      : Last reference value
STEP               .M        0.152                         : Step increment
NULL               .         -9999                         : Missing value
COMP               .         PETROBRAS                     : Company
WELL               .         8-SPH-23-SPS                  : Well name
FLD                .         SAPINHOA                      : Field
LOC                .                                       : Location
PROV               .                                       : Province
SRVC               .                                       : Service Company
DATE               .         2021-09-13 11_18_58           : Date
UWI                .         8-SPH-23-SPS                  : Unique Well ID
APD                .M        24.0                          : ABOVE PERMANENT DATUM
API                .         863160047300                  : API Code
BHT                .degF     160                           : BOTTOMHOLE TEMPERATURE
BLI                .M        5511.3                        : BOTTOM LOGGED INTERVAL
BS                 .in       12.25                         : BIT SIZE
CTRY               .         BRASIL                        : Nation
DCS                .         10/04/2016                    : DATE CIRCULATION STOPPED
DFD                .lb/gal   9.4                           : DRILLING FLUID DENSITY
DFT                .         OLEDRILL (BASE OLEFINA)       : DRILLING FLUID TYPE
DLAB               .         12/04/2016                    : DATE LOGGING ON BOTTOM
EDF                .M        24.0                          : ELEVATION OF DRILLING FLOOR
EGL                .M        -2146.0                       : ELEVATION OF GROUND LEVEL
EKB                .M        24.0                          : ELEVATION OF KELLY BUSHING
EPD                .M        0.0                           : ELEVATATION OF PERMANENT DATUM
GDAT               .         SIRGAS2000                    : Geodetic Datum
LMF                .         MR                            : LOG MEASURED FROM
LUL                .         MCE                           : LOGGING UNIT LOCATION
LUN                .         12247255                      : LOGGING UNIT NUMBER
LATI               .         -25_42_01.290                 : Latitude
LONG               .         -43_11_39,303                 : LONGITUDE
MCST               .degF     -999.25                       : MUDCAKE SAMPLE TEMPERATURE
MFST               .degF     -999.25                       : MUD FILTRATE SAMPLE TEMPERATURE
MRT                .degF     160.0                         : MAXIMUM RECORDED TEMPERATURE
MST                .degF     -999.25                       : MUD SAMPLE TEMPERATURE
ORIGINALWELLNAME   .         8SPH 0023  SPS                : 
PDAT               .         NM                            : PERMANENT DATUM
PRODUCER-CODE      .         280                           : 
PRODUCER-NAME      .         Halliburton                   : 
RMB                .ohm.m    -999.25                       : RESISTIVITY OF MUD - BHT
RMCS               .ohm.m    -999.25                       : RESISTIVITY OF MUDCAKE SAMPLE
RMFS               .ohm.m    -999.25                       : RESISTIVITY OF MUD FILTRATE SAMPLE
RMS                .ohm.m    -999.25                       : RESISTIVITY OF MUD SAMPLE
RUN                .         02                            : RUN NUMBER 1
STAT               .         SAO PAULO                     : STATE
TCS                .h        03_30                         : TIME CIRCULATION STOPPED
TDD                .M        5517.0                        : DRILLERS DEPTH
TDL                .M        5520.0                        : LOGGERS DEPTH
TLAB               .h        07_30                         : TIME LOGGING ON BOTTOM
TLI                .M        5070.0                        : TOP LOGGED INTERVAL
X                  .M        681190.00000000               : X UTM Coordinate
Y                  .M        7156260.00000000              : Y UTM Coordinate
~Parameter Information Block
#_______________________________________________________________________________
#
#PARAMETER_NAME    .UNIT     VALUE                         : DESCRIPTION
#_______________________________________________________________________________
SET                .         BASE                          : 
TLFamily_BS        .         Bit Size                      : 
TLFamily_DT        .         Compressional Slowness        : 
TLFamily_DWAL      .         Aluminum Weight Fraction      : 
TLFamily_DWCA      .         Calcium Weight Fraction       : 
TLFamily_DWFE      .         Iron Weight Fraction          : 
TLFamily_DWK       .         Potassium Weight Fraction     : 
TLFamily_DWMG      .         Magnesium Weight Fraction     : 
TLFamily_DWMN      .         Manganese Weight Fraction     : 
TLFamily_DWS       .         Sulfur Weight Fraction        : 
TLFamily_DWSI      .         Silicon Weight Fraction       : 
TLFamily_DWTI      .         Titanium Weight Fraction      : 
TLFamily_GR        .         Gamma Ray                     : 
TLFamily_GRt       .         Gamma Ray                     : 
TLFamily_HCAL      .         Caliper                       : 
TLFamily_HFK       .         Potassium Concentration       : 
TLFamily_HTHO      .         Thorium Concentration         : 
TLFamily_HURA      .         Uranium Concentration         : 
TLFamily_MD        .         Measured Depth                : 
TLFamily_MPERM     .         NMR Permeability              : 
TLFamily_NMRE_Final .         NMR Bound Fluid Volume Fraction: 
TLFamily_NMRFL_Final .         NMR Free Fluids               : 
TLFamily_NMRT_Final .         NMR Porosity                  : 
TLFamily_NPHI      .         Neutron Porosity              : 
TLFamily_PE        .         Photoelectric Factor          : 
TLFamily_RD        .         Resistivity - Deep            : 
TLFamily_RHOB      .         Bulk Density                  : 
TLFamily_RM        .         Resistivity - Medium          : 
TLFamily_RS        .         Resistivity - Shallow         : 
TLFamily_T2LM      .         NMR T2 Logarithmic Mean       : 
TLFamily_TVDSS     .         True Vertical Depth Sub Sea   : 
~Curve Information
#_______________________________________________________________________________
#
#LOGNAME           .UNIT     LOG_ID                        : DESCRIPTION
#_______________________________________________________________________________
DEPTH              .M                                      :  
BS                 .in                                     : BS/Bit Size 
DT                 .us/ft                                  : DTC/MonoDeltaT 
DWAL               .kg/kg                                  : DAL/DryrockAlWF 
DWCA               .kg/kg                                  : DCA/DryrockCaWF 
DWFE               .kg/kg                                  : DFE/DryrockFeWF 
DWK                .kg/kg                                  : DK/DryrockKWF 
DWMG               .kg/kg                                  : DMG/DryrockMgWF 
DWMN               .kg/kg                                  : DMN/DryrockMnWF 
DWS                .kg/kg                                  : DSUL/DryrockSuWF 
DWSI               .kg/kg                                  : DSI/DryrockSiWF 
DWTI               .kg/kg                                  : DTI/DryrockTiWF 
GR                 .gAPI                                   : GR/Gamma API 
GRt                .gAPI                                   : GKUT/GammaKUT 
HCAL               .in                                     : CALI/Caliper 
HFK                .%                                      : POTA/Potassium 
HTHO               .ppm                                    : THOR/Thorium 
HURA               .ppm                                    : URAN/Uranium 
MPERM              .mD                                     : MPERMT2/MrilT2KCoat 
NMRE_Final         .m3/m3                                  : MPHIT2/TA-grp T2 Effective Por 
NMRFL_Final        .unitless                               : MFFIT2/TA-grp T2 FreeFluid Ind 
NMRT_Final         .frac                                   : MSIGT2/TA-grp T2 Total Por. 
NPHI               .frac                                   : POROSIDADE NEUTRONICA (COMPOSICAO DE CURVAS CABO E/OU LWD) 
PE                 .b/e                                    : Density PE Filtered 
RD                 .ohm.m                                  : RT90/90in Resistivity 2ft Res 
RHOB               .g/cm3                                  : DENSIDADE (COMPOSICAO DE CURVAS CABO E/OU LWD ) 
RM                 .ohm.m                                  : RT30/30in Resistivity 2ft Res 
RS                 .ohm.m                                  : RT10/10in Resistivity 2ft Res 
T2LM               .ms                                     : T2LM/T2 Log Mean 
TVDSS              .M                                      :  
~Ascii
# ...
5499.910   12.250     57.054     0.040      0.224      0.006      0.041      0.002      0.000      0.006      0.134      0.004      -9999.000  -9999.000  -9999.000  -9999.000  -9999.000  -9999.000  0.000      0.030      0.003      0.043      -9999.000  -9999.000  143.455    -9999.000  118.075    115.051    10.675     5441.394  
5500.062   12.250     58.092     0.045      0.226      0.004      0.045      0.000      0.000      0.003      0.132      0.004      -9999.000  -9999.000  -9999.000  -9999.000  -9999.000  -9999.000  0.001      0.030      0.005      0.047      -9999.000  -9999.000  174.584    -9999.000  138.374    135.382    10.357     5441.546  
5500.215   12.250     59.164     0.047      0.228      0.003      0.046      0.000      0.000      0.002      0.128      0.004      -9999.000  -9999.000  -9999.000  -9999.000  -9999.000  -9999.000  0.001      0.030      0.007      0.044      -9999.000  -9999.000  187.326    -9999.000  146.167    144.487    11.828     5441.699  
5500.367   12.250     59.516     0.045      0.235      0.003      0.049      0.000      0.000      0.000      0.123      0.004      -9999.000  -9999.000  -9999.000  -9999.000  -9999.000  -9999.000  0.001      0.030      0.006      0.038      -9999.000  -9999.000  201.818    -9999.000  156.318    151.065    14.037     5441.851  
5500.519   12.250     60.530     0.044      0.239      0.003      0.049      0.000      0.000      0.001      0.119      0.003      -9999.000  -9999.000  -9999.000  -9999.000  -9999.000  -9999.000  0.001      0.032      0.005      0.036      -9999.000  -9999.000  216.934    -9999.000  168.569    156.293    15.236     5442.003  
5500.672   12.250     60.879     0.038      0.248      0.002      0.046      0.000      0.000      0.001      0.117      0.002      -9999.000  -9999.000  -9999.000  -9999.000  -9999.000  -9999.000  0.000      0.030      0.004      0.038      -9999.000  -9999.000  240.635    -9999.000  189.069    181.868    11.758     5442.155  
5500.824   12.250     60.993     0.034      0.255      0.002      0.042      0.000      0.000      0.002      0.114      0.002      -9999.000  -9999.000  -9999.000  -9999.000  -9999.000  -9999.000  0.000      0.023      0.002      0.043      -9999.000  -9999.000  250.082    -9999.000  197.857    204.463    6.365      5442.308  
5500.977   12.250     60.823     0.031      0.248      0.002      0.034      0.021      0.000      0.003      0.096      0.001      -9999.000  -9999.000  -9999.000  -9999.000  -9999.000  -9999.000  0.000      0.016      0.001      0.045      -9999.000  -9999.000  204.794    -9999.000  179.678    199.539    3.132      5442.460  
5501.129   12.250     60.666     0.039      0.233      0.002      0.024      0.043      0.001      0.005      0.069      0.001      -9999.000  -9999.000  -9999.000  -9999.000  -9999.000  -9999.000  0.000      0.015      0.003      0.040      -9999.000  -9999.000  159.810    -9999.000  160.270    173.379    2.980      5442.612  
5501.281   12.250     60.362     0.066      0.232      0.003      0.016      0.048      0.002      0.009      0.031      0.000      -9999.000  -9999.000  -9999.000  -9999.000  -9999.000  -9999.000  0.001      0.020      0.007      0.035      -9999.000  -9999.000  97.111     -9999.000  134.112    155.127    7.983      5442.764  
5501.434   12.250     59.794     -9999.000  -9999.000  -9999.000  -9999.000  -9999.000  -9999.000  -9999.000  -9999.000  -9999.000  -9999.000  -9999.000  -9999.000  -9999.000  -9999.000  -9999.000  0.002      0.028      0.009      0.035      -9999.000  -9999.000  69.631     -9999.000  115.331    140.487    23.075     5442.917  
5501.586   12.250     59.442     -9999.000  -9999.000  -9999.000  -9999.000  -9999.000  -9999.000  -9999.000  -9999.000  -9999.000  -9999.000  -9999.000  -9999.000  -9999.000  -9999.000  -9999.000  0.004      0.031      0.011      0.042      -9999.000  -9999.000  53.453     -9999.000  98.005     123.809    24.008     5443.069  
5501.739   12.250     59.228     -9999.000  -9999.000  -9999.000  -9999.000  -9999.000  -9999.000  -9999.000  -9999.000  -9999.000  -9999.000  -9999.000  -9999.000  -9999.000  -9999.000  -9999.000  0.005      0.029      0.011      0.047      -9999.000  -9999.000  35.118     -9999.000  67.740     92.222     16.606     5443.221  
5501.891   12.250     59.074     -9999.000  -9999.000  -9999.000  -9999.000  -9999.000  -9999.000  -9999.000  -9999.000  -9999.000  -9999.000  -9999.000  -9999.000  -9999.000  -9999.000  -9999.000  0.004      0.027      0.011      0.049      -9999.000  -9999.000  27.154     -9999.000  51.402     73.429     14.397     5443.373  
5502.043   12.250     59.040     -9999.000  -9999.000  -9999.000  -9999.000  -9999.000  -9999.000  -9999.000  -9999.000  -9999.000  -9999.000  -9999.000  -9999.000  -9999.000  -9999.000  -9999.000  0.004      0.027      0.011      0.048      -9999.000  -9999.000  18.437     -9999.000  32.896     52.666     13.625     5443.526  
5502.196   12.250     59.014     -9999.000  -9999.000  -9999.000  -9999.000  -9999.000  -9999.000  -9999.000  -9999.000  -9999.000  -9999.000  -9999.000  -9999.000  -9999.000  -9999.000  -9999.000  0.003      0.027      0.010      0.047      -9999.000  -9999.000  14.868     -9999.000  25.376     44.070     11.715     5443.678  
5502.348   12.250     59.616     -9999.000  -9999.000  -9999.000  -9999.000  -9999.000  -9999.000  -9999.000  -9999.000  -9999.000  -9999.000  -9999.000  -9999.000  -9999.000  -9999.000  -9999.000  0.003      0.029      0.009      0.043      -9999.000  -9999.000  10.497     -9999.000  16.418     31.776     11.433     5443.830  
5502.501   12.250     59.825     -9999.000  -9999.000  -9999.000  -9999.000  -9999.000  -9999.000  -9999.000  -9999.000  -9999.000  -9999.000  -9999.000  -9999.000  -9999.000  -9999.000  -9999.000  0.003      0.034      0.010      0.041      -9999.000  -9999.000  8.491      -9999.000  12.550     25.001     15.262     5443.982  
5502.653   12.250     61.317     -9999.000  -9999.000  -9999.000  -9999.000  -9999.000  -9999.000  -9999.000  -9999.000  -9999.000  -9999.000  -9999.000  -9999.000  -9999.000  -9999.000  -9999.000  0.004      0.039      0.011      0.043      -9999.000  -9999.000  6.041      -9999.000  8.193      15.803     22.872     5444.135  
5502.805   12.250     62.633     -9999.000  -9999.000  -9999.000  -9999.000  -9999.000  -9999.000  -9999.000  -9999.000  -9999.000  -9999.000  -9999.000  -9999.000  -9999.000  -9999.000  -9999.000  0.006      0.040      0.012      0.049      -9999.000  -9999.000  5.010      -9999.000  6.518      12.101     27.748     5444.287  
5502.958   12.250     63.259     -9999.000  -9999.000  -9999.000  -9999.000  -9999.000  -9999.000  -9999.000  -9999.000  -9999.000  -9999.000  -9999.000  -9999.000  -9999.000  -9999.000  -9999.000  0.036      0.047      0.021      0.059      -9999.000  -9999.000  4.050      -9999.000  5.055      8.905      33.329     5444.439  
5503.110   12.250     64.157     -9999.000  -9999.000  -9999.000  -9999.000  -9999.000  -9999.000  -9999.000  -9999.000  -9999.000  -9999.000  -9999.000  -9999.000  -9999.000  -9999.000  -9999.000  0.211      0.059      0.034      0.068      -9999.000  -9999.000  3.766      -9999.000  4.639      7.988      44.454     5444.591  
5503.263   12.250     64.217     -9999.000  -9999.000  -9999.000  -9999.000  -9999.000  -9999.000  -9999.000  -9999.000  -9999.000  -9999.000  -9999.000  -9999.000  -9999.000  -9999.000  -9999.000  0.526      0.071      0.042      0.076      -9999.000  -9999.000  3.736      -9999.000  4.595      7.797      62.270     5444.744  
5503.415   12.250     63.788     -9999.000  -9999.000  -9999.000  -9999.000  -9999.000  -9999.000  -9999.000  -9999.000  -9999.000  -9999.000  -9999.000  -9999.000  -9999.000  -9999.000  -9999.000  0.644      0.082      0.045      0.085      -9999.000  -9999.000  3.944      -9999.000  4.897      8.303      79.600     5444.896  
5503.567   12.250     63.542     -9999.000  -9999.000  -9999.000  -9999.000  -9999.000  -9999.000  -9999.000  -9999.000  -9999.000  -9999.000  -9999.000  -9999.000  -9999.000  -9999.000  -9999.000  0.531      0.087      0.043      0.090      -9999.000  -9999.000  4.573      -9999.000  5.847      10.160     79.931     5445.048  
