~Version
 VERS              .         2.0                           : CWLS LOG ASCII STANDARD - VERSION 2.0
 WRAP              .         NO                            : ONE LINE PER DEPTH STEP
 DLM               .         SPACE                         : DELIMITING CHARACTER(SPACE TAB OR COMMA)
~Well Information
#_______________________________________________________________________________
#
#PARAMETER_NAME    .UNIT     VALUE                         : DESCRIPTION
#_______________________________________________________________________________
STRT               .M        5159.045                      : First reference value
STOP               .M        5591.861                      : Last reference value
STEP               .M        0.152                         : Step increment
NULL               .         -9999                         : Missing value
COMP               .         PETROBRAS                     : Company
WELL               .         8-SPH-19D-SPS                 : Well name
FLD                .         SAPINHOA                      : Field
LOC                .                                       : Location
PROV               .                                       : Province
SRVC               .                                       : Service Company
DATE               .         2020-11-17 00_10_26           : Date
UWI                .         8SPH0019DSPS                  : Unique Well ID
APD                .M        26                            : Above Permanent Datum
API                .                                       : API NUMBER
BHT                .degF     150                           : Bottom Hole Temperature
BLI                .M        5581.8                        : Bottom Log Interval
BS                 .in       12.25                         : Bit Size
CNTY               .                                       : County
CTRY               .         BRASIL                        : Nation
DCS                .         04/08/2015                    : Date Ciculation Stopped
DFD                .lbm/gal  9.5                           : Drilling Fluid Density
DFT                .         NAO AQUOSO (BASE OLEFINA)     : Drilling Fluid Type
DLAB               .         05/08/2015                    : Date Logger At Bottom
EDF                .M        26                            : Elevation of Derreck Floor
EGL                .M        -2132                         : Elevation of Ground Level
EKB                .M        -999.25                       : Elevation of Kelly Bushing
EPD                .M        0                             : Elevation Of Permanent Datum
GDAT               .         SIRGAS2000                    : Geodetic Datum
LMF                .         MR                            : Log Measured From
LATI               .         -25_46_45.710                 : Latitude
LONG               .         -43_12_21,306                 : Longitude
MCST               .degF     -999.25                       : Mud Cake Sample Temperature
MFST               .degF     -999.25                       : Mud Filtrate Sample Temperature
MRT                .degF     150                           : Maximum Recorded Temperature
MST                .degF     -999.25                       : Mud Sample Temperature
ORIGINALWELLNAME   .         8-sph-19d-sps_petrobras       : 
PDAT               .         NM                            : Permanent Datum
PRODUCER-CODE      .         150                           : 
PRODUCER-NAME      .         ATLAS                         : 
RMB                .ohm.m    -999.25                       : Resistivity Of Mud - BHT
RMCS               .ohm.m    -999.25                       : Resistivity Of Mud Cake Sample
RMFS               .ohm.m    -999.25                       : Mud Filtrate Sample Resistivity
RMS                .ohm.m    -999.25                       : Mud Sample Resistivity
RUN                .         2                             : Run Number
STAT               .         SAO PAULO                     : State
TCS                .h        02_00                         : Time Ciculation Stopped
TDD                .M        5583                          : Total Depht - Driller
TDL                .M        5585.4                        : Total Depht - Logger
TLAB               .h        18_45                         : Time Logger At Bottom
TLI                .M        5200                          : Top Log Interval
X                  .M        679908.00000000               : Surface X
Y                  .M        7148113.00000000              : Surface Y
~Parameter Information Block
#_______________________________________________________________________________
#
#PARAMETER_NAME    .UNIT     VALUE                         : DESCRIPTION
#_______________________________________________________________________________
SET                .         BASE                          : 
TLFamily_BS        .         Bit Size                      : 
TLFamily_DT        .         Compressional Slowness        : 
TLFamily_DWAL      .         Aluminum Weight Fraction      : 
TLFamily_DWCA      .         Calcium Weight Fraction       : 
TLFamily_DWFE      .         Iron Weight Fraction          : 
TLFamily_DWGD      .         Gadolinium Weight Fraction    : 
TLFamily_DWK       .         Potassium Weight Fraction     : 
TLFamily_DWMG      .         Magnesium Weight Fraction     : 
TLFamily_DWMN      .         Manganese Weight Fraction     : 
TLFamily_DWS       .         Sulfur Weight Fraction        : 
TLFamily_DWSI      .         Silicon Weight Fraction       : 
TLFamily_DWTI      .         Titanium Weight Fraction      : 
TLFamily_GR        .         Gamma Ray                     : 
TLFamily_GRt       .         Gamma Ray                     : 
TLFamily_HCAL      .         Caliper                       : 
TLFamily_HDRA      .         Bulk Density Correction       : 
TLFamily_HFK       .         Potassium Concentration       : 
TLFamily_HTHO      .         Thorium Concentration         : 
TLFamily_HURA      .         Uranium Concentration         : 
TLFamily_MD        .         Measured Depth                : 
TLFamily_MPERM     .         NMR Permeability              : 
TLFamily_NMRE_Final .         NMR Bound Fluid Volume Fraction: 
TLFamily_NMRFL_Final .         NMR Free Fluids               : 
TLFamily_NMRT_Final .         NMR Porosity                  : 
TLFamily_NPHI      .         Neutron Porosity              : 
TLFamily_PE        .         Photoelectric Factor          : 
TLFamily_RD        .         Resistivity - Deep            : 
TLFamily_RHOB      .         Bulk Density                  : 
TLFamily_RM        .         Resistivity - Medium          : 
TLFamily_RS        .         Resistivity - Shallow         : 
TLFamily_TVDSS     .         True Vertical Depth Sub Sea   : 
~Curve Information
#_______________________________________________________________________________
#
#LOGNAME           .UNIT     LOG_ID                        : DESCRIPTION
#_______________________________________________________________________________
DEPTH              .M                                      :  
BS                 .in                                     :  
DT                 .us/ft                                  : SONICO COMPRESSIONAL (COMPOSICAO DE CURVAS CABO E/OU LWD) 
DWAL               .kg/kg                                  :  
DWCA               .kg/kg                                  :  
DWFE               .kg/kg                                  :  
DWGD               .ppm                                    :  
DWK                .kg/kg                                  :  
DWMG               .kg/kg                                  :  
DWMN               .kg/kg                                  :  
DWS                .kg/kg                                  :  
DWSI               .kg/kg                                  :  
DWTI               .kg/kg                                  :  
GR                 .gAPI                                   :  
GRt                .gAPI                                   :  
HCAL               .in                                     : CALIPER (COMPOSICAO DE CURVAS CABO E/OU LWD) 
HDRA               .g/cm3                                  : Density Delta Rho Filtered 
HFK                .%                                      :  
HTHO               .ppm                                    :  
HURA               .ppm                                    :  
MPERM              .mD                                     :  
NMRE_Final         .m3/m3                                  :  
NMRFL_Final        .unitless                               :  
NMRT_Final         .frac                                   :  
NPHI               .frac                                   : Neutron Porosity Limestone Filtered 
PE                 .b/e                                    : Density PE Filtered 
RD                 .ohm.m                                  : Vertical 2-foot resolution matched resistivity, 90-inch DOI 
RHOB               .g/cm3                                  : Bulk Density Filtered 
RM                 .ohm.m                                  : Vertical 2-foot resolution matched resistivity, 30-inch DOI 
RS                 .ohm.m                                  : Vertical 2-foot resolution matched resistivity, 10-inch DOI 
TVDSS              .M                                      :  
~Ascii
# ...
5330.952   12.250     52.989     0.005      0.358      0.008      1.647      0.001      0.029      0.001      0.001      0.102      0.000      17.747     17.849     12.366     0.103      0.212      0.918      1.579      0.105      0.049      0.028      0.049      0.092      6.053      10.667     2.685      12.022     26.842     5164.620  
5331.104   12.250     52.165     0.005      0.355      0.008      1.371      0.002      0.035      0.001      0.001      0.101      0.000      17.367     17.459     12.357     0.098      0.211      0.824      1.592      0.035      0.044      0.022      0.044      0.082      6.004      14.282     2.690      16.498     39.406     5164.762  
5331.257   12.250     51.457     0.004      0.356      0.007      1.222      0.003      0.036      0.001      0.001      0.101      0.000      17.098     17.199     12.341     0.098      0.200      0.728      1.632      0.034      0.048      0.021      0.048      0.083      6.030      16.285     2.684      19.171     48.769     5164.904  
5331.409   12.250     51.526     0.004      0.361      0.007      1.244      0.003      0.032      0.001      0.001      0.103      0.000      17.042     17.159     12.341     0.101      0.184      0.649      1.668      0.052      0.049      0.024      0.053      0.091      6.076      15.798     2.679      18.631     47.896     5165.045  
5331.562   12.250     52.823     0.004      0.365      0.006      1.374      0.002      0.024      0.001      0.001      0.107      0.000      16.581     16.696     12.353     0.102      0.164      0.596      1.686      0.078      0.050      0.026      0.054      0.095      6.074      13.836     2.679      16.069     38.370     5165.187  
5331.714   12.250     54.234     0.004      0.365      0.006      1.453      0.001      0.016      0.001      0.001      0.110      0.000      15.700     15.800     12.366     0.099      0.150      0.593      1.668      0.092      0.053      0.028      0.054      0.096      6.041      12.127     2.675      13.896     30.768     5165.329  
5331.866   12.250     54.443     0.004      0.362      0.005      1.362      0.000      0.011      0.001      0.001      0.111      0.000      15.148     15.242     12.378     0.096      0.149      0.655      1.603      0.104      0.050      0.028      0.050      0.094      6.009      11.546     2.671      13.130     27.793     5165.471  
5332.019   12.250     53.182     0.004      0.360      0.005      1.174      0.000      0.010      0.001      0.001      0.110      0.000      15.108     15.194     12.377     0.093      0.157      0.760      1.527      0.085      0.047      0.027      0.047      0.083      5.952      12.136     2.673      13.777     28.675     5165.612  
5332.171   12.250     51.915     0.005      0.363      0.006      1.093      0.001      0.011      0.001      0.001      0.107      0.000      15.161     15.224     12.389     0.092      0.168      0.884      1.472      0.048      0.045      0.023      0.045      0.076      5.914      14.100     2.676      16.070     33.735     5165.754  
5332.324   12.250     51.563     0.006      0.367      0.006      1.247      0.001      0.016      0.001      0.001      0.101      0.000      15.709     15.755     12.412     0.090      0.185      1.051      1.454      0.024      0.046      0.019      0.047      0.072      5.893      17.586     2.678      20.185     42.691     5165.896  
5332.476   12.250     51.532     0.007      0.372      0.005      1.536      0.001      0.022      0.001      0.001      0.092      0.001      17.384     17.449     12.426     0.090      0.204      1.247      1.546      0.013      0.052      0.016      0.058      0.070      5.876      21.544     2.680      24.726     49.066     5166.038  
5332.628   12.250     51.701     0.007      0.375      0.005      1.749      0.001      0.027      0.001      0.001      0.083      0.001      19.969     20.080     12.433     0.098      0.209      1.350      1.822      0.009      0.056      0.013      0.065      0.073      5.899      24.163     2.679      27.338     46.973     5166.180  
5332.781   12.250     52.046     0.007      0.376      0.005      1.767      0.001      0.027      0.001      0.001      0.076      0.001      22.561     22.709     12.416     0.107      0.195      1.308      2.141      0.010      0.047      0.015      0.058      0.077      6.039      24.941     2.681      27.598     41.812     5166.321  
5332.933   12.250     52.634     0.007      0.379      0.005      1.598      0.001      0.022      0.001      0.001      0.074      0.002      24.174     24.325     12.400     0.115      0.181      1.245      2.298      0.017      0.040      0.018      0.053      0.082      6.213      25.574     2.683      27.796     39.373     5166.463  
5333.086   12.250     53.265     0.007      0.382      0.006      1.314      0.001      0.016      0.001      0.001      0.077      0.002      24.260     24.398     12.395     0.116      0.171      1.226      2.315      0.041      0.043      0.023      0.050      0.083      6.246      27.542     2.684      29.637     40.894     5166.605  
5333.238   12.250     53.624     0.007      0.384      0.006      1.031      0.001      0.014      0.001      0.001      0.082      0.002      23.210     23.346     12.390     0.112      0.157      1.233      2.268      0.093      0.050      0.028      0.050      0.083      6.259      31.834     2.683      34.095     46.861     5166.747  
5333.390   12.250     53.939     0.008      0.386      0.006      0.888      0.001      0.014      0.001      0.001      0.090      0.001      21.878     22.018     12.391     0.109      0.138      1.306      2.171      0.139      0.049      0.030      0.048      0.081      6.269      38.026     2.681      40.623     55.746     5166.889  
5333.543   12.250     54.094     0.008      0.385      0.006      0.960      0.001      0.016      0.001      0.001      0.098      0.001      20.953     21.082     12.398     0.108      0.125      1.447      2.083      0.146      0.043      0.029      0.052      0.076      6.258      43.094     2.684      45.529     61.078     5167.030  
5333.695   12.250     53.886     0.009      0.380      0.006      1.208      0.001      0.020      0.001      0.001      0.101      0.000      20.720     20.828     12.398     0.108      0.118      1.607      2.056      0.071      0.039      0.025      0.051      0.074      6.102      43.459     2.693      44.966     57.734     5167.172  
5333.848   12.250     53.286     0.010      0.374      0.006      1.512      0.001      0.026      0.001      0.001      0.098      0.000      21.040     21.147     12.384     0.107      0.114      1.795      2.085      0.025      0.037      0.020      0.046      0.074      6.006      39.671     2.696      40.158     49.515     5167.314  
5334.000   12.250     53.024     0.011      0.368      0.006      1.782      0.001      0.032      0.001      0.001      0.092      0.000      22.059     22.185     12.355     0.107      0.117      2.014      2.161      0.018      0.040      0.018      0.044      0.074      6.034      35.842     2.695      36.091     43.636     5167.456  
5334.152   12.250     53.103     0.012      0.366      0.006      2.017      0.001      0.034      0.001      0.001      0.089      0.001      23.517     23.665     12.355     0.109      0.128      2.128      2.279      0.027      0.046      0.020      0.048      0.074      6.157      35.133     2.693      35.188     42.288     5167.598  
5334.305   12.250     52.876     0.011      0.367      0.006      2.223      0.001      0.032      0.001      0.001      0.091      0.002      24.515     24.673     12.366     0.112      0.143      2.057      2.399      0.064      0.052      0.025      0.052      0.074      6.284      36.947     2.694      36.790     44.187     5167.739  
5334.457   12.250     52.616     0.011      0.372      0.006      2.347      0.001      0.028      0.001      0.001      0.092      0.003      24.782     24.937     12.364     0.111      0.157      1.901      2.475      0.132      0.055      0.030      0.055      0.077      6.253      40.519     2.695      40.093     48.168     5167.881  
