~Version
 VERS              .         2.0                           : CWLS LOG ASCII STANDARD - VERSION 2.0
 WRAP              .         NO                            : ONE LINE PER DEPTH STEP
 DLM               .         SPACE                         : DELIMITING CHARACTER(SPACE TAB OR COMMA)
~Well Information
#_______________________________________________________________________________
#
#PARAMETER_NAME    .UNIT     VALUE                         : DESCRIPTION
#_______________________________________________________________________________
STRT               .M        5060.036                      : First reference value
STOP               .M        5304.790                      : Last reference value
STEP               .M        0.152                         : Step increment
NULL               .         -9999                         : Missing value
COMP               .         PETROBRAS                     : Company
WELL               .         8-SPH-11-SPS                  : Well name
FLD                .         SAPINHOA                      : Field
LOC                .                                       : Location
PROV               .                                       : Province
SRVC               .                                       : Service Company
DATE               .         23/09/2015                    : Date
UWI                .         8-SPH-11-SPS                  : Unique Well ID
APD                .M        24                            : Elevation of Depth Reference (LMF) Above Permanent Datum
API                .                                       : API NUMBER
BHS                .         OPEN                          : Borehole Status (Open or Cased Hole)
BHT                .degF     135                           : Bottom Hole Temperature
BLI                .M        5299.5                        : Bottom Log Interval
BS                 .in       12.25                         : Bit Size
CBDR               .M        5086                          : Casing Bottom (Driller)
CBLO               .M        5084                          : Casing Bottom (Logger)
CSIZ               .in       14                            : Casing Outer Diameter
CWEI               .lbm/ft   115                           : Casing Weight
CTRY               .         BRASIL                        : Nation
DCS                .         22/09/2015                    : Date Circulation Stopped
DFD                .lb/gal   9.7                           : Drilling Fluid Density
DFT                .         Cationico Flex Drill(Base Agua): Drilling Fluid Type
DLAB               .         23/09/2015                    : Date Logging on Bottom
EDF                .M        24                            : Elevation of Drill Floor
EGL                .M        -2165                         : Elevation of Ground Level
EKB                .M        24                            : Elevation of Kelly Bushing
EPD                .M        0                             : Elevation of Permanent Datum (PDAT) above Mean Sea Level
LMF                .         MR                            : Logging Measured From (Name of Logging Elevation Reference)
LUL                .          BRMA                         : Logging Unit Location
LUN                .         OSU-PA 7032                   : Logging Unit Number
LONG               .         -43_13_56,159                 : Longitude
MCST               .degF     77.1                          : Mudcake Sample Temperature
MFST               .degF     78.3                          : Mud Filtrate Sample Temperature
MRT                .degF     135                           : Maximum Recorded Temperature
MST                .degF     77.9                          : Mud Sample Temperature
ORIGINALWELLNAME   .         P09                           : 
PDAT               .         NM                            : Permanent Datum
PRODUCER-CODE      .         440                           : 
PRODUCER-NAME      .         Schlumberger                  : 
RMB                .ohm.m    0.0430009                     : Resistivity of Mud at Bottom Hole Temperature
RMCS               .ohm.m    0.08                          : Resistivity of Mud Cake Sample
RMFS               .ohm.m    0.062                         : Resistivity of Mud Filtrate Sample
RMS                .ohm.m    0.072                         : Resistivity of Mud Sample
RUN                .         3                             : Run Number
STAT               .         SAO PAULO                     : State or Province
TCS                .h        10_30                         : Time Circulation Stopped
TDD                .M        5301                          : Total Depth (Driller)
TDL                .M        5301.5                        : Logger Total Depth
TLAB               .h        23_45                         : Time Logging on Bottom
TLI                .M        5084                          : Top Log Interval
X                  .M        677112.00000000               : 
Y                  .M        7136745.00000000              : 
~Parameter Information Block
#_______________________________________________________________________________
#
#PARAMETER_NAME    .UNIT     VALUE                         : DESCRIPTION
#_______________________________________________________________________________
SET                .         BASE                          : 
TLFamily_BS        .         Bit Size                      : 
TLFamily_DT        .         Compressional Slowness        : 
TLFamily_DWAL      .         Aluminum Weight Fraction      : 
TLFamily_DWCA      .         Calcium Weight Fraction       : 
TLFamily_DWFE      .         Iron Weight Fraction          : 
TLFamily_DWGD      .         Gadolinium Weight Fraction    : 
TLFamily_DWS       .         Sulfur Weight Fraction        : 
TLFamily_DWSI      .         Silicon Weight Fraction       : 
TLFamily_DWTI      .         Titanium Weight Fraction      : 
TLFamily_GR        .         Gamma Ray                     : 
TLFamily_GRt       .         Gamma Ray                     : 
TLFamily_HCAL      .         Caliper                       : 
TLFamily_HDRA      .         Bulk Density Correction       : 
TLFamily_HFK       .         Potassium Concentration       : 
TLFamily_HTHO      .         Thorium Concentration         : 
TLFamily_HURA      .         Uranium Concentration         : 
TLFamily_KSDR      .         NMR Permeability              : 
TLFamily_KTIM      .         NMR Permeability              : 
TLFamily_MD        .         Measured Depth                : 
TLFamily_NMRE_Final .         NMR Bound Fluid Volume Fraction: 
TLFamily_NMRFL_Final .         NMR Free Fluids               : 
TLFamily_NMRT_Final .         NMR Porosity                  : 
TLFamily_NPHI      .         Neutron Porosity              : 
TLFamily_PE        .         Photoelectric Factor          : 
TLFamily_RD        .         Resistivity - Deep            : 
TLFamily_RHOB      .         Bulk Density                  : 
TLFamily_RM        .         Resistivity - Medium          : 
TLFamily_RS        .         Resistivity - Shallow         : 
TLFamily_T2LM      .         NMR T2 Logarithmic Mean       : 
TLFamily_TVDSS     .         True Vertical Depth Sub Sea   : 
~Curve Information
#_______________________________________________________________________________
#
#LOGNAME           .UNIT     LOG_ID                        : DESCRIPTION
#_______________________________________________________________________________
DEPTH              .M                                      :  
BS                 .in                                     : Bit Size 
DT                 .us/ft                                  : Delta-T Compressional 
DWAL               .kg/kg                                  : Dry Weight Fraction Pseudo Aluminum (SpectroLith WALK2 Model) 
DWCA               .kg/kg                                  : Dry Weight Fraction Calcium (SpectroLith WALK2 Model) 
DWFE               .kg/kg                                  : Dry Weight Fraction Iron + 0.14 Aluminum (SpectroLith WALK2 Model) 
DWGD               .ppm                                    : Dry Weight Fraction Gadolinium (SpectroLith WALK2 Model) 
DWS                .kg/kg                                  : Dry Weight Fraction Sulfur (SpectroLith WALK2 Model) 
DWSI               .kg/kg                                  : Dry Weight Fraction Silicon (SpectroLith WALK2 Model) 
DWTI               .kg/kg                                  : Dry Weight Fraction Titanium (SpectroLith WALK2 Model) 
GR                 .gAPI                                   : Gamma Ray 
GRt                .gAPI                                   : HNGS Standard Gamma-Ray 
HCAL               .in                                     : HRCC Caliper Calibrated 
HDRA               .g/cm3                                  : Density Standoff Correction 
HFK                .%                                      : HNGS Formation Potassium Concentration 
HTHO               .ppm                                    : HNGS Formation Thorium Concentration 
HURA               .ppm                                    : HNGS Formation Uranium Concentration 
KSDR               .mD                                     : SDR Permeability 
KTIM               .mD                                     : Timur/Coates Permeability 
NMRE_Final         .m3/m3                                  :  
NMRFL_Final        .unitless                               :  
NMRT_Final         .frac                                   :  
NPHI               .frac                                   : Enhanced Thermal Neutron Porosity in Selected Lithology 
PE                 .b/e                                    : Standard Resolution Formation Photoelectric Factor 
RD                 .ohm.m                                  : Apparent Resistivity from Computed Focusing Mode 5 
RHOB               .g/cm3                                  : Standard Resolution Formation Density 
RM                 .ohm.m                                  : Apparent Resistivity from Computed Focusing Mode 4 
RS                 .ohm.m                                  : Apparent Resistivity from Computed Focusing Mode 3 
T2LM               .ms                                     : T2 Logarithmic Mean 
TVDSS              .M                                      :  
~Ascii
# ...
5162.906   12.250     54.485     0.000      0.325      0.000      0.000      0.010      0.083      0.000      21.381     13.240     12.762     -0.002     0.312      1.083      0.510      0.223      0.239      0.056      0.035      0.070      0.064      4.115      41.209     2.692      32.371     36.812     47.687     5137.527  
5163.058   12.250     54.113     0.000      0.299      0.000      0.000      0.016      0.110      0.000      21.969     13.017     12.753     -0.001     0.277      1.008      0.598      0.168      0.192      0.053      0.033      0.068      0.069      3.895      39.050     2.706      31.221     35.630     43.785     5137.679  
5163.210   12.250     53.626     0.000      0.276      0.000      0.000      0.018      0.135      0.000      23.654     13.741     12.708     -0.001     0.264      1.056      0.704      0.178      0.207      0.055      0.034      0.068      0.064      3.660      44.656     2.710      35.425     40.515     45.102     5137.831  
5163.363   12.250     53.716     0.001      0.259      0.000      0.000      0.018      0.155      0.000      27.041     16.669     12.737     -0.003     0.306      1.140      0.948      0.381      0.392      0.065      0.040      0.073      0.050      3.476      61.797     2.694      44.266     50.250     57.963     5137.982  
5163.515   12.250     55.067     0.001      0.256      0.000      0.000      0.016      0.159      0.000      31.900     22.001     12.715     -0.004     0.385      1.438      1.335      2.013      1.576      0.080      0.054      0.086      0.059      3.439      45.640     2.662      31.519     35.229     96.071     5138.134  
5163.668   12.250     56.869     0.000      0.278      0.000      0.000      0.011      0.137      0.000      35.433     27.278     12.616     -0.007     0.451      1.724      1.736      11.685     8.573      0.102      0.076      0.104      0.101      3.643      24.671     2.615      16.963     18.597     160.075    5138.286  
5163.820   12.250     59.804     0.000      0.322      0.000      0.187      0.003      0.089      0.000      36.054     29.726     12.618     -0.007     0.468      1.715      2.011      37.005     25.129     0.111      0.091      0.112      0.142      3.957      15.071     2.577      10.561     11.477     244.804    5138.437  
5163.972   12.250     61.284     0.000      0.357      0.000      1.145      0.000      0.051      0.000      34.274     29.009     12.607     -0.007     0.431      1.583      2.069      77.706     51.047     0.120      0.102      0.120      0.151      4.216      12.316     2.546      8.912      9.661      305.402    5138.589  
5164.125   12.250     62.128     0.001      0.363      0.001      2.020      0.001      0.041      0.000      32.192     26.509     12.616     -0.006     0.386      1.282      1.969      109.669    69.554     0.129      0.107      0.129      0.148      4.244      11.447     2.529      8.625      9.336      314.687    5138.741  
5164.277   12.250     64.594     0.005      0.343      0.003      1.999      0.003      0.056      0.000      31.380     24.326     12.612     -0.004     0.335      1.067      1.895      104.426    61.101     0.133      0.108      0.133      0.159      4.047      11.147     2.506      8.846      9.604      289.482    5138.893  
5164.430   12.250     67.665     0.005      0.326      0.004      3.186      0.004      0.075      0.000      31.317     23.162     12.637     -0.005     0.307      1.118      1.797      89.618     64.000     0.130      0.107      0.130      0.160      3.777      8.841      2.478      7.285      7.941      280.655    5139.044  
5164.582   12.250     69.018     0.003      0.323      0.002      3.533      0.002      0.084      0.000      30.052     23.104     12.659     -0.010     0.305      1.085      1.806      90.195     71.833     0.133      0.110      0.133      0.176      3.669      7.397      2.448      6.255      6.835      268.901    5139.196  
5164.734   12.250     68.616     0.000      0.332      0.000      3.202      0.000      0.080      0.000      28.093     23.550     12.680     -0.013     0.310      1.012      1.888      99.316     77.319     0.140      0.114      0.140      0.192      3.783      7.111      2.448      6.216      6.805      254.612    5139.348  
5164.887   12.250     66.801     0.000      0.345      0.000      1.554      0.000      0.065      0.000      26.594     23.505     12.685     -0.013     0.311      0.955      1.917      112.327    72.772     0.149      0.118      0.149      0.178      4.026      8.544      2.463      7.695      8.309      240.394    5139.499  
5165.039   12.250     65.395     0.000      0.360      0.000      1.449      0.000      0.047      0.000      26.969     23.691     12.685     -0.009     0.303      1.039      1.931      121.273    56.841     0.156      0.118      0.156      0.179      4.180      8.249      2.478      7.478      7.989      227.553    5139.651  
5165.192   12.250     65.542     0.000      0.372      0.000      1.714      0.001      0.033      0.000      28.166     24.242     12.695     -0.010     0.307      1.155      1.952      108.444    45.304     0.160      0.116      0.160      0.191      4.249      8.863      2.471      8.026      8.464      203.693    5139.803  
5165.344   12.250     66.165     0.000      0.373      0.000      2.512      0.001      0.031      0.000      29.846     25.404     12.705     -0.008     0.331      1.301      1.993      93.008     37.898     0.160      0.115      0.166      0.181      4.291      8.398      2.458      7.572      7.877      174.710    5139.954  
5165.496   12.250     66.489     0.000      0.370      0.000      3.011      0.000      0.036      0.000      31.330     26.716     12.723     -0.007     0.343      1.472      2.059      75.025     34.473     0.156      0.114      0.171      0.187      4.384      6.856      2.445      6.150      6.367      147.733    5140.106  
5165.649   12.250     66.055     0.000      0.363      0.000      3.748      0.000      0.043      0.000      32.793     27.634     12.723     -0.004     0.346      1.602      2.095      49.727     28.675     0.145      0.110      0.167      0.216      4.420      6.338      2.452      5.576      5.728      126.521    5140.258  
5165.801   12.250     64.747     0.000      0.361      0.000      3.903      0.000      0.046      0.000      32.687     27.043     12.723     -0.002     0.319      1.604      2.070      24.014     17.852     0.122      0.097      0.147      0.205      4.364      9.037      2.478      7.582      7.705      113.197    5140.410  
5165.954   12.250     62.858     0.000      0.362      0.000      3.543      0.000      0.045      0.000      30.951     25.412     12.560     -0.001     0.290      1.507      1.978      11.722     10.703     0.104      0.084      0.124      0.167      4.300      12.154     2.511      9.554      9.642      112.887    5140.561  
5166.106   12.250     61.167     0.000      0.365      0.000      3.096      0.000      0.042      0.000      29.121     23.463     12.567     -0.001     0.260      1.407      1.826      9.587      7.561      0.094      0.075      0.106      0.141      4.311      15.629     2.537      11.725     11.854     138.692    5140.713  
5166.258   12.250     60.115     0.000      0.367      0.000      2.514      0.000      0.039      0.000      27.592     22.257     12.582     -0.003     0.237      1.360      1.732      10.205     6.551      0.093      0.072      0.099      0.119      4.425      20.091     2.547      14.349     14.631     162.652    5140.865  
5166.411   12.250     59.973     0.000      0.366      0.000      1.913      0.001      0.039      0.000      27.355     21.772     12.593     -0.003     0.235      1.286      1.700      11.077     6.069      0.096      0.071      0.099      0.123      4.511      22.321     2.556      15.525     15.915     169.385    5141.016  
5166.563   12.250     60.641     0.000      0.359      0.000      0.938      0.002      0.048      0.000      26.565     21.492     12.603     -0.004     0.231      1.249      1.699      9.856      5.020      0.096      0.069      0.100      0.126      4.577      18.250     2.563      11.992     12.358     158.571    5141.168  
