~Version
 VERS              .         2.0                           : CWLS LOG ASCII STANDARD - VERSION 2.0
 WRAP              .         NO                            : ONE LINE PER DEPTH STEP
 DLM               .         SPACE                         : DELIMITING CHARACTER(SPACE TAB OR COMMA)
~Well Information
#_______________________________________________________________________________
#
#PARAMETER_NAME    .UNIT     VALUE                         : DESCRIPTION
#_______________________________________________________________________________
STRT               .M        5027.447                      : First reference value
STOP               .M        5499.430                      : Last reference value
STEP               .M        0.152                         : Step increment
NULL               .         -9999                         : Missing value
COMP               .         PETROBRAS                     : Company
WELL               .         8-SPH-10-SPS                  : Well name
FLD                .         SAPINHOA                      : Field
LOC                .                                       : Location
PROV               .                                       : Province
SRVC               .                                       : Service Company
DATE               .         2021-09-13 11_18_58           : Date
UWI                .         8-SPH-10-SPS                  : Unique Well ID
APD                .M        24                            : Above Permanent Datum
API                .                                       : API NUMBER
BHT                .degF     153                           : Bottom Hole Temperature
BLI                .M        5494.8                        : Bottom Log Interval
BS                 .in       8.5                           : Bit Size
CTRY               .         BRASIL                        : Nation
DCS                .         15/06/2015                    : Date Ciculation Stopped
DFD                .lb/gal   9.7                           : Drilling Fluid Density
DFT                .         CATIONICO FLEX DRILL (BASE AGUA): Drilling Fluid Type
DLAB               .         18/06/2015                    : Date Logger At Bottom
EDF                .M        24                            : Elevation of Derreck Floor
EGL                .M        -2125                         : Elevation of Ground Level
EKB                .M        -999.25                       : Elevation of Kelly Bushing
EPD                .M        0                             : Elevation Of Permanent Datum
LMF                .         MR                            : Log Measured From
LONG               .         -43_10_14,760                 : Longitude
MCST               .degF     67                            : Mud Cake Sample Temperature
MFST               .degF     67                            : Mud Filtrate Sample Temperature
MRT                .degF     153                           : Maximum Recorded Temperature
MST                .degF     67                            : Mud Sample Temperature
ORIGINALWELLNAME   .         P08                           : 
PDAT               .         NM                            : Permanent Datum
PRODUCER-CODE      .         150                           : 
PRODUCER-NAME      .         ATLAS                         : 
RMB                .ohm.m    -999.25                       : Resistivity Of Mud - BHT
RMCS               .ohm.m    0.078                         : Resistivity Of Mud Cake Sample
RMFS               .ohm.m    0.064                         : Mud Filtrate Sample Resistivity
RMS                .ohm.m    0.071                         : Mud Sample Resistivity
RUN                .         3                             : Run Number
STAT               .         SAO PAULO                     : State
TCS                .h        22_00                         : Time Ciculation Stopped
TDD                .M        5496                          : Total Depht - Driller
TDL                .M        5495.5                        : Total Depht - Logger
TLAB               .h        10_45                         : Time Logger At Bottom
TLI                .M        5114                          : Top Log Interval
X                  .M        683623.00000000               : 
Y                  .M        7161727.00000000              : 
~Parameter Information Block
#_______________________________________________________________________________
#
#PARAMETER_NAME    .UNIT     VALUE                         : DESCRIPTION
#_______________________________________________________________________________
SET                .         BASE                          : 
TLFamily_BS        .         Bit Size                      : 
TLFamily_DT        .         Compressional Slowness        : 
TLFamily_DWAL      .         Aluminum Weight Fraction      : 
TLFamily_DWCA      .         Calcium Weight Fraction       : 
TLFamily_DWFE      .         Iron Weight Fraction          : 
TLFamily_DWGD      .         Gadolinium Weight Fraction    : 
TLFamily_DWK       .         Potassium Weight Fraction     : 
TLFamily_DWMG      .         Magnesium Weight Fraction     : 
TLFamily_DWMN      .         Manganese Weight Fraction     : 
TLFamily_DWS       .         Sulfur Weight Fraction        : 
TLFamily_DWSI      .         Silicon Weight Fraction       : 
TLFamily_DWTI      .         Titanium Weight Fraction      : 
TLFamily_GR        .         Gamma Ray                     : 
TLFamily_GRt       .         Gamma Ray                     : 
TLFamily_HCAL      .         Caliper                       : 
TLFamily_HDRA      .         Bulk Density Correction       : 
TLFamily_HFK       .         Potassium Concentration       : 
TLFamily_HTHO      .         Thorium Concentration         : 
TLFamily_HURA      .         Uranium Concentration         : 
TLFamily_MD        .         Measured Depth                : 
TLFamily_MPERM     .         NMR Permeability              : 
TLFamily_NMRE_Final .         NMR Bound Fluid Volume Fraction: 
TLFamily_NMRFL_Final .         NMR Free Fluids               : 
TLFamily_NMRT_Final .         NMR Porosity                  : 
TLFamily_NPHI      .         Neutron Porosity              : 
TLFamily_PE        .         Photoelectric Factor          : 
TLFamily_RD        .         Resistivity - Deep            : 
TLFamily_RHOB      .         Bulk Density                  : 
TLFamily_RS        .         Resistivity - Shallow         : 
TLFamily_TVDSS     .         True Vertical Depth Sub Sea   : 
~Curve Information
#_______________________________________________________________________________
#
#LOGNAME           .UNIT     LOG_ID                        : DESCRIPTION
#_______________________________________________________________________________
DEPTH              .M                                      :  
BS                 .in                                     : Bit size 
DT                 .us/ft                                  : Slowness over 24-inch interval 
DWAL               .kg/kg                                  : Weight fraction of aluminum derived from thorium in dry rock 
DWCA               .kg/kg                                  : Weight fraction of calcium in dry rock 
DWFE               .kg/kg                                  : Weight fraction of iron in dry rock 
DWGD               .ppm                                    : Weight fraction of gadolinium in dry rock 
DWK                .kg/kg                                  : Weight fraction of potassium in dry rock 
DWMG               .kg/kg                                  : Weight fraction of magnesium in dry rock 
DWMN               .kg/kg                                  : Weight fraction of manganese in dry rock 
DWS                .kg/kg                                  : Weight fraction of sulfur in dry rock 
DWSI               .kg/kg                                  : Weight fraction of silicon in dry rock 
DWTI               .kg/kg                                  : Weight fraction of titanium in dry rock 
GR                 .gAPI                                   : Gamma ray 
GRt                .gAPI                                   : Gamma ray from 1329 spectrum 
HCAL               .in                                     : Caliper 
HDRA               .g/cm3                                  : Density correction 
HFK                .%                                      : Potassium content 
HTHO               .ppm                                    : Thorium concentration 
HURA               .ppm                                    : Uranium content 
MPERM              .mD                                     : MR permeability 
NMRE_Final         .m3/m3                                  : MR effective porosity 
NMRFL_Final        .unitless                               : MR moveable fluids 
NMRT_Final         .frac                                   : MR total porosity 
NPHI               .frac                                   : Borehole size corrected compensated neutron porosity 
PE                 .b/e                                    : Photo electric cross-section 
RD                 .ohm.m                                  : Deep resistivity 
RHOB               .g/cm3                                  : Formation bulk density 
RS                 .ohm.m                                  : Shallow resistivity 
TVDSS              .M                                      :  
~Ascii
# ...
5160.797   8.500      73.072     0.006      0.244      0.003      2.678      0.006      0.021      0.001      0.001      0.086      0.003      10.357     10.400     8.656      -0.024     0.144      1.274      0.818      54.632     0.174      0.123      0.197      0.235      4.243      3.428      2.377      19.707     5136.484  
5160.950   8.500      71.932     0.006      0.244      0.003      2.603      0.006      0.020      0.001      0.001      0.086      0.003      10.480     10.523     8.656      -0.022     0.148      1.257      0.835      45.096     0.177      0.121      0.198      0.233      4.229      3.914      2.395      22.440     5136.636  
5161.102   8.500      70.995     0.006      0.244      0.003      2.635      0.006      0.019      0.001      0.001      0.088      0.003      11.478     11.525     8.657      -0.016     0.147      1.242      0.937      32.990     0.172      0.114      0.191      0.223      4.221      5.233      2.431      30.183     5136.788  
5161.255   8.500      69.247     0.006      0.242      0.002      2.770      0.004      0.020      0.001      0.001      0.090      0.003      13.387     13.442     8.657      -0.011     0.141      1.227      1.105      26.025     0.160      0.107      0.177      0.207      4.266      7.179      2.463      41.884     5136.941  
5161.407   8.500      68.012     0.006      0.237      0.002      2.920      0.004      0.025      0.001      0.001      0.089      0.003      15.187     15.251     8.656      -0.011     0.135      1.234      1.200      21.544     0.149      0.101      0.164      0.198      4.407      8.713      2.473      50.930     5137.093  
5161.559   8.500      67.655     0.006      0.228      0.002      2.993      0.004      0.035      0.001      0.001      0.083      0.003      15.693     15.759     8.657      -0.014     0.132      1.266      1.189      19.526     0.142      0.097      0.156      0.201      4.517      9.266      2.463      53.584     5137.246  
5161.712   8.500      68.005     0.007      0.220      0.001      3.003      0.005      0.050      0.001      0.001      0.074      0.003      14.976     15.033     8.657      -0.017     0.131      1.322      1.103      18.716     0.140      0.096      0.152      0.210      4.417      9.245      2.450      52.912     5137.398  
5161.864   8.500      68.603     0.007      0.215      0.001      3.007      0.005      0.060      0.001      0.001      0.068      0.003      13.927     13.975     8.657      -0.018     0.130      1.387      0.951      16.606     0.145      0.096      0.150      0.210      4.234      9.208      2.448      52.636     5137.550  
5162.017   8.500      69.094     0.007      0.214      0.000      2.979      0.005      0.063      0.001      0.001      0.064      0.004      13.052     13.099     8.657      -0.017     0.127      1.397      0.829      15.744     0.149      0.095      0.153      0.205      4.224      9.310      2.453      53.276     5137.703  
5162.169   8.500      69.418     0.007      0.213      0.000      2.860      0.006      0.064      0.001      0.001      0.060      0.004      12.627     12.679     8.657      -0.017     0.122      1.345      0.794      15.850     0.148      0.095      0.156      0.206      4.393      9.331      2.453      53.158     5137.855  
5162.321   8.500      69.665     0.006      0.213      0.000      2.672      0.007      0.067      0.001      0.001      0.057      0.004      12.690     12.744     8.656      -0.019     0.116      1.266      0.816      15.125     0.144      0.094      0.158      0.213      4.526      8.932      2.446      50.318     5138.008  
5162.474   8.500      69.862     0.006      0.216      0.001      2.525      0.008      0.065      0.001      0.001      0.058      0.004      12.894     12.948     8.656      -0.020     0.106      1.171      0.879      12.205     0.143      0.090      0.160      0.217      4.518      8.108      2.440      45.042     5138.160  
5162.626   8.500      69.926     0.006      0.220      0.001      2.528      0.008      0.055      0.001      0.001      0.062      0.004      12.996     13.049     8.656      -0.020     0.096      1.091      0.967      13.092     0.141      0.091      0.161      0.219      4.467      7.253      2.440      39.822     5138.312  
5162.779   8.500      69.714     0.005      0.224      0.001      2.672      0.006      0.042      0.001      0.001      0.065      0.004      12.937     12.990     8.657      -0.020     0.092      1.055      1.045      15.562     0.136      0.093      0.156      0.218      4.451      6.775      2.441      36.869     5138.465  
5162.931   8.500      69.115     0.005      0.226      0.001      2.801      0.004      0.033      0.001      0.001      0.064      0.004      12.796     12.850     8.657      -0.020     0.094      1.049      1.101      15.841     0.132      0.092      0.148      0.210      4.436      6.845      2.443      36.849     5138.617  
5163.083   8.500      68.180     0.005      0.224      0.001      2.751      0.005      0.034      0.001      0.001      0.059      0.004      13.213     13.267     8.657      -0.018     0.104      1.072      1.150      12.445     0.131      0.088      0.143      0.199      4.375      7.328      2.455      38.992     5138.770  
5163.236   8.500      67.172     0.006      0.221      0.001      2.512      0.007      0.040      0.001      0.001      0.055      0.004      14.861     14.920     8.656      -0.016     0.135      1.140      1.201      12.161     0.126      0.087      0.139      0.195      4.301      8.013      2.475      42.448     5138.922  
5163.388   8.500      66.460     0.006      0.218      0.001      2.246      0.011      0.050      0.001      0.001      0.057      0.004      17.343     17.413     8.655      -0.015     0.198      1.270      1.245      11.818     0.120      0.085      0.138      0.200      4.294      8.991      2.494      47.940     5139.074  
5163.541   8.500      66.265     0.007      0.212      0.002      2.106      0.013      0.058      0.001      0.001      0.063      0.004      20.047     20.132     8.656      -0.017     0.296      1.463      1.267      7.740      0.121      0.079      0.139      0.204      4.352      11.035     2.499      59.882     5139.227  
5163.693   8.500      66.505     0.008      0.207      0.003      2.104      0.016      0.057      0.001      0.001      0.071      0.005      23.272     23.370     8.656      -0.020     0.422      1.673      1.250      4.445      0.123      0.072      0.137      0.196      4.418      14.409     2.498      80.261     5139.379  
5163.845   8.500      66.938     0.009      0.202      0.003      2.171      0.017      0.050      0.001      0.001      0.079      0.006      26.139     26.243     8.655      -0.020     0.534      1.818      1.222      3.126      0.114      0.066      0.125      0.186      4.460      17.795     2.500      101.142    5139.531  
5163.998   8.500      67.464     0.009      0.199      0.004      2.271      0.016      0.041      0.001      0.001      0.087      0.006      26.945     27.050     8.655      -0.019     0.598      1.881      1.220      4.115      0.102      0.067      0.117      0.186      4.456      19.734     2.500      112.782    5139.684  
5164.150   8.500      68.192     0.009      0.196      0.005      2.411      0.013      0.038      0.001      0.001      0.094      0.006      26.808     26.911     8.656      -0.018     0.643      1.918      1.249      5.034      0.099      0.069      0.115      0.198      4.371      19.582     2.492      110.963    5139.836  
5164.303   8.500      69.178     0.009      0.191      0.006      2.579      0.011      0.041      0.001      0.001      0.098      0.006      29.140     29.253     8.656      -0.018     0.714      1.934      1.438      3.282      0.099      0.064      0.114      0.215      4.232      17.436     2.482      96.869     5139.989  
5164.455   8.500      70.197     0.009      0.179      0.006      2.728      0.010      0.056      0.001      0.001      0.100      0.006      34.120     34.257     8.656      -0.019     0.771      1.864      1.958      1.283      0.094      0.053      0.110      0.229      4.123      14.203     2.479      76.743     5140.141  
