~Version
 VERS              .         2.0                           : CWLS LOG ASCII STANDARD - VERSION 2.0
 WRAP              .         NO                            : ONE LINE PER DEPTH STEP
 DLM               .         SPACE                         : DELIMITING CHARACTER(SPACE TAB OR COMMA)
~Well Information
#_______________________________________________________________________________
#
#PARAMETER_NAME    .UNIT     VALUE                         : DESCRIPTION
#_______________________________________________________________________________
STRT               .M        2228.000                      : First reference value
STOP               .M        5446.688                      : Last reference value
STEP               .M        0.152                         : Step increment
NULL               .         -9999                         : Missing value
COMP               .         Petrobras                     : Company
WELL               .         8-SPH-13-SPS                  : Well name
FLD                .         Sapinhoa                      : Field
LOC                .                                       : Location
CNTY               .                                       : County
STAT               .         SAO PAULO                     : State
CTRY               .         BRASIL                        : Country
SRVC               .                                       : Service Company
DATE               .                                       : Date
API                .         863160035500                  : API number
APD                .M        24                            : Above Permanent Datum
BHT                .degF     120                           : Bottom Hole Temperature
BLI                .M        5180.5                        : Bottom Log Interval
BS                 .in       12.25x14.75                   : Bit Size
DCS                .         07/04/2014                    : Date Ciculation Stopped
DFD                .lbm/gal  10.1                          : Drilling Fluid Density
DFT                .         BR-MUL                        : Drilling Fluid Type
DLAB               .         08/04/2014                    : Date Logger At Bottom
EDF                .M        24                            : Elevation of Derreck Floor
EGL                .M        -2119                         : Elevation of Ground Level
EKB                .M        -999.25                       : ELEVATION OF KELLY BUSHING
EPD                .M        0                             : Elevation Of Permanent Datum
GDAT               .         SIRGAS2000                    : Geodetic Datum
LMF                .         MR                            : Log Measured From
LUL                .         MCE                           : LOGGING UNIT LOCATION
LUN                .         -999.25                       : LOGGING UNIT NUMBER
LATI               .         -25_42_39.196                 : Latitude
LONG               .         -43_09_15.905                 : Longitude
MCST               .degF     -999.25                       : Mud Cake Sample Temperature
MFST               .degF     -999.25                       : Mud Filtrate Sample Temperature
MRT                .degF     120                           : Maximum Recorded Temperature
MST                .degF     -999.25                       : Mud Sample Temperature
ORIGINALWELLNAME   .         8SPH 0013  SPS                : 
PDAT               .         NM                            : Permanent Datum
PRODUCER-CODE      .         15                            : 
PRODUCER-NAME      .         INTEQ                         : 
RMB                .ohm.m    -999.25                       : RESISTIVITY OF MUD - BHT
RMCS               .ohm.m    -999.25                       : Resistivity Of Mud Cake Sample
RMFS               .ohm.m    -999.25                       : Mud Filtrate Sample Resistivity
RMS                .ohm.m    -999.25                       : Mud Sample Resistivity
RUN                .         1                             : Run
TCS                .h        15_00                         : Time Ciculation Stopped
TDD                .M        5184                          : Total Depht - Driller
TDL                .M        5184                          : Total Depht - Logger
TLAB               .h        11_00                         : Time Logger At Bottom
TLI                .M        3543                          : Top Log Interval
X                  .M        685128.30900000               : X COORDINATE N
Y                  .M        7155027.01100000              : Y COORDINATE E
~Parameter Information Block
#_______________________________________________________________________________
#
#PARAMETER_NAME    .UNIT     VALUE                         : DESCRIPTION
#_______________________________________________________________________________
SET                .         BASE                          : 
TLFamily_DT        .         Compressional Slowness        : 
TLFamily_GR        .         Gamma Ray                     : 
TLFamily_HCAL      .         Caliper                       : 
TLFamily_MD        .         Measured Depth                : 
TLFamily_NMRE_Final .         NMR Bound Fluid Volume Fraction: 
TLFamily_NMRFL_Final .         NMR Free Fluids               : 
TLFamily_NMRT_Final .         NMR Porosity                  : 
TLFamily_NPHI      .         Neutron Porosity              : 
TLFamily_RD        .         Resistivity - Deep            : 
TLFamily_RHOB      .         Bulk Density                  : 
TLFamily_RM        .         Resistivity - Medium          : 
TLFamily_RS        .         Resistivity - Shallow         : 
~Curve Information
#_______________________________________________________________________________
#
#LOGNAME           .UNIT     LOG_ID                        : DESCRIPTION
#_______________________________________________________________________________
DEPTH              .M                                      :  
DT                 .us/ft                                  : SONICO COMPRESSIONAL (COMPOSICAO DE CURVAS CABO E/OU LWD) 
GR                 .gAPI                                   : RAIOS GAMA (COMPOSICAO DE CURVAS CABO E/OU LWD) 
HCAL               .in                                     : CALIPER (COMPOSICAO DE CURVAS CABO E/OU LWD) 
NMRE_Final         .m3/m3                                  : 03/02 - MRIL (HALLIBURTON) - MRIL EFFECTIVE POROSITY 
NMRFL_Final        .unitless                               : 03/02 - MRIL (HALLIBURTON) - FREE FLUID INDEX T2 
NMRT_Final         .frac                                   : 03/02 - MRIL (HALLIBURTON) - MRIAN MRIL TOTAL POROSITY 
NPHI               .frac                                   : POROSIDADE NEUTRONICA (COMPOSICAO DE CURVAS CABO E/OU LWD) 
RD                 .ohm.m                                  : RESISTIVIDADE PROFUNDA (COMPOSICAO DE CURVAS CABO E/OU LWD) 
RHOB               .g/cm3                                  : DENSIDADE (COMPOSICAO DE CURVAS CABO E/OU LWD ) 
RM                 .ohm.m                                  : RESISTIVIDADE MEDIA (COMPOSICAO DE CURVAS CABO E/OU LWD) 
RS                 .ohm.m                                  : RESISTIVIDADE RASA (COMPOSICAO DE CURVAS CABO E/OU LWD) 
~Ascii
# ...
4050.094   68.819     5.027      14.765     -9999.000  -9999.000  -9999.000  -0.032     1622.089   2.042      1629.613   1629.613  
4050.247   68.552     5.273      14.764     -9999.000  -9999.000  -9999.000  -0.032     1626.618   2.040      1648.614   1648.614  
4050.399   68.306     5.637      14.765     -9999.000  -9999.000  -9999.000  -0.031     1584.149   2.035      1417.796   1417.796  
4050.552   67.973     5.370      14.764     -9999.000  -9999.000  -9999.000  -0.031     1576.079   2.028      1481.090   1481.090  
4050.704   67.799     5.270      14.765     -9999.000  -9999.000  -9999.000  -0.032     1613.632   2.027      1354.229   1354.229  
4050.856   67.864     5.287      14.770     -9999.000  -9999.000  -9999.000  -0.032     1644.087   2.033      1417.567   1417.567  
4051.009   68.169     4.968      14.769     -9999.000  -9999.000  -9999.000  -0.032     1677.270   2.040      1481.586   1481.586  
4051.161   68.486     4.961      14.766     -9999.000  -9999.000  -9999.000  -0.032     1687.143   2.043      1417.147   1417.147  
4051.314   68.442     5.414      14.765     -9999.000  -9999.000  -9999.000  -0.032     1684.649   2.044      1481.739   1481.739  
4051.466   68.186     6.486      14.766     -9999.000  -9999.000  -9999.000  -0.032     1630.133   2.049      1417.300   1417.300  
4051.618   68.075     6.892      14.767     -9999.000  -9999.000  -9999.000  -0.031     1566.905   2.056      1482.197   1482.197  
4051.771   68.219     6.077      14.766     -9999.000  -9999.000  -9999.000  -0.032     1473.484   2.053      1354.229   1354.229  
4051.923   68.368     5.448      14.763     -9999.000  -9999.000  -9999.000  -0.032     1454.104   2.047      1499.610   1499.610  
4052.076   68.446     5.045      14.763     -9999.000  -9999.000  -9999.000  -0.032     1497.589   2.046      1651.985   1651.985  
4052.228   68.498     5.081      14.764     -9999.000  -9999.000  -9999.000  -0.032     1558.145   2.049      1416.345   1416.345  
4052.380   68.518     5.320      14.766     -9999.000  -9999.000  -9999.000  -0.032     1642.609   2.051      1434.592   1434.592  
4052.533   68.490     5.663      14.767     -9999.000  -9999.000  -9999.000  -0.032     1686.284   2.051      1316.096   1316.096  
4052.685   68.389     5.923      14.767     -9999.000  -9999.000  -9999.000  -0.032     1715.971   2.048      1482.999   1482.999  
4052.838   68.227     6.096      14.765     -9999.000  -9999.000  -9999.000  -0.032     1707.736   2.043      1416.078   1416.078  
4052.990   67.948     6.263      14.763     -9999.000  -9999.000  -9999.000  -0.032     1649.408   2.035      1483.419   1483.419  
4053.142   67.742     6.068      14.763     -9999.000  -9999.000  -9999.000  -0.032     1582.057   2.028      1415.925   1415.925  
4053.295   67.677     5.265      14.762     -9999.000  -9999.000  -9999.000  -0.032     1484.010   2.029      1544.886   1544.886  
4053.447   67.745     4.891      14.760     -9999.000  -9999.000  -9999.000  -0.032     1436.664   2.034      1483.648   1483.648  
4053.600   67.976     5.348      14.760     -9999.000  -9999.000  -9999.000  -0.032     1437.627   2.038      1306.895   1306.895  
4053.752   68.114     5.641      14.762     -9999.000  -9999.000  -9999.000  -0.032     1469.564   2.041      1253.211   1253.211  
4053.904   68.011     5.810      14.763     -9999.000  -9999.000  -9999.000  -0.032     1517.742   2.039      1415.276   1415.276  
4054.057   67.968     5.764      14.763     -9999.000  -9999.000  -9999.000  -0.032     1531.963   2.037      1544.886   1544.886  
4054.209   68.122     5.865      14.764     -9999.000  -9999.000  -9999.000  -0.032     1538.517   2.035      1437.171   1437.171  
4054.362   68.207     5.539      14.765     -9999.000  -9999.000  -9999.000  -0.032     1542.543   2.033      1312.973   1312.973  
4054.514   68.136     5.102      14.766     -9999.000  -9999.000  -9999.000  -0.032     1548.718   2.031      1544.886   1544.886  
4054.666   68.230     5.198      14.766     -9999.000  -9999.000  -9999.000  -0.032     1561.255   2.027      1544.886   1544.886  
4054.819   68.334     5.647      14.765     -9999.000  -9999.000  -9999.000  -0.032     1561.458   2.025      1624.308   1624.308  
4054.971   68.345     5.851      14.764     -9999.000  -9999.000  -9999.000  -0.032     1538.568   2.029      1797.189   1797.189  
4055.124   68.287     5.752      14.764     -9999.000  -9999.000  -9999.000  -0.032     1525.589   2.036      1658.815   1658.815  
4055.276   68.116     5.718      14.764     -9999.000  -9999.000  -9999.000  -0.032     1531.021   2.043      1354.229   1354.229  
4055.428   68.030     5.088      14.762     -9999.000  -9999.000  -9999.000  -0.032     1528.871   2.047      1354.229   1354.229  
4055.581   68.169     4.385      14.762     -9999.000  -9999.000  -9999.000  -0.032     1486.882   2.047      1492.071   1492.071  
4055.733   68.258     4.866      14.763     -9999.000  -9999.000  -9999.000  -0.032     1442.941   2.046      1797.189   1797.189  
4055.886   68.169     5.823      14.765     -9999.000  -9999.000  -9999.000  -0.032     1416.337   2.043      1718.879   1718.879  
4056.038   68.214     6.290      14.770     -9999.000  -9999.000  -9999.000  -0.031     1439.855   2.038      1623.095   1623.095  
4056.190   68.270     6.204      14.771     -9999.000  -9999.000  -9999.000  -0.032     1524.745   2.035      1719.485   1719.485  
4056.343   68.192     5.767      14.769     -9999.000  -9999.000  -9999.000  -0.032     1593.498   2.033      1440.497   1440.497  
4056.495   68.335     5.497      14.767     -9999.000  -9999.000  -9999.000  -0.032     1623.042   2.034      1251.311   1251.311  
4056.648   68.588     5.439      14.765     -9999.000  -9999.000  -9999.000  -0.032     1588.200   2.036      1412.795   1412.795  
4056.800   68.523     5.736      14.764     -9999.000  -9999.000  -9999.000  -0.032     1505.199   2.034      1544.886   1544.886  
4056.952   68.264     6.185      14.764     -9999.000  -9999.000  -9999.000  -0.032     1480.004   2.031      1621.782   1621.782  
4057.105   68.227     6.194      14.767     -9999.000  -9999.000  -9999.000  -0.032     1509.843   2.028      1616.280   1616.280  
4057.257   68.198     6.159      14.769     -9999.000  -9999.000  -9999.000  -0.032     1544.386   2.028      1308.969   1308.969  
4057.410   67.989     6.611      14.768     -9999.000  -9999.000  -9999.000  -0.032     1560.329   2.029      1487.007   1487.007  
4057.562   67.778     6.713      14.771     -9999.000  -9999.000  -9999.000  -0.032     1535.231   2.027      1412.031   1412.031  
4057.714   67.725     6.562      14.772     -9999.000  -9999.000  -9999.000  -0.032     1494.786   2.027      1725.123   1725.123  
4057.867   67.894     6.179      14.772     -9999.000  -9999.000  -9999.000  -0.032     1408.635   2.033      1962.385   1962.385  
4058.019   68.204     6.348      14.774     -9999.000  -9999.000  -9999.000  -0.032     1363.250   2.039      1487.618   1487.618  
4058.172   68.229     6.467      14.778     -9999.000  -9999.000  -9999.000  -0.032     1360.360   2.041      1354.229   1354.229  
4058.324   68.207     5.711      14.782     -9999.000  -9999.000  -9999.000  -0.032     1405.971   2.039      1411.115   1411.115  
4058.476   68.359     5.121      14.784     -9999.000  -9999.000  -9999.000  -0.032     1497.318   2.036      1443.347   1443.347  
4058.629   68.347     5.412      14.784     -9999.000  -9999.000  -9999.000  -0.032     1560.835   2.036      1250.064   1250.064  
4058.781   68.320     5.570      14.785     -9999.000  -9999.000  -9999.000  -0.031     1646.378   2.040      1410.886   1410.886  
4058.934   68.159     5.248      14.784     -9999.000  -9999.000  -9999.000  -0.031     1696.327   2.046      1544.886   1544.886  
4059.086   68.023     5.440      14.781     -9999.000  -9999.000  -9999.000  -0.031     1722.981   2.048      1869.137   1869.137  
4059.238   68.110     6.110      14.777     -9999.000  -9999.000  -9999.000  -0.031     1701.002   2.049      2262.926   2262.926  
