~Version
 VERS              .         2.0                           : CWLS LOG ASCII STANDARD - VERSION 2.0
 WRAP              .         NO                            : ONE LINE PER DEPTH STEP
 DLM               .         SPACE                         : DELIMITING CHARACTER(SPACE TAB OR COMMA)
~Well Information
#_______________________________________________________________________________
#
#PARAMETER_NAME    .UNIT     VALUE                         : DESCRIPTION
#_______________________________________________________________________________
STRT               .M        5038.900                      : First reference value
STOP               .M        5526.275                      : Last reference value
STEP               .M        0.152                         : Step increment
NULL               .         -9999                         : Missing value
COMP               .         PETROBRAS                     : Company
WELL               .         8-SPH-23-SPS                  : Well name
FLD                .         SAPINHOA                      : Field
LOC                .                                       : Location
PROV               .                                       : Province
SRVC               .                                       : Service Company
DATE               .         2021-09-13 11_18_58           : Date
UWI                .         8-SPH-23-SPS                  : Unique Well ID
APD                .M        24.0                          : ABOVE PERMANENT DATUM
API                .         863160047300                  : API Code
BHT                .degF     160                           : BOTTOMHOLE TEMPERATURE
BLI                .M        5511.3                        : BOTTOM LOGGED INTERVAL
BS                 .in       12.25                         : BIT SIZE
CTRY               .         BRASIL                        : Nation
DCS                .         10/04/2016                    : DATE CIRCULATION STOPPED
DFD                .lb/gal   9.4                           : DRILLING FLUID DENSITY
DFT                .         OLEDRILL (BASE OLEFINA)       : DRILLING FLUID TYPE
DLAB               .         12/04/2016                    : DATE LOGGING ON BOTTOM
EDF                .M        24.0                          : ELEVATION OF DRILLING FLOOR
EGL                .M        -2146.0                       : ELEVATION OF GROUND LEVEL
EKB                .M        24.0                          : ELEVATION OF KELLY BUSHING
EPD                .M        0.0                           : ELEVATATION OF PERMANENT DATUM
GDAT               .         SIRGAS2000                    : Geodetic Datum
LMF                .         MR                            : LOG MEASURED FROM
LUL                .         MCE                           : LOGGING UNIT LOCATION
LUN                .         12247255                      : LOGGING UNIT NUMBER
LATI               .         -25_42_01.290                 : Latitude
LONG               .         -43_11_39,303                 : LONGITUDE
MCST               .degF     -999.25                       : MUDCAKE SAMPLE TEMPERATURE
MFST               .degF     -999.25                       : MUD FILTRATE SAMPLE TEMPERATURE
MRT                .degF     160.0                         : MAXIMUM RECORDED TEMPERATURE
MST                .degF     -999.25                       : MUD SAMPLE TEMPERATURE
ORIGINALWELLNAME   .         8SPH 0023  SPS                : 
PDAT               .         NM                            : PERMANENT DATUM
PRODUCER-CODE      .         280                           : 
PRODUCER-NAME      .         Halliburton                   : 
RMB                .ohm.m    -999.25                       : RESISTIVITY OF MUD - BHT
RMCS               .ohm.m    -999.25                       : RESISTIVITY OF MUDCAKE SAMPLE
RMFS               .ohm.m    -999.25                       : RESISTIVITY OF MUD FILTRATE SAMPLE
RMS                .ohm.m    -999.25                       : RESISTIVITY OF MUD SAMPLE
RUN                .         02                            : RUN NUMBER 1
STAT               .         SAO PAULO                     : STATE
TCS                .h        03_30                         : TIME CIRCULATION STOPPED
TDD                .M        5517.0                        : DRILLERS DEPTH
TDL                .M        5520.0                        : LOGGERS DEPTH
TLAB               .h        07_30                         : TIME LOGGING ON BOTTOM
TLI                .M        5070.0                        : TOP LOGGED INTERVAL
X                  .M        681190.00000000               : X UTM Coordinate
Y                  .M        7156260.00000000              : Y UTM Coordinate
~Parameter Information Block
#_______________________________________________________________________________
#
#PARAMETER_NAME    .UNIT     VALUE                         : DESCRIPTION
#_______________________________________________________________________________
SET                .         BASE                          : 
TLFamily_BS        .         Bit Size                      : 
TLFamily_DT        .         Compressional Slowness        : 
TLFamily_DWAL      .         Aluminum Weight Fraction      : 
TLFamily_DWCA      .         Calcium Weight Fraction       : 
TLFamily_DWFE      .         Iron Weight Fraction          : 
TLFamily_DWK       .         Potassium Weight Fraction     : 
TLFamily_DWMG      .         Magnesium Weight Fraction     : 
TLFamily_DWMN      .         Manganese Weight Fraction     : 
TLFamily_DWS       .         Sulfur Weight Fraction        : 
TLFamily_DWSI      .         Silicon Weight Fraction       : 
TLFamily_DWTI      .         Titanium Weight Fraction      : 
TLFamily_GR        .         Gamma Ray                     : 
TLFamily_GRt       .         Gamma Ray                     : 
TLFamily_HCAL      .         Caliper                       : 
TLFamily_HFK       .         Potassium Concentration       : 
TLFamily_HTHO      .         Thorium Concentration         : 
TLFamily_HURA      .         Uranium Concentration         : 
TLFamily_MD        .         Measured Depth                : 
TLFamily_MPERM     .         NMR Permeability              : 
TLFamily_NMRE_Final .         NMR Bound Fluid Volume Fraction: 
TLFamily_NMRFL_Final .         NMR Free Fluids               : 
TLFamily_NMRT_Final .         NMR Porosity                  : 
TLFamily_NPHI      .         Neutron Porosity              : 
TLFamily_PE        .         Photoelectric Factor          : 
TLFamily_RD        .         Resistivity - Deep            : 
TLFamily_RHOB      .         Bulk Density                  : 
TLFamily_RM        .         Resistivity - Medium          : 
TLFamily_RS        .         Resistivity - Shallow         : 
TLFamily_T2LM      .         NMR T2 Logarithmic Mean       : 
TLFamily_TVDSS     .         True Vertical Depth Sub Sea   : 
~Curve Information
#_______________________________________________________________________________
#
#LOGNAME           .UNIT     LOG_ID                        : DESCRIPTION
#_______________________________________________________________________________
DEPTH              .M                                      :  
BS                 .in                                     : BS/Bit Size 
DT                 .us/ft                                  : DTC/MonoDeltaT 
DWAL               .kg/kg                                  : DAL/DryrockAlWF 
DWCA               .kg/kg                                  : DCA/DryrockCaWF 
DWFE               .kg/kg                                  : DFE/DryrockFeWF 
DWK                .kg/kg                                  : DK/DryrockKWF 
DWMG               .kg/kg                                  : DMG/DryrockMgWF 
DWMN               .kg/kg                                  : DMN/DryrockMnWF 
DWS                .kg/kg                                  : DSUL/DryrockSuWF 
DWSI               .kg/kg                                  : DSI/DryrockSiWF 
DWTI               .kg/kg                                  : DTI/DryrockTiWF 
GR                 .gAPI                                   : GR/Gamma API 
GRt                .gAPI                                   : GKUT/GammaKUT 
HCAL               .in                                     : CALI/Caliper 
HFK                .%                                      : POTA/Potassium 
HTHO               .ppm                                    : THOR/Thorium 
HURA               .ppm                                    : URAN/Uranium 
MPERM              .mD                                     : MPERMT2/MrilT2KCoat 
NMRE_Final         .m3/m3                                  : MPHIT2/TA-grp T2 Effective Por 
NMRFL_Final        .unitless                               : MFFIT2/TA-grp T2 FreeFluid Ind 
NMRT_Final         .frac                                   : MSIGT2/TA-grp T2 Total Por. 
NPHI               .frac                                   : POROSIDADE NEUTRONICA (COMPOSICAO DE CURVAS CABO E/OU LWD) 
PE                 .b/e                                    : Density PE Filtered 
RD                 .ohm.m                                  : RT90/90in Resistivity 2ft Res 
RHOB               .g/cm3                                  : DENSIDADE (COMPOSICAO DE CURVAS CABO E/OU LWD ) 
RM                 .ohm.m                                  : RT30/30in Resistivity 2ft Res 
RS                 .ohm.m                                  : RT10/10in Resistivity 2ft Res 
T2LM               .ms                                     : T2LM/T2 Log Mean 
TVDSS              .M                                      :  
~Ascii
# ...
5317.030   12.250     74.440     0.023      0.025      0.000      0.028      -0.000     0.000      0.011      0.397      0.001      13.225     18.472     12.047     0.176      0.779      1.468      11.913     0.153      0.091      0.153      0.173      5.605      4.778      2.348      6.749      13.277     85.908     5258.620  
5317.182   12.250     76.073     0.026      0.026      0.001      0.032      -0.000     0.000      0.011      0.391      0.001      13.186     18.898     12.083     0.216      0.652      1.492      7.955      0.160      0.084      0.162      0.174      5.775      4.883      2.326      6.977      13.851     76.891     5258.772  
5317.335   12.250     76.236     0.028      0.025      0.001      0.035      -0.000     0.000      0.010      0.390      0.001      13.191     19.071     12.104     0.257      0.593      1.462      7.989      0.162      0.084      0.165      0.166      5.931      4.904      2.313      7.056      14.196     73.180     5258.924  
5317.487   12.250     75.994     0.030      0.023      0.001      0.037      -0.000     0.000      0.009      0.389      0.001      13.915     19.062     12.148     0.297      0.661      1.366      9.668      0.156      0.088      0.158      0.153      6.016      4.913      2.319      7.123      14.721     78.254     5259.077  
5317.639   12.250     75.178     0.030      0.024      0.000      0.037      0.000      0.000      0.011      0.388      0.001      14.592     18.932     12.172     0.336      0.628      1.296      10.070     0.147      0.088      0.148      0.148      5.991      4.713      2.339      6.808      14.302     95.255     5259.229  
5317.792   12.250     72.025     0.028      0.025      0.000      0.035      0.000      0.000      0.014      0.387      0.001      13.899     18.586     12.190     0.347      0.590      1.254      11.866     0.135      0.089      0.138      0.149      5.824      4.486      2.364      6.405      13.272     131.860    5259.381  
5317.944   12.250     70.177     0.024      0.029      0.000      0.030      0.000      0.000      0.015      0.388      0.001      13.242     18.168     12.192     0.342      0.515      1.243      17.869     0.131      0.095      0.136      0.155      5.635      4.128      2.369      5.783      11.694     169.411    5259.534  
5318.097   12.250     67.349     0.022      0.031      0.000      0.027      0.000      0.000      0.014      0.390      0.000      13.626     18.073     12.196     0.324      0.380      1.313      19.911     0.135      0.097      0.138      0.159      5.560      3.935      2.364      5.455      10.860     197.100    5259.686  
5318.249   12.250     66.656     0.021      0.029      0.000      0.027      0.000      0.000      0.012      0.395      0.001      14.521     18.001     12.164     0.296      0.290      1.386      14.280     0.141      0.093      0.142      0.160      5.581      3.703      2.359      5.072      10.007     197.777    5259.838  
5318.401   12.250     65.899     0.022      0.027      0.002      0.027      0.000      0.000      0.010      0.397      0.001      15.149     18.179     12.073     0.275      0.316      1.433      14.255     0.142      0.093      0.142      0.158      5.730      3.608      2.357      4.920      9.732      188.047    5259.991  
5318.554   12.250     65.720     0.021      0.026      0.003      0.026      0.000      0.000      0.009      0.398      0.001      14.443     18.078     12.077     0.250      0.494      1.401      20.595     0.137      0.097      0.138      0.155      5.972      3.483      2.359      4.711      9.287      182.799    5260.143  
5318.706   12.250     65.768     0.022      0.024      0.003      0.027      0.000      0.000      0.010      0.398      0.001      13.494     17.941     12.230     0.231      0.665      1.355      23.353     0.128      0.096      0.130      0.150      6.215      3.442      2.360      4.642      9.149      181.116    5260.295  
5318.859   12.250     67.292     0.024      0.023      0.002      0.030      0.000      0.000      0.008      0.397      0.002      13.444     17.751     12.271     0.218      0.856      1.286      13.103     0.119      0.086      0.121      0.141      6.423      3.446      2.365      4.639      9.156      185.286    5260.448  
5319.011   12.250     67.804     0.023      0.027      0.002      0.028      0.000      0.000      0.009      0.395      0.002      14.089     17.738     12.285     0.209      0.945      1.269      8.971      0.114      0.080      0.115      0.127      6.562      3.482      2.370      4.688      9.220      189.261    5260.600  
5319.163   12.250     68.868     0.021      0.033      0.001      0.026      0.000      0.001      0.009      0.392      0.002      14.704     18.231     12.331     0.223      0.946      1.299      9.621      0.109      0.079      0.109      0.109      6.664      3.647      2.386      4.952      9.841      180.529    5260.753  
5319.316   12.250     68.138     0.019      0.040      0.001      0.024      0.000      0.001      0.008      0.386      0.001      15.005     19.339     12.483     0.232      0.936      1.410      10.263     0.097      0.075      0.097      0.101      6.794      3.853      2.430      5.289      10.705     166.225    5260.905  
5319.468   12.250     66.775     0.019      0.054      0.001      0.023      0.000      0.001      0.005      0.372      0.001      16.655     21.671     12.508     0.228      0.946      1.673      7.611      0.089      0.069      0.089      0.099      7.020      4.122      2.464      5.727      11.838     165.167    5261.057  
5319.621   12.250     65.267     0.019      0.072      0.002      0.024      0.000      0.000      0.006      0.350      0.001      18.688     24.095     12.542     0.213      0.999      1.949      3.011      0.090      0.061      0.090      0.106      7.225      4.331      2.477      6.060      12.638     169.695    5261.210  
5319.773   12.250     64.392     0.019      0.103      0.003      0.024      0.000      0.000      0.011      0.309      0.002      21.437     26.787     12.571     0.174      1.131      2.269      1.794      0.094      0.057      0.098      0.119      7.435      4.558      2.478      6.401      13.364     141.845    5261.362  
5319.925   12.250     64.339     0.020      0.128      0.003      0.025      0.000      0.000      0.013      0.278      0.002      22.926     28.291     12.568     0.159      1.241      2.421      1.585      0.094      0.056      0.104      0.132      7.618      4.720      2.464      6.632      13.825     96.568     5261.514  
5320.078   12.250     64.520     0.020      0.150      0.003      0.025      0.000      0.000      0.014      0.250      0.002      22.087     28.469     12.488     0.160      1.234      2.443      1.914      0.093      0.058      0.104      0.138      7.795      4.888      2.440      6.854      14.195     80.413     5261.667  
5320.230   12.250     66.928     0.019      0.159      0.003      0.024      0.000      0.000      0.015      0.241      0.001      20.963     27.469     12.395     0.180      1.115      2.340      3.581      0.098      0.066      0.103      0.145      8.021      5.028      2.423      7.054      14.617     101.311    5261.819  
5320.383   12.250     67.769     0.020      0.153      0.004      0.025      0.000      0.000      0.013      0.248      0.001      19.318     25.037     12.451     0.197      0.805      2.152      7.594      0.108      0.076      0.110      0.157      8.216      5.281      2.406      7.459      15.760     115.795    5261.971  
5320.535   12.250     71.239     0.023      0.137      0.003      0.028      0.000      0.000      0.010      0.265      0.001      17.654     22.983     12.545     0.196      0.548      2.019      10.221     0.116      0.083      0.119      0.173      8.264      5.401      2.384      7.635      16.118     105.972    5262.124  
5320.687   12.250     72.452     0.025      0.118      0.001      0.031      0.000      0.000      0.008      0.285      0.001      15.766     21.275     12.565     0.177      0.356      1.932      9.419      0.124      0.083      0.127      0.171      8.144      5.465      2.333      7.709      16.104     104.889    5262.276  
