~Version
 VERS              .         2.0                           : CWLS LOG ASCII STANDARD - VERSION 2.0
 WRAP              .         NO                            : ONE LINE PER DEPTH STEP
 DLM               .         SPACE                         : DELIMITING CHARACTER(SPACE TAB OR COMMA)
~Well Information
#_______________________________________________________________________________
#
#PARAMETER_NAME    .UNIT     VALUE                         : DESCRIPTION
#_______________________________________________________________________________
STRT               .M        5038.900                      : First reference value
STOP               .M        5526.275                      : Last reference value
STEP               .M        0.152                         : Step increment
NULL               .         -9999                         : Missing value
COMP               .         PETROBRAS                     : Company
WELL               .         8-SPH-23-SPS                  : Well name
FLD                .         SAPINHOA                      : Field
LOC                .                                       : Location
PROV               .                                       : Province
SRVC               .                                       : Service Company
DATE               .         2021-09-13 11_18_58           : Date
UWI                .         8-SPH-23-SPS                  : Unique Well ID
APD                .M        24.0                          : ABOVE PERMANENT DATUM
API                .         863160047300                  : API Code
BHT                .degF     160                           : BOTTOMHOLE TEMPERATURE
BLI                .M        5511.3                        : BOTTOM LOGGED INTERVAL
BS                 .in       12.25                         : BIT SIZE
CTRY               .         BRASIL                        : Nation
DCS                .         10/04/2016                    : DATE CIRCULATION STOPPED
DFD                .lb/gal   9.4                           : DRILLING FLUID DENSITY
DFT                .         OLEDRILL (BASE OLEFINA)       : DRILLING FLUID TYPE
DLAB               .         12/04/2016                    : DATE LOGGING ON BOTTOM
EDF                .M        24.0                          : ELEVATION OF DRILLING FLOOR
EGL                .M        -2146.0                       : ELEVATION OF GROUND LEVEL
EKB                .M        24.0                          : ELEVATION OF KELLY BUSHING
EPD                .M        0.0                           : ELEVATATION OF PERMANENT DATUM
GDAT               .         SIRGAS2000                    : Geodetic Datum
LMF                .         MR                            : LOG MEASURED FROM
LUL                .         MCE                           : LOGGING UNIT LOCATION
LUN                .         12247255                      : LOGGING UNIT NUMBER
LATI               .         -25_42_01.290                 : Latitude
LONG               .         -43_11_39,303                 : LONGITUDE
MCST               .degF     -999.25                       : MUDCAKE SAMPLE TEMPERATURE
MFST               .degF     -999.25                       : MUD FILTRATE SAMPLE TEMPERATURE
MRT                .degF     160.0                         : MAXIMUM RECORDED TEMPERATURE
MST                .degF     -999.25                       : MUD SAMPLE TEMPERATURE
ORIGINALWELLNAME   .         8SPH 0023  SPS                : 
PDAT               .         NM                            : PERMANENT DATUM
PRODUCER-CODE      .         280                           : 
PRODUCER-NAME      .         Halliburton                   : 
RMB                .ohm.m    -999.25                       : RESISTIVITY OF MUD - BHT
RMCS               .ohm.m    -999.25                       : RESISTIVITY OF MUDCAKE SAMPLE
RMFS               .ohm.m    -999.25                       : RESISTIVITY OF MUD FILTRATE SAMPLE
RMS                .ohm.m    -999.25                       : RESISTIVITY OF MUD SAMPLE
RUN                .         02                            : RUN NUMBER 1
STAT               .         SAO PAULO                     : STATE
TCS                .h        03_30                         : TIME CIRCULATION STOPPED
TDD                .M        5517.0                        : DRILLERS DEPTH
TDL                .M        5520.0                        : LOGGERS DEPTH
TLAB               .h        07_30                         : TIME LOGGING ON BOTTOM
TLI                .M        5070.0                        : TOP LOGGED INTERVAL
X                  .M        681190.00000000               : X UTM Coordinate
Y                  .M        7156260.00000000              : Y UTM Coordinate
~Parameter Information Block
#_______________________________________________________________________________
#
#PARAMETER_NAME    .UNIT     VALUE                         : DESCRIPTION
#_______________________________________________________________________________
SET                .         BASE                          : 
TLFamily_BS        .         Bit Size                      : 
TLFamily_DT        .         Compressional Slowness        : 
TLFamily_DWAL      .         Aluminum Weight Fraction      : 
TLFamily_DWCA      .         Calcium Weight Fraction       : 
TLFamily_DWFE      .         Iron Weight Fraction          : 
TLFamily_DWK       .         Potassium Weight Fraction     : 
TLFamily_DWMG      .         Magnesium Weight Fraction     : 
TLFamily_DWMN      .         Manganese Weight Fraction     : 
TLFamily_DWS       .         Sulfur Weight Fraction        : 
TLFamily_DWSI      .         Silicon Weight Fraction       : 
TLFamily_DWTI      .         Titanium Weight Fraction      : 
TLFamily_GR        .         Gamma Ray                     : 
TLFamily_GRt       .         Gamma Ray                     : 
TLFamily_HCAL      .         Caliper                       : 
TLFamily_HFK       .         Potassium Concentration       : 
TLFamily_HTHO      .         Thorium Concentration         : 
TLFamily_HURA      .         Uranium Concentration         : 
TLFamily_MD        .         Measured Depth                : 
TLFamily_MPERM     .         NMR Permeability              : 
TLFamily_NMRE_Final .         NMR Bound Fluid Volume Fraction: 
TLFamily_NMRFL_Final .         NMR Free Fluids               : 
TLFamily_NMRT_Final .         NMR Porosity                  : 
TLFamily_NPHI      .         Neutron Porosity              : 
TLFamily_PE        .         Photoelectric Factor          : 
TLFamily_RD        .         Resistivity - Deep            : 
TLFamily_RHOB      .         Bulk Density                  : 
TLFamily_RM        .         Resistivity - Medium          : 
TLFamily_RS        .         Resistivity - Shallow         : 
TLFamily_T2LM      .         NMR T2 Logarithmic Mean       : 
TLFamily_TVDSS     .         True Vertical Depth Sub Sea   : 
~Curve Information
#_______________________________________________________________________________
#
#LOGNAME           .UNIT     LOG_ID                        : DESCRIPTION
#_______________________________________________________________________________
DEPTH              .M                                      :  
BS                 .in                                     : BS/Bit Size 
DT                 .us/ft                                  : DTC/MonoDeltaT 
DWAL               .kg/kg                                  : DAL/DryrockAlWF 
DWCA               .kg/kg                                  : DCA/DryrockCaWF 
DWFE               .kg/kg                                  : DFE/DryrockFeWF 
DWK                .kg/kg                                  : DK/DryrockKWF 
DWMG               .kg/kg                                  : DMG/DryrockMgWF 
DWMN               .kg/kg                                  : DMN/DryrockMnWF 
DWS                .kg/kg                                  : DSUL/DryrockSuWF 
DWSI               .kg/kg                                  : DSI/DryrockSiWF 
DWTI               .kg/kg                                  : DTI/DryrockTiWF 
GR                 .gAPI                                   : GR/Gamma API 
GRt                .gAPI                                   : GKUT/GammaKUT 
HCAL               .in                                     : CALI/Caliper 
HFK                .%                                      : POTA/Potassium 
HTHO               .ppm                                    : THOR/Thorium 
HURA               .ppm                                    : URAN/Uranium 
MPERM              .mD                                     : MPERMT2/MrilT2KCoat 
NMRE_Final         .m3/m3                                  : MPHIT2/TA-grp T2 Effective Por 
NMRFL_Final        .unitless                               : MFFIT2/TA-grp T2 FreeFluid Ind 
NMRT_Final         .frac                                   : MSIGT2/TA-grp T2 Total Por. 
NPHI               .frac                                   : POROSIDADE NEUTRONICA (COMPOSICAO DE CURVAS CABO E/OU LWD) 
PE                 .b/e                                    : Density PE Filtered 
RD                 .ohm.m                                  : RT90/90in Resistivity 2ft Res 
RHOB               .g/cm3                                  : DENSIDADE (COMPOSICAO DE CURVAS CABO E/OU LWD ) 
RM                 .ohm.m                                  : RT30/30in Resistivity 2ft Res 
RS                 .ohm.m                                  : RT10/10in Resistivity 2ft Res 
T2LM               .ms                                     : T2LM/T2 Log Mean 
TVDSS              .M                                      :  
~Ascii
# ...
5046.520   -9999.000  67.887     -9999.000  -9999.000  -9999.000  -9999.000  -9999.000  -9999.000  -9999.000  -9999.000  -9999.000  -9999.000  -9999.000  -9999.000  -9999.000  -9999.000  -9999.000  -9999.000  -9999.000  -9999.000  -9999.000  -9999.000  -9999.000  -9999.000  -9999.000  -9999.000  -9999.000  -9999.000  4988.132  
5046.672   -9999.000  68.201     -9999.000  -9999.000  -9999.000  -9999.000  -9999.000  -9999.000  -9999.000  -9999.000  -9999.000  -9999.000  -9999.000  -9999.000  -9999.000  -9999.000  -9999.000  -9999.000  -9999.000  -9999.000  -9999.000  -9999.000  -9999.000  -9999.000  -9999.000  -9999.000  -9999.000  -9999.000  4988.284  
5046.825   -9999.000  68.147     -9999.000  -9999.000  -9999.000  -9999.000  -9999.000  -9999.000  -9999.000  -9999.000  -9999.000  -9999.000  -9999.000  -9999.000  -9999.000  -9999.000  -9999.000  -9999.000  -9999.000  -9999.000  -9999.000  -9999.000  -9999.000  -9999.000  -9999.000  -9999.000  -9999.000  -9999.000  4988.437  
5046.977   -9999.000  67.530     -9999.000  -9999.000  -9999.000  -9999.000  -9999.000  -9999.000  -9999.000  -9999.000  -9999.000  -9999.000  -9999.000  -9999.000  -9999.000  -9999.000  -9999.000  -9999.000  -9999.000  -9999.000  -9999.000  -9999.000  -9999.000  -9999.000  -9999.000  -9999.000  -9999.000  -9999.000  4988.589  
5047.129   -9999.000  67.324     -9999.000  -9999.000  -9999.000  -9999.000  -9999.000  -9999.000  -9999.000  -9999.000  -9999.000  -9999.000  -9999.000  -9999.000  -9999.000  -9999.000  -9999.000  -9999.000  -9999.000  -9999.000  -9999.000  -9999.000  -9999.000  -9999.000  -9999.000  -9999.000  -9999.000  -9999.000  4988.741  
5047.282   -9999.000  67.096     -9999.000  -9999.000  -9999.000  -9999.000  -9999.000  -9999.000  -9999.000  -9999.000  -9999.000  -9999.000  -9999.000  -9999.000  -9999.000  -9999.000  -9999.000  -9999.000  -9999.000  -9999.000  -9999.000  -9999.000  -9999.000  -9999.000  -9999.000  -9999.000  -9999.000  -9999.000  4988.894  
5047.434   -9999.000  67.038     0.076      0.046      0.322      0.083      0.028      0.000      0.000      0.018      0.002      8.909      11.112     -9999.000  0.087      1.064      0.698      -9999.000  -9999.000  -9999.000  -9999.000  -9999.000  -9999.000  207.842    -9999.000  327.384    626.089    -9999.000  4989.046  
5047.587   -9999.000  66.758     0.083      0.047      0.314      0.083      0.029      0.000      0.000      0.014      0.001      8.905      11.195     -9999.000  0.099      0.729      0.810      -9999.000  -9999.000  -9999.000  -9999.000  -9999.000  -9999.000  207.524    -9999.000  326.677    625.573    -9999.000  4989.199  
5047.739   12.250     66.587     0.078      0.053      0.319      0.084      0.032      0.000      0.000      0.003      0.001      8.246      11.214     -9999.000  0.115      0.398      0.905      -9999.000  -9999.000  -9999.000  -9999.000  -9999.000  -9999.000  206.402    -9999.000  324.833    624.274    -9999.000  4989.351  
5047.891   12.250     66.743     0.070      0.055      0.328      0.086      0.033      0.000      0.000      0.001      0.001      8.098      11.153     -9999.000  0.123      0.312      0.915      -9999.000  -9999.000  -9999.000  -9999.000  -9999.000  -9999.000  205.338    -9999.000  323.288    623.209    -9999.000  4989.503  
5048.044   12.250     66.830     0.067      0.056      0.332      0.083      0.034      0.000      0.000      0.001      0.001      8.562      11.291     -9999.000  0.139      0.306      0.904      -9999.000  -9999.000  -9999.000  -9999.000  -9999.000  -9999.000  202.806    -9999.000  319.881    620.888    -9999.000  4989.656  
5048.196   12.250     66.534     0.061      0.057      0.337      0.076      0.034      0.000      0.001      0.003      0.001      8.733      11.092     -9999.000  0.152      0.381      0.832      -9999.000  -9999.000  -9999.000  -9999.000  -9999.000  -9999.000  200.856    -9999.000  317.357    619.185    -9999.000  4989.808  
5048.349   12.250     66.394     0.058      0.054      0.340      0.073      0.032      0.000      0.001      0.011      0.003      8.277      10.802     -9999.000  0.182      0.627      0.659      -9999.000  -9999.000  -9999.000  -9999.000  -9999.000  -9999.000  196.953    -9999.000  312.413    615.852    -9999.000  4989.961  
5048.501   12.250     66.362     0.053      0.050      0.346      0.066      0.030      0.000      0.001      0.024      0.002      8.126      10.620     -9999.000  0.197      0.824      0.541      -9999.000  -9999.000  -9999.000  -9999.000  -9999.000  -9999.000  194.310    -9999.000  309.085    613.591    -9999.000  4990.113  
5048.653   12.250     66.862     0.050      0.044      0.350      0.063      0.026      0.000      0.000      0.037      0.002      8.209      10.438     -9999.000  0.227      1.112      0.363      -9999.000  -9999.000  -9999.000  -9999.000  -9999.000  -9999.000  189.783    -9999.000  303.353    609.622    -9999.000  4990.265  
5048.806   12.250     67.115     0.051      0.042      0.349      0.064      0.025      0.000      0.000      0.042      0.002      8.246      10.468     -9999.000  0.237      1.238      0.304      -9999.000  -9999.000  -9999.000  -9999.000  -9999.000  -9999.000  187.083    -9999.000  299.890    607.162    -9999.000  4990.418  
5048.958   12.250     67.845     0.057      0.041      0.342      0.071      0.025      0.000      0.000      0.039      0.002      7.970      10.658     -9999.000  0.222      1.126      0.391      -9999.000  -9999.000  -9999.000  -9999.000  -9999.000  -9999.000  183.660    -9999.000  295.409    603.878    -9999.000  4990.570  
5049.111   12.250     67.806     0.066      0.041      0.332      0.073      0.025      0.000      0.000      0.036      0.002      7.591      10.715     -9999.000  0.204      0.976      0.483      -9999.000  -9999.000  -9999.000  -9999.000  -9999.000  -9999.000  180.859    -9999.000  291.669    601.052    -9999.000  4990.723  
5049.263   12.250     67.457     0.070      0.035      0.328      0.076      0.021      0.000      0.000      0.044      0.002      7.631      10.986     -9999.000  0.161      0.681      0.697      -9999.000  -9999.000  -9999.000  -9999.000  -9999.000  -9999.000  178.484    -9999.000  288.375    598.445    -9999.000  4990.875  
5049.415   12.250     66.954     0.074      0.029      0.324      0.080      0.017      0.000      0.000      0.055      0.003      7.910      11.193     -9999.000  0.137      0.478      0.834      -9999.000  -9999.000  -9999.000  -9999.000  -9999.000  -9999.000  176.890    -9999.000  286.083    596.564    -9999.000  4991.027  
5049.568   12.250     66.293     0.074      0.028      0.324      0.085      0.016      0.000      0.000      0.056      0.004      7.460      11.392     -9999.000  0.140      0.488      0.847      -9999.000  -9999.000  -9999.000  -9999.000  -9999.000  -9999.000  175.902    -9999.000  284.522    595.186    -9999.000  4991.180  
5049.720   12.250     65.340     0.076      0.028      0.322      0.086      0.017      0.000      0.000      0.054      0.004      7.147      11.462     -9999.000  0.153      0.564      0.805      -9999.000  -9999.000  -9999.000  -9999.000  -9999.000  -9999.000  175.570    -9999.000  283.864    594.534    -9999.000  4991.332  
5049.873   12.250     65.087     0.079      0.032      0.318      0.089      0.014      0.000      0.000      0.052      0.004      7.646      11.434     -9999.000  0.177      0.680      0.718      -9999.000  -9999.000  -9999.000  -9999.000  -9999.000  -9999.000  175.997    -9999.000  284.172    594.619    -9999.000  4991.485  
5050.025   12.250     65.543     0.081      0.036      0.316      0.092      0.011      0.000      0.000      0.051      0.004      8.404      11.233     -9999.000  0.185      0.736      0.662      -9999.000  -9999.000  -9999.000  -9999.000  -9999.000  -9999.000  176.793    -9999.000  285.030    595.177    -9999.000  4991.637  
5050.177   12.250     66.005     0.085      0.042      0.312      0.094      0.018      0.000      0.000      0.032      0.004      8.842      11.006     -9999.000  0.182      0.644      0.675      -9999.000  -9999.000  -9999.000  -9999.000  -9999.000  -9999.000  178.565    -9999.000  287.142    596.686    -9999.000  4991.789  
