~Version
 VERS              .         2.0                           : CWLS LOG ASCII STANDARD - VERSION 2.0
 WRAP              .         NO                            : ONE LINE PER DEPTH STEP
 DLM               .         SPACE                         : DELIMITING CHARACTER(SPACE TAB OR COMMA)
~Well Information
#_______________________________________________________________________________
#
#PARAMETER_NAME    .UNIT     VALUE                         : DESCRIPTION
#_______________________________________________________________________________
STRT               .M        5060.036                      : First reference value
STOP               .M        5304.790                      : Last reference value
STEP               .M        0.152                         : Step increment
NULL               .         -9999                         : Missing value
COMP               .         PETROBRAS                     : Company
WELL               .         8-SPH-11-SPS                  : Well name
FLD                .         SAPINHOA                      : Field
LOC                .                                       : Location
PROV               .                                       : Province
SRVC               .                                       : Service Company
DATE               .         23/09/2015                    : Date
UWI                .         8-SPH-11-SPS                  : Unique Well ID
APD                .M        24                            : Elevation of Depth Reference (LMF) Above Permanent Datum
API                .                                       : API NUMBER
BHS                .         OPEN                          : Borehole Status (Open or Cased Hole)
BHT                .degF     135                           : Bottom Hole Temperature
BLI                .M        5299.5                        : Bottom Log Interval
BS                 .in       12.25                         : Bit Size
CBDR               .M        5086                          : Casing Bottom (Driller)
CBLO               .M        5084                          : Casing Bottom (Logger)
CSIZ               .in       14                            : Casing Outer Diameter
CWEI               .lbm/ft   115                           : Casing Weight
CTRY               .         BRASIL                        : Nation
DCS                .         22/09/2015                    : Date Circulation Stopped
DFD                .lb/gal   9.7                           : Drilling Fluid Density
DFT                .         Cationico Flex Drill(Base Agua): Drilling Fluid Type
DLAB               .         23/09/2015                    : Date Logging on Bottom
EDF                .M        24                            : Elevation of Drill Floor
EGL                .M        -2165                         : Elevation of Ground Level
EKB                .M        24                            : Elevation of Kelly Bushing
EPD                .M        0                             : Elevation of Permanent Datum (PDAT) above Mean Sea Level
LMF                .         MR                            : Logging Measured From (Name of Logging Elevation Reference)
LUL                .          BRMA                         : Logging Unit Location
LUN                .         OSU-PA 7032                   : Logging Unit Number
LONG               .         -43_13_56,159                 : Longitude
MCST               .degF     77.1                          : Mudcake Sample Temperature
MFST               .degF     78.3                          : Mud Filtrate Sample Temperature
MRT                .degF     135                           : Maximum Recorded Temperature
MST                .degF     77.9                          : Mud Sample Temperature
ORIGINALWELLNAME   .         P09                           : 
PDAT               .         NM                            : Permanent Datum
PRODUCER-CODE      .         440                           : 
PRODUCER-NAME      .         Schlumberger                  : 
RMB                .ohm.m    0.0430009                     : Resistivity of Mud at Bottom Hole Temperature
RMCS               .ohm.m    0.08                          : Resistivity of Mud Cake Sample
RMFS               .ohm.m    0.062                         : Resistivity of Mud Filtrate Sample
RMS                .ohm.m    0.072                         : Resistivity of Mud Sample
RUN                .         3                             : Run Number
STAT               .         SAO PAULO                     : State or Province
TCS                .h        10_30                         : Time Circulation Stopped
TDD                .M        5301                          : Total Depth (Driller)
TDL                .M        5301.5                        : Logger Total Depth
TLAB               .h        23_45                         : Time Logging on Bottom
TLI                .M        5084                          : Top Log Interval
X                  .M        677112.00000000               : 
Y                  .M        7136745.00000000              : 
~Parameter Information Block
#_______________________________________________________________________________
#
#PARAMETER_NAME    .UNIT     VALUE                         : DESCRIPTION
#_______________________________________________________________________________
SET                .         BASE                          : 
TLFamily_BS        .         Bit Size                      : 
TLFamily_DT        .         Compressional Slowness        : 
TLFamily_DWAL      .         Aluminum Weight Fraction      : 
TLFamily_DWCA      .         Calcium Weight Fraction       : 
TLFamily_DWFE      .         Iron Weight Fraction          : 
TLFamily_DWGD      .         Gadolinium Weight Fraction    : 
TLFamily_DWS       .         Sulfur Weight Fraction        : 
TLFamily_DWSI      .         Silicon Weight Fraction       : 
TLFamily_DWTI      .         Titanium Weight Fraction      : 
TLFamily_GR        .         Gamma Ray                     : 
TLFamily_GRt       .         Gamma Ray                     : 
TLFamily_HCAL      .         Caliper                       : 
TLFamily_HDRA      .         Bulk Density Correction       : 
TLFamily_HFK       .         Potassium Concentration       : 
TLFamily_HTHO      .         Thorium Concentration         : 
TLFamily_HURA      .         Uranium Concentration         : 
TLFamily_KSDR      .         NMR Permeability              : 
TLFamily_KTIM      .         NMR Permeability              : 
TLFamily_MD        .         Measured Depth                : 
TLFamily_NMRE_Final .         NMR Bound Fluid Volume Fraction: 
TLFamily_NMRFL_Final .         NMR Free Fluids               : 
TLFamily_NMRT_Final .         NMR Porosity                  : 
TLFamily_NPHI      .         Neutron Porosity              : 
TLFamily_PE        .         Photoelectric Factor          : 
TLFamily_RD        .         Resistivity - Deep            : 
TLFamily_RHOB      .         Bulk Density                  : 
TLFamily_RM        .         Resistivity - Medium          : 
TLFamily_RS        .         Resistivity - Shallow         : 
TLFamily_T2LM      .         NMR T2 Logarithmic Mean       : 
TLFamily_TVDSS     .         True Vertical Depth Sub Sea   : 
~Curve Information
#_______________________________________________________________________________
#
#LOGNAME           .UNIT     LOG_ID                        : DESCRIPTION
#_______________________________________________________________________________
DEPTH              .M                                      :  
BS                 .in                                     : Bit Size 
DT                 .us/ft                                  : Delta-T Compressional 
DWAL               .kg/kg                                  : Dry Weight Fraction Pseudo Aluminum (SpectroLith WALK2 Model) 
DWCA               .kg/kg                                  : Dry Weight Fraction Calcium (SpectroLith WALK2 Model) 
DWFE               .kg/kg                                  : Dry Weight Fraction Iron + 0.14 Aluminum (SpectroLith WALK2 Model) 
DWGD               .ppm                                    : Dry Weight Fraction Gadolinium (SpectroLith WALK2 Model) 
DWS                .kg/kg                                  : Dry Weight Fraction Sulfur (SpectroLith WALK2 Model) 
DWSI               .kg/kg                                  : Dry Weight Fraction Silicon (SpectroLith WALK2 Model) 
DWTI               .kg/kg                                  : Dry Weight Fraction Titanium (SpectroLith WALK2 Model) 
GR                 .gAPI                                   : Gamma Ray 
GRt                .gAPI                                   : HNGS Standard Gamma-Ray 
HCAL               .in                                     : HRCC Caliper Calibrated 
HDRA               .g/cm3                                  : Density Standoff Correction 
HFK                .%                                      : HNGS Formation Potassium Concentration 
HTHO               .ppm                                    : HNGS Formation Thorium Concentration 
HURA               .ppm                                    : HNGS Formation Uranium Concentration 
KSDR               .mD                                     : SDR Permeability 
KTIM               .mD                                     : Timur/Coates Permeability 
NMRE_Final         .m3/m3                                  :  
NMRFL_Final        .unitless                               :  
NMRT_Final         .frac                                   :  
NPHI               .frac                                   : Enhanced Thermal Neutron Porosity in Selected Lithology 
PE                 .b/e                                    : Standard Resolution Formation Photoelectric Factor 
RD                 .ohm.m                                  : Apparent Resistivity from Computed Focusing Mode 5 
RHOB               .g/cm3                                  : Standard Resolution Formation Density 
RM                 .ohm.m                                  : Apparent Resistivity from Computed Focusing Mode 4 
RS                 .ohm.m                                  : Apparent Resistivity from Computed Focusing Mode 3 
T2LM               .ms                                     : T2 Logarithmic Mean 
TVDSS              .M                                      :  
~Ascii
# ...
5136.236   12.250     57.644     0.001      0.255      0.000      1.647      0.014      0.161      0.000      46.715     36.737     12.329     -0.003     0.599      1.116      2.912      1.850      1.687      0.080      0.055      0.085      0.080      3.565      274.548    2.628      207.765    261.978    93.885     5110.982  
5136.388   12.250     58.042     0.003      0.267      0.002      0.582      0.015      0.143      0.001      48.741     38.664     12.323     -0.004     0.644      1.101      3.089      1.641      1.416      0.082      0.053      0.090      0.084      3.766      251.368    2.605      191.965    237.668    79.466     5111.133  
5136.540   12.250     58.784     0.004      0.281      0.003      0.000      0.015      0.124      0.000      46.794     36.624     12.324     -0.004     0.616      1.058      2.918      2.129      1.451      0.090      0.055      0.101      0.090      3.939      203.751    2.590      163.210    197.393    72.441     5111.285  
5136.693   12.250     60.442     0.004      0.299      0.003      0.000      0.014      0.102      0.000      40.794     31.423     12.326     -0.005     0.544      0.925      2.466      4.068      1.967      0.101      0.059      0.113      0.125      4.089      85.440     2.566      75.564     88.833     78.896     5111.437  
5136.845   12.250     61.533     0.005      0.317      0.004      0.000      0.014      0.080      0.000      34.208     24.980     12.327     -0.006     0.442      0.739      1.937      9.599      3.502      0.111      0.068      0.121      0.145      4.180      85.836     2.543      74.691     87.093     105.449    5111.588  
5136.998   12.250     62.512     0.007      0.330      0.005      0.000      0.014      0.062      0.000      27.358     18.818     12.329     -0.007     0.334      0.612      1.431      20.137     7.540      0.118      0.080      0.126      0.138      4.209      290.245    2.524      214.679    261.953    140.375    5111.740  
5137.150   12.250     63.500     0.005      0.340      0.004      0.000      0.013      0.053      0.000      23.218     14.741     12.326     -0.008     0.274      0.517      1.072      27.471     14.380     0.119      0.089      0.126      0.145      4.202      666.263    2.505      385.261    542.034    164.768    5111.892  
5137.302   12.250     64.496     0.002      0.346      0.002      0.000      0.013      0.052      0.000      21.036     13.288     12.340     -0.008     0.264      0.555      0.891      35.780     25.107     0.128      0.101      0.142      0.169      4.188      1346.722   2.488      565.128    886.051    150.529    5112.043  
5137.455   12.250     66.100     0.000      0.345      0.000      0.000      0.011      0.058      0.000      21.123     14.028     12.340     -0.010     0.273      0.625      0.962      44.180     32.674     0.141      0.111      0.163      0.184      4.159      1479.694   2.477      597.808    1001.121   125.374    5112.195  
5137.607   12.250     67.260     0.000      0.342      0.000      0.000      0.009      0.064      0.000      22.828     15.821     12.346     -0.010     0.289      0.696      1.155      46.165     25.848     0.146      0.108      0.168      0.171      4.130      1467.924   2.477      585.756    925.795    120.679    5112.347  
5137.760   12.250     67.132     0.000      0.340      0.000      0.000      0.009      0.067      0.000      24.419     17.378     12.326     -0.012     0.329      0.862      1.215      45.531     19.383     0.146      0.101      0.161      0.152      4.119      1162.638   2.484      508.285    786.693    129.470    5112.498  
5137.912   12.250     65.491     0.000      0.340      0.000      0.000      0.011      0.065      0.000      25.531     18.020     12.327     -0.011     0.357      0.968      1.193      35.221     10.973     0.134      0.089      0.144      0.137      4.165      1075.144   2.500      494.672    721.874    144.271    5112.650  
5138.064   12.250     63.284     0.000      0.338      0.000      0.000      0.018      0.063      0.000      24.753     17.818     12.326     -0.009     0.353      1.012      1.144      29.123     6.546      0.123      0.078      0.126      0.122      4.241      765.040    2.527      415.799    574.362    170.209    5112.802  
5138.217   12.250     61.152     0.000      0.338      0.000      0.000      0.022      0.061      0.000      22.810     17.507     12.324     -0.008     0.338      1.026      1.129      23.793     4.435      0.112      0.070      0.112      0.106      4.323      628.898    2.553      385.318    522.679    193.211    5112.953  
5138.369   12.250     59.654     0.000      0.341      0.000      0.000      0.022      0.058      0.000      21.072     16.953     12.322     -0.008     0.323      1.105      1.064      15.847     3.322      0.103      0.065      0.103      0.098      4.358      584.776    2.576      380.742    521.236    187.704    5113.105  
5138.522   12.250     58.460     0.000      0.347      0.000      0.000      0.016      0.054      0.000      20.066     16.235     12.322     -0.008     0.304      1.117      1.014      8.927      2.535      0.095      0.061      0.095      0.092      4.361      519.364    2.595      358.518    486.575    167.348    5113.257  
5138.674   12.250     57.211     0.000      0.353      0.000      0.000      0.009      0.050      0.000      20.408     14.947     12.327     -0.006     0.293      1.015      0.905      6.139      2.264      0.084      0.057      0.084      0.084      4.340      432.747    2.618      321.698    440.146    176.746    5113.408  
5138.826   12.250     56.430     0.001      0.355      0.000      0.000      0.007      0.048      0.001      19.938     13.537     12.325     -0.004     0.273      0.866      0.839      4.370      1.591      0.075      0.052      0.075      0.072      4.353      417.514    2.636      311.734    417.850    184.460    5113.560  
5138.979   12.250     55.882     0.002      0.348      0.001      0.000      0.011      0.052      0.001      19.624     12.661     12.325     -0.003     0.268      0.767      0.769      2.948      0.833      0.070      0.046      0.070      0.066      4.354      448.181    2.654      327.299    439.860    176.765    5113.712  
5139.131   12.250     55.018     0.004      0.337      0.003      0.000      0.016      0.059      0.000      19.135     13.211     12.328     -0.003     0.291      0.722      0.784      1.656      0.342      0.066      0.038      0.067      0.051      4.339      451.656    2.671      332.066    454.075    144.945    5113.863  
5139.284   12.250     54.268     0.003      0.326      0.002      0.000      0.018      0.072      0.000      20.343     15.100     12.331     -0.003     0.332      0.736      0.915      0.374      0.095      0.061      0.027      0.067      0.040      4.242      485.002    2.692      348.827    457.287    68.958     5114.015  
5139.436   12.250     52.704     0.003      0.315      0.002      0.000      0.020      0.083      0.000      21.869     17.319     12.330     -0.003     0.350      0.730      1.157      0.086      0.026      0.053      0.019      0.058      0.047      4.090      134.017    2.710      126.089    150.856    43.391     5114.167  
5139.588   12.250     52.021     0.006      0.296      0.004      0.000      0.021      0.100      0.001      23.673     18.036     12.338     -0.003     0.342      0.657      1.278      0.017      0.010      0.044      0.014      0.050      0.051      3.884      82.034     2.724      79.491     93.478     25.937     5114.319  
5139.741   12.250     51.719     0.008      0.277      0.006      0.000      0.022      0.117      0.000      25.593     18.108     12.333     -0.003     0.351      0.632      1.266      0.005      0.008      0.036      0.014      0.043      0.049      3.665      235.986    2.726      197.994    238.627    19.718     5114.470  
5139.893   12.250     51.337     0.009      0.267      0.007      0.000      0.021      0.128      0.000      28.064     19.034     12.333     -0.004     0.367      0.629      1.346      0.008      0.017      0.031      0.018      0.040      0.041      3.467      506.543    2.718      352.774    471.772    29.022     5114.622  
