~Version
 VERS              .         2.0                           : CWLS LOG ASCII STANDARD - VERSION 2.0
 WRAP              .         NO                            : ONE LINE PER DEPTH STEP
 DLM               .         SPACE                         : DELIMITING CHARACTER(SPACE TAB OR COMMA)
~Well Information
#_______________________________________________________________________________
#
#PARAMETER_NAME    .UNIT     VALUE                         : DESCRIPTION
#_______________________________________________________________________________
STRT               .M        5027.447                      : First reference value
STOP               .M        5499.430                      : Last reference value
STEP               .M        0.152                         : Step increment
NULL               .         -9999                         : Missing value
COMP               .         PETROBRAS                     : Company
WELL               .         8-SPH-10-SPS                  : Well name
FLD                .         SAPINHOA                      : Field
LOC                .                                       : Location
PROV               .                                       : Province
SRVC               .                                       : Service Company
DATE               .         2021-09-13 11_18_58           : Date
UWI                .         8-SPH-10-SPS                  : Unique Well ID
APD                .M        24                            : Above Permanent Datum
API                .                                       : API NUMBER
BHT                .degF     153                           : Bottom Hole Temperature
BLI                .M        5494.8                        : Bottom Log Interval
BS                 .in       8.5                           : Bit Size
CTRY               .         BRASIL                        : Nation
DCS                .         15/06/2015                    : Date Ciculation Stopped
DFD                .lb/gal   9.7                           : Drilling Fluid Density
DFT                .         CATIONICO FLEX DRILL (BASE AGUA): Drilling Fluid Type
DLAB               .         18/06/2015                    : Date Logger At Bottom
EDF                .M        24                            : Elevation of Derreck Floor
EGL                .M        -2125                         : Elevation of Ground Level
EKB                .M        -999.25                       : Elevation of Kelly Bushing
EPD                .M        0                             : Elevation Of Permanent Datum
LMF                .         MR                            : Log Measured From
LONG               .         -43_10_14,760                 : Longitude
MCST               .degF     67                            : Mud Cake Sample Temperature
MFST               .degF     67                            : Mud Filtrate Sample Temperature
MRT                .degF     153                           : Maximum Recorded Temperature
MST                .degF     67                            : Mud Sample Temperature
ORIGINALWELLNAME   .         P08                           : 
PDAT               .         NM                            : Permanent Datum
PRODUCER-CODE      .         150                           : 
PRODUCER-NAME      .         ATLAS                         : 
RMB                .ohm.m    -999.25                       : Resistivity Of Mud - BHT
RMCS               .ohm.m    0.078                         : Resistivity Of Mud Cake Sample
RMFS               .ohm.m    0.064                         : Mud Filtrate Sample Resistivity
RMS                .ohm.m    0.071                         : Mud Sample Resistivity
RUN                .         3                             : Run Number
STAT               .         SAO PAULO                     : State
TCS                .h        22_00                         : Time Ciculation Stopped
TDD                .M        5496                          : Total Depht - Driller
TDL                .M        5495.5                        : Total Depht - Logger
TLAB               .h        10_45                         : Time Logger At Bottom
TLI                .M        5114                          : Top Log Interval
X                  .M        683623.00000000               : 
Y                  .M        7161727.00000000              : 
~Parameter Information Block
#_______________________________________________________________________________
#
#PARAMETER_NAME    .UNIT     VALUE                         : DESCRIPTION
#_______________________________________________________________________________
SET                .         BASE                          : 
TLFamily_BS        .         Bit Size                      : 
TLFamily_DT        .         Compressional Slowness        : 
TLFamily_DWAL      .         Aluminum Weight Fraction      : 
TLFamily_DWCA      .         Calcium Weight Fraction       : 
TLFamily_DWFE      .         Iron Weight Fraction          : 
TLFamily_DWGD      .         Gadolinium Weight Fraction    : 
TLFamily_DWK       .         Potassium Weight Fraction     : 
TLFamily_DWMG      .         Magnesium Weight Fraction     : 
TLFamily_DWMN      .         Manganese Weight Fraction     : 
TLFamily_DWS       .         Sulfur Weight Fraction        : 
TLFamily_DWSI      .         Silicon Weight Fraction       : 
TLFamily_DWTI      .         Titanium Weight Fraction      : 
TLFamily_GR        .         Gamma Ray                     : 
TLFamily_GRt       .         Gamma Ray                     : 
TLFamily_HCAL      .         Caliper                       : 
TLFamily_HDRA      .         Bulk Density Correction       : 
TLFamily_HFK       .         Potassium Concentration       : 
TLFamily_HTHO      .         Thorium Concentration         : 
TLFamily_HURA      .         Uranium Concentration         : 
TLFamily_MD        .         Measured Depth                : 
TLFamily_MPERM     .         NMR Permeability              : 
TLFamily_NMRE_Final .         NMR Bound Fluid Volume Fraction: 
TLFamily_NMRFL_Final .         NMR Free Fluids               : 
TLFamily_NMRT_Final .         NMR Porosity                  : 
TLFamily_NPHI      .         Neutron Porosity              : 
TLFamily_PE        .         Photoelectric Factor          : 
TLFamily_RD        .         Resistivity - Deep            : 
TLFamily_RHOB      .         Bulk Density                  : 
TLFamily_RS        .         Resistivity - Shallow         : 
TLFamily_TVDSS     .         True Vertical Depth Sub Sea   : 
~Curve Information
#_______________________________________________________________________________
#
#LOGNAME           .UNIT     LOG_ID                        : DESCRIPTION
#_______________________________________________________________________________
DEPTH              .M                                      :  
BS                 .in                                     : Bit size 
DT                 .us/ft                                  : Slowness over 24-inch interval 
DWAL               .kg/kg                                  : Weight fraction of aluminum derived from thorium in dry rock 
DWCA               .kg/kg                                  : Weight fraction of calcium in dry rock 
DWFE               .kg/kg                                  : Weight fraction of iron in dry rock 
DWGD               .ppm                                    : Weight fraction of gadolinium in dry rock 
DWK                .kg/kg                                  : Weight fraction of potassium in dry rock 
DWMG               .kg/kg                                  : Weight fraction of magnesium in dry rock 
DWMN               .kg/kg                                  : Weight fraction of manganese in dry rock 
DWS                .kg/kg                                  : Weight fraction of sulfur in dry rock 
DWSI               .kg/kg                                  : Weight fraction of silicon in dry rock 
DWTI               .kg/kg                                  : Weight fraction of titanium in dry rock 
GR                 .gAPI                                   : Gamma ray 
GRt                .gAPI                                   : Gamma ray from 1329 spectrum 
HCAL               .in                                     : Caliper 
HDRA               .g/cm3                                  : Density correction 
HFK                .%                                      : Potassium content 
HTHO               .ppm                                    : Thorium concentration 
HURA               .ppm                                    : Uranium content 
MPERM              .mD                                     : MR permeability 
NMRE_Final         .m3/m3                                  : MR effective porosity 
NMRFL_Final        .unitless                               : MR moveable fluids 
NMRT_Final         .frac                                   : MR total porosity 
NPHI               .frac                                   : Borehole size corrected compensated neutron porosity 
PE                 .b/e                                    : Photo electric cross-section 
RD                 .ohm.m                                  : Deep resistivity 
RHOB               .g/cm3                                  : Formation bulk density 
RS                 .ohm.m                                  : Shallow resistivity 
TVDSS              .M                                      :  
~Ascii
# ...
5435.117   8.500      63.279     0.004      0.274      0.004      1.496      0.005      0.015      0.001      0.001      0.067      0.001      50.484     50.687     8.706      -0.016     0.063      0.775      5.149      24.379     0.100      0.083      0.104      0.129      4.648      4.212      2.537      4.935      5410.756  
5435.270   8.500      63.558     0.003      0.273      0.005      1.677      0.003      0.016      0.001      0.001      0.080      0.001      53.281     53.487     8.707      -0.016     0.054      0.683      5.181      17.633     0.102      0.082      0.106      0.122      4.081      3.949      2.534      4.484      5410.908  
5435.422   8.500      63.892     0.003      0.264      0.005      1.717      0.001      0.013      0.001      0.001      0.105      0.000      53.620     53.820     8.708      -0.019     0.049      0.614      5.186      13.255     0.100      0.079      0.106      0.120      3.564      3.886      2.514      4.317      5411.061  
5435.575   8.500      64.169     0.002      0.244      0.005      1.614      0.001      0.008      0.001      0.001      0.143      0.000      49.218     49.405     8.714      -0.021     0.038      0.488      5.013      15.251     0.096      0.078      0.101      0.119      3.358      4.060      2.493      4.459      5411.213  
5435.727   8.500      64.158     0.002      0.210      0.004      1.440      0.001      0.003      0.001      0.001      0.191      0.001      40.931     41.092     8.746      -0.018     0.028      0.338      4.379      10.894     0.102      0.078      0.106      0.118      3.488      4.518      2.491      4.919      5411.365  
5435.879   8.500      63.731     0.001      0.173      0.003      1.294      0.001      0.001      0.001      0.001      0.235      0.001      32.293     32.425     8.807      -0.013     0.027      0.264      3.589      9.239      0.111      0.079      0.117      0.117      3.671      5.240      2.504      5.602      5411.518  
5436.032   8.500      63.036     0.001      0.145      0.002      1.253      0.001      0.001      0.001      0.001      0.258      0.002      27.957     28.072     8.869      -0.010     0.029      0.258      3.217      9.462      0.110      0.079      0.123      0.112      3.618      6.057      2.516      6.298      5411.670  
5436.184   8.500      62.431     0.001      0.135      0.002      1.304      0.001      0.001      0.001      0.001      0.258      0.002      28.688     28.806     8.917      -0.008     0.029      0.278      3.152      10.152     0.099      0.076      0.117      0.103      3.311      6.731      2.522      6.800      5411.823  
5436.337   8.500      62.170     0.002      0.141      0.002      1.352      0.001      0.001      0.001      0.001      0.251      0.002      30.091     30.215     8.965      -0.006     0.030      0.300      3.092      8.355      0.085      0.068      0.104      0.096      2.890      7.273      2.523      7.162      5411.975  
5436.489   8.500      62.195     0.002      0.151      0.003      1.316      0.001      0.001      0.001      0.001      0.250      0.001      28.632     28.751     9.018      -0.003     0.030      0.326      3.002      5.536      0.081      0.063      0.095      0.096      2.571      7.820      2.519      7.544      5412.127  
5436.641   8.500      62.262     0.002      0.156      0.004      1.183      0.001      0.001      0.001      0.001      0.258      0.000      25.397     25.503     9.060      -0.001     0.029      0.328      2.886      5.037      0.080      0.062      0.087      0.101      2.464      8.251      2.506      7.855      5412.280  
5436.794   8.500      62.272     0.001      0.153      0.004      0.984      0.001      0.001      0.001      0.001      0.268      0.000      22.811     22.903     9.081      -0.000     0.028      0.276      2.795      4.709      0.078      0.061      0.082      0.105      2.517      8.371      2.496      7.905      5412.432  
5436.946   8.500      62.194     0.001      0.145      0.004      0.768      0.001      0.001      0.001      0.001      0.278      0.000      21.503     21.590     9.087      0.000      0.026      0.221      2.778      3.102      0.079      0.058      0.084      0.106      2.617      8.262      2.494      7.771      5412.584  
5437.099   8.500      62.202     0.001      0.132      0.003      0.606      0.001      0.001      0.001      0.001      0.285      0.000      21.347     21.436     9.088      0.002      0.025      0.187      2.812      1.721      0.090      0.056      0.099      0.108      2.668      7.998      2.501      7.533      5412.737  
5437.251   8.500      62.360     0.001      0.118      0.002      0.569      0.001      0.001      0.001      0.001      0.291      0.000      22.905     22.999     9.088      0.006      0.025      0.154      2.947      1.028      0.093      0.050      0.103      0.112      2.605      7.418      2.510      7.022      5412.889  
5437.403   8.500      62.755     0.001      0.110      0.001      0.668      0.001      0.001      0.001      0.001      0.294      0.000      26.120     26.224     9.088      0.011      0.025      0.133      3.236      1.033      0.099      0.050      0.108      0.119      2.476      6.503      2.514      6.168      5413.041  
5437.556   8.500      63.198     0.001      0.110      0.001      0.833      0.001      0.001      0.001      0.001      0.292      0.000      29.247     29.360     9.089      0.010      0.026      0.116      3.564      2.049      0.110      0.060      0.117      0.129      2.415      5.629      2.500      5.304      5413.194  
5437.708   8.500      63.415     0.001      0.120      0.001      0.961      0.001      0.001      0.001      0.001      0.281      0.000      31.365     31.479     9.088      0.004      0.029      0.100      3.811      5.364      0.122      0.074      0.130      0.135      2.505      5.208      2.476      4.843      5413.346  
5437.861   8.500      63.213     0.001      0.137      0.001      1.011      0.001      0.001      0.001      0.001      0.261      0.000      33.538     33.656     9.087      -0.002     0.036      0.094      3.993      8.229      0.123      0.081      0.136      0.130      2.737      5.410      2.467      4.955      5413.498  
5438.013   8.500      62.516     0.001      0.159      0.001      1.048      0.001      0.001      0.001      0.001      0.238      0.000      36.406     36.541     9.088      -0.003     0.045      0.108      4.131      7.405      0.111      0.076      0.123      0.122      3.047      6.418      2.484      5.802      5413.651  
5438.165   8.500      61.353     0.001      0.184      0.001      1.133      0.001      0.001      0.001      0.001      0.218      0.000      39.423     39.580     9.088      -0.003     0.057      0.146      4.191      6.376      0.099      0.071      0.104      0.115      3.345      8.291      2.513      7.491      5413.803  
5438.318   8.500      59.848     0.001      0.210      0.001      1.248      0.001      0.001      0.001      0.001      0.200      0.000      41.753     41.925     9.088      -0.005     0.063      0.195      4.187      5.256      0.095      0.068      0.096      0.109      3.617      10.322     2.536      9.425      5413.955  
5438.470   8.500      58.249     0.001      0.233      0.001      1.339      0.001      0.000      0.001      0.001      0.179      0.001      42.519     42.692     9.088      -0.008     0.064      0.238      4.159      3.917      0.099      0.066      0.102      0.101      3.905      11.562     2.553      10.684     5414.108  
5438.623   8.500      56.881     0.002      0.250      0.001      1.369      0.001      0.001      0.001      0.001      0.156      0.002      41.252     41.414     9.087      -0.011     0.062      0.301      4.105      2.673      0.088      0.060      0.102      0.095      4.114      12.084     2.565      11.298     5414.260  
5438.775   8.500      56.002     0.002      0.261      0.002      1.306      0.001      0.002      0.001      0.001      0.138      0.002      38.881     39.034     9.087      -0.011     0.060      0.419      4.027      1.484      0.077      0.052      0.094      0.094      4.121      12.621     2.566      12.037     5414.413  
