~Version
 VERS              .         2.0                           : CWLS LOG ASCII STANDARD - VERSION 2.0
 WRAP              .         NO                            : ONE LINE PER DEPTH STEP
 DLM               .         SPACE                         : DELIMITING CHARACTER(SPACE TAB OR COMMA)
~Well Information
#_______________________________________________________________________________
#
#PARAMETER_NAME    .UNIT     VALUE                         : DESCRIPTION
#_______________________________________________________________________________
STRT               .M        5038.900                      : First reference value
STOP               .M        5526.275                      : Last reference value
STEP               .M        0.152                         : Step increment
NULL               .         -9999                         : Missing value
COMP               .         PETROBRAS                     : Company
WELL               .         8-SPH-23-SPS                  : Well name
FLD                .         SAPINHOA                      : Field
LOC                .                                       : Location
PROV               .                                       : Province
SRVC               .                                       : Service Company
DATE               .         2021-09-13 11_18_58           : Date
UWI                .         8-SPH-23-SPS                  : Unique Well ID
APD                .M        24.0                          : ABOVE PERMANENT DATUM
API                .         863160047300                  : API Code
BHT                .degF     160                           : BOTTOMHOLE TEMPERATURE
BLI                .M        5511.3                        : BOTTOM LOGGED INTERVAL
BS                 .in       12.25                         : BIT SIZE
CTRY               .         BRASIL                        : Nation
DCS                .         10/04/2016                    : DATE CIRCULATION STOPPED
DFD                .lb/gal   9.4                           : DRILLING FLUID DENSITY
DFT                .         OLEDRILL (BASE OLEFINA)       : DRILLING FLUID TYPE
DLAB               .         12/04/2016                    : DATE LOGGING ON BOTTOM
EDF                .M        24.0                          : ELEVATION OF DRILLING FLOOR
EGL                .M        -2146.0                       : ELEVATION OF GROUND LEVEL
EKB                .M        24.0                          : ELEVATION OF KELLY BUSHING
EPD                .M        0.0                           : ELEVATATION OF PERMANENT DATUM
GDAT               .         SIRGAS2000                    : Geodetic Datum
LMF                .         MR                            : LOG MEASURED FROM
LUL                .         MCE                           : LOGGING UNIT LOCATION
LUN                .         12247255                      : LOGGING UNIT NUMBER
LATI               .         -25_42_01.290                 : Latitude
LONG               .         -43_11_39,303                 : LONGITUDE
MCST               .degF     -999.25                       : MUDCAKE SAMPLE TEMPERATURE
MFST               .degF     -999.25                       : MUD FILTRATE SAMPLE TEMPERATURE
MRT                .degF     160.0                         : MAXIMUM RECORDED TEMPERATURE
MST                .degF     -999.25                       : MUD SAMPLE TEMPERATURE
ORIGINALWELLNAME   .         8SPH 0023  SPS                : 
PDAT               .         NM                            : PERMANENT DATUM
PRODUCER-CODE      .         280                           : 
PRODUCER-NAME      .         Halliburton                   : 
RMB                .ohm.m    -999.25                       : RESISTIVITY OF MUD - BHT
RMCS               .ohm.m    -999.25                       : RESISTIVITY OF MUDCAKE SAMPLE
RMFS               .ohm.m    -999.25                       : RESISTIVITY OF MUD FILTRATE SAMPLE
RMS                .ohm.m    -999.25                       : RESISTIVITY OF MUD SAMPLE
RUN                .         02                            : RUN NUMBER 1
STAT               .         SAO PAULO                     : STATE
TCS                .h        03_30                         : TIME CIRCULATION STOPPED
TDD                .M        5517.0                        : DRILLERS DEPTH
TDL                .M        5520.0                        : LOGGERS DEPTH
TLAB               .h        07_30                         : TIME LOGGING ON BOTTOM
TLI                .M        5070.0                        : TOP LOGGED INTERVAL
X                  .M        681190.00000000               : X UTM Coordinate
Y                  .M        7156260.00000000              : Y UTM Coordinate
~Parameter Information Block
#_______________________________________________________________________________
#
#PARAMETER_NAME    .UNIT     VALUE                         : DESCRIPTION
#_______________________________________________________________________________
SET                .         BASE                          : 
TLFamily_BS        .         Bit Size                      : 
TLFamily_DT        .         Compressional Slowness        : 
TLFamily_DWAL      .         Aluminum Weight Fraction      : 
TLFamily_DWCA      .         Calcium Weight Fraction       : 
TLFamily_DWFE      .         Iron Weight Fraction          : 
TLFamily_DWK       .         Potassium Weight Fraction     : 
TLFamily_DWMG      .         Magnesium Weight Fraction     : 
TLFamily_DWMN      .         Manganese Weight Fraction     : 
TLFamily_DWS       .         Sulfur Weight Fraction        : 
TLFamily_DWSI      .         Silicon Weight Fraction       : 
TLFamily_DWTI      .         Titanium Weight Fraction      : 
TLFamily_GR        .         Gamma Ray                     : 
TLFamily_GRt       .         Gamma Ray                     : 
TLFamily_HCAL      .         Caliper                       : 
TLFamily_HFK       .         Potassium Concentration       : 
TLFamily_HTHO      .         Thorium Concentration         : 
TLFamily_HURA      .         Uranium Concentration         : 
TLFamily_MD        .         Measured Depth                : 
TLFamily_MPERM     .         NMR Permeability              : 
TLFamily_NMRE_Final .         NMR Bound Fluid Volume Fraction: 
TLFamily_NMRFL_Final .         NMR Free Fluids               : 
TLFamily_NMRT_Final .         NMR Porosity                  : 
TLFamily_NPHI      .         Neutron Porosity              : 
TLFamily_PE        .         Photoelectric Factor          : 
TLFamily_RD        .         Resistivity - Deep            : 
TLFamily_RHOB      .         Bulk Density                  : 
TLFamily_RM        .         Resistivity - Medium          : 
TLFamily_RS        .         Resistivity - Shallow         : 
TLFamily_T2LM      .         NMR T2 Logarithmic Mean       : 
TLFamily_TVDSS     .         True Vertical Depth Sub Sea   : 
~Curve Information
#_______________________________________________________________________________
#
#LOGNAME           .UNIT     LOG_ID                        : DESCRIPTION
#_______________________________________________________________________________
DEPTH              .M                                      :  
BS                 .in                                     : BS/Bit Size 
DT                 .us/ft                                  : DTC/MonoDeltaT 
DWAL               .kg/kg                                  : DAL/DryrockAlWF 
DWCA               .kg/kg                                  : DCA/DryrockCaWF 
DWFE               .kg/kg                                  : DFE/DryrockFeWF 
DWK                .kg/kg                                  : DK/DryrockKWF 
DWMG               .kg/kg                                  : DMG/DryrockMgWF 
DWMN               .kg/kg                                  : DMN/DryrockMnWF 
DWS                .kg/kg                                  : DSUL/DryrockSuWF 
DWSI               .kg/kg                                  : DSI/DryrockSiWF 
DWTI               .kg/kg                                  : DTI/DryrockTiWF 
GR                 .gAPI                                   : GR/Gamma API 
GRt                .gAPI                                   : GKUT/GammaKUT 
HCAL               .in                                     : CALI/Caliper 
HFK                .%                                      : POTA/Potassium 
HTHO               .ppm                                    : THOR/Thorium 
HURA               .ppm                                    : URAN/Uranium 
MPERM              .mD                                     : MPERMT2/MrilT2KCoat 
NMRE_Final         .m3/m3                                  : MPHIT2/TA-grp T2 Effective Por 
NMRFL_Final        .unitless                               : MFFIT2/TA-grp T2 FreeFluid Ind 
NMRT_Final         .frac                                   : MSIGT2/TA-grp T2 Total Por. 
NPHI               .frac                                   : POROSIDADE NEUTRONICA (COMPOSICAO DE CURVAS CABO E/OU LWD) 
PE                 .b/e                                    : Density PE Filtered 
RD                 .ohm.m                                  : RT90/90in Resistivity 2ft Res 
RHOB               .g/cm3                                  : DENSIDADE (COMPOSICAO DE CURVAS CABO E/OU LWD ) 
RM                 .ohm.m                                  : RT30/30in Resistivity 2ft Res 
RS                 .ohm.m                                  : RT10/10in Resistivity 2ft Res 
T2LM               .ms                                     : T2LM/T2 Log Mean 
TVDSS              .M                                      :  
~Ascii
# ...
5229.400   12.250     61.375     0.033      0.307      0.001      0.042      0.001      0.000      0.005      0.052      0.003      30.358     39.710     12.007     0.130      0.851      3.885      16.447     0.118      0.088      0.119      0.159      8.567      3.534      2.484      4.782      9.267      314.512    5171.008  
5229.552   12.250     61.156     0.036      0.307      0.001      0.044      0.000      0.000      0.004      0.050      0.003      34.816     43.805     12.015     0.179      0.991      4.206      10.873     0.120      0.084      0.122      0.163      8.599      3.417      2.489      4.622      8.957      285.770    5171.161  
5229.705   12.250     60.962     0.035      0.307      0.001      0.043      0.000      0.000      0.004      0.050      0.003      38.449     46.300     12.028     0.190      1.058      4.440      8.993      0.119      0.081      0.121      0.171      8.636      3.346      2.484      4.521      8.769      282.864    5171.313  
5229.857   12.250     61.063     0.031      0.315      0.002      0.038      0.000      0.000      0.006      0.046      0.003      43.092     49.146     12.027     0.223      1.057      4.700      9.702      0.118      0.082      0.120      0.153      8.664      3.241      2.484      4.369      8.486      266.450    5171.466  
5230.009   12.250     61.735     0.028      0.321      0.002      0.035      0.000      0.000      0.007      0.043      0.003      43.754     49.800     12.011     0.244      1.081      4.727      14.663     0.116      0.087      0.121      0.146      8.654      3.189      2.489      4.294      8.373      235.470    5171.618  
5230.162   12.250     62.008     0.023      0.324      0.002      0.029      0.004      0.000      0.009      0.040      0.002      42.174     49.039     12.008     0.264      1.091      4.605      26.976     0.117      0.094      0.121      0.173      8.618      3.149      2.491      4.241      8.391      233.672    5171.770  
5230.314   12.250     62.844     0.021      0.324      0.002      0.026      0.007      0.000      0.009      0.039      0.001      39.221     48.041     12.016     0.263      1.085      4.498      64.094     0.123      0.104      0.124      0.199      8.542      3.124      2.490      4.207      8.448      268.196    5171.923  
5230.467   12.250     63.642     0.020      0.322      0.002      0.025      0.009      0.001      0.010      0.039      0.001      35.882     47.406     12.017     0.244      1.130      4.444      134.150    0.131      0.115      0.132      0.206      8.361      3.089      2.480      4.146      8.384      302.752    5172.075  
5230.619   12.250     64.271     0.022      0.324      0.002      0.027      0.006      0.001      0.011      0.038      0.001      35.442     47.892     12.001     0.196      1.182      4.562      252.506    0.142      0.127      0.143      0.203      8.110      3.057      2.463      4.085      8.239      336.817    5172.227  
5230.771   12.250     65.662     0.026      0.318      0.001      0.032      0.010      0.001      0.008      0.035      0.001      38.513     49.549     11.993     0.148      1.232      4.811      216.610    0.150      0.133      0.154      0.198      7.914      3.031      2.442      4.025      8.016      320.077    5172.380  
5230.924   12.250     65.993     0.029      0.317      0.001      0.036      0.007      0.001      0.007      0.036      0.002      41.902     50.920     11.998     0.114      1.213      5.030      118.856    0.155      0.132      0.166      0.189      7.746      3.022      2.419      3.995      7.846      259.511    5172.532  
5231.076   12.250     66.519     0.031      0.310      0.001      0.037      0.007      0.000      0.008      0.040      0.002      43.470     51.967     11.990     0.121      0.983      5.218      70.295     0.156      0.127      0.173      0.185      7.511      3.017      2.410      3.961      7.601      191.646    5172.685  
5231.229   12.250     66.389     0.032      0.308      0.002      0.038      0.006      0.000      0.009      0.043      0.002      42.733     51.773     11.982     0.149      0.725      5.242      66.933     0.149      0.125      0.170      0.193      7.294      2.995      2.432      3.907      7.346      153.427    5172.837  
5231.381   12.250     65.799     0.033      0.308      0.001      0.040      0.003      0.000      0.007      0.048      0.002      41.349     50.050     11.992     0.189      0.443      5.084      96.939     0.144      0.128      0.162      0.199      7.186      2.910      2.456      3.744      6.859      153.402    5172.989  
5231.533   12.250     65.297     0.033      0.304      0.001      0.041      0.001      0.000      0.006      0.057      0.002      39.579     48.078     12.009     0.194      0.374      4.881      157.700    0.150      0.132      0.159      0.198      7.100      2.815      2.471      3.578      6.452      200.175    5173.142  
5231.686   12.250     65.045     0.032      0.293      0.000      0.040      0.000      0.000      0.006      0.072      0.002      37.628     45.642     12.034     0.195      0.361      4.612      165.040    0.160      0.135      0.162      0.193      6.994      2.705      2.466      3.397      6.030      272.547    5173.294  
5231.838   12.250     65.214     0.033      0.265      0.000      0.041      0.000      0.000      0.004      0.105      0.002      33.106     41.006     12.045     0.170      0.409      4.121      125.507    0.164      0.132      0.164      0.187      6.922      2.524      2.451      3.114      5.354      319.446    5173.447  
5231.991   12.250     65.553     0.034      0.248      0.000      0.042      0.000      0.001      0.003      0.125      0.001      28.850     38.650     12.046     0.141      0.392      3.917      114.888    0.162      0.130      0.163      0.190      6.911      2.451      2.446      3.004      5.082      356.851    5173.599  
5232.143   12.250     67.709     0.031      0.230      0.000      0.038      0.000      0.001      0.008      0.147      0.001      24.423     37.467     12.071     0.100      0.317      3.882      143.910    0.162      0.133      0.162      0.203      6.934      2.395      2.455      2.932      4.868      362.997    5173.751  
5232.295   12.250     68.278     0.031      0.227      0.000      0.039      0.000      0.001      0.009      0.149      0.001      25.658     38.718     12.096     0.096      0.325      4.026      167.323    0.162      0.135      0.163      0.213      7.043      2.372      2.466      2.908      4.780      343.024    5173.904  
5232.448   12.250     69.122     0.034      0.232      0.001      0.042      0.000      0.000      0.010      0.138      0.002      33.315     44.107     12.091     0.132      0.647      4.445      105.572    0.160      0.131      0.166      0.213      7.163      2.316      2.468      2.858      4.627      261.426    5174.056  
5232.600   12.250     68.752     0.033      0.243      0.002      0.041      0.000      0.000      0.013      0.123      0.002      39.413     48.282     12.068     0.177      0.929      4.730      68.958     0.156      0.126      0.170      0.211      7.498      2.270      2.464      2.815      4.532      191.231    5174.208  
5232.753   12.250     68.379     0.032      0.275      0.004      0.039      0.000      0.000      0.017      0.085      0.002      47.631     53.900     12.076     0.250      1.334      5.082      57.024     0.152      0.125      0.175      0.216      7.693      2.144      2.450      2.684      4.320      149.719    5174.361  
5232.905   12.250     67.795     0.032      0.292      0.005      0.039      0.000      0.000      0.015      0.066      0.002      48.472     55.493     12.069     0.281      1.473      5.155      56.881     0.149      0.126      0.180      0.227      7.789      2.023      2.430      2.542      4.115      136.213    5174.513  
5233.057   12.250     67.574     0.031      0.299      0.006      0.038      0.000      0.000      0.007      0.063      0.002      43.170     54.645     12.080     0.283      1.443      5.068      61.438     0.150      0.129      0.185      0.243      7.834      1.780      2.404      2.237      3.680      133.719    5174.666  
